%time,field.header.seq,field.header.stamp,field.header.frame_id,field.pose.position.x,field.pose.position.y,field.pose.position.z,field.pose.orientation.x,field.pose.orientation.y,field.pose.orientation.z,field.pose.orientation.w
1583763060238546846,274,1583763053431429090,vo,-0.000568749300368,-0.0042902461478,0.0,0.0,0.0,-0.000490071697438,0.999999879915
1583763060238584275,275,1583763053531537839,vo,-0.000630581659295,-0.0031085967932,0.0,0.0,0.0,-0.000344647869737,0.999999940609
1583763060238631555,276,1583763053631885053,vo,-0.0002484302118,-0.00266897488491,0.0,0.0,0.0,-0.000354486771528,0.99999993717
1583763060238684482,277,1583763053731914071,vo,-0.000215790492249,-0.00448776311811,0.0,0.0,0.0,-0.00029985339501,0.999999955044
1583763060238737762,278,1583763053831948335,vo,-0.000767031313095,-0.000508568785171,0.0,0.0,0.0,-0.000718814090993,0.999999741653
1583763060239209359,279,1583763053932106723,vo,-0.000394964446989,-0.00180024486385,0.0,0.0,0.0,-0.000342902484297,0.999999941209
1583763060239807919,280,1583763054032229505,vo,-0.00031221055583,-0.0016306728594,0.0,0.0,0.0,-0.000372192357077,0.999999930736
1583763060239920566,281,1583763054132392487,vo,-0.000104486552436,-0.00370330589615,0.0,0.0,0.0,-0.000206770578919,0.999999978623
1583763060239941041,282,1583763054232638144,vo,-0.000272675763017,-0.00500135837353,0.0,0.0,0.0,-0.000200581021839,0.999999979884
1583763060240077660,283,1583763054332841000,vo,-0.000514955039148,-0.00484413808072,0.0,0.0,0.0,-0.00022654655642,0.999999974338
1583763060240273263,284,1583763054433005681,vo,-0.000530033245793,-0.00317628807741,0.0,0.0,0.0,-0.000283627170593,0.999999959778
1583763060240296617,285,1583763054533224843,vo,-0.000662420725977,-0.00276292722594,0.0,0.0,0.0,-0.000622094971152,0.999999806499
1583763060240368315,286,1583763054633394752,vo,-0.000697567079261,-0.00288317601826,0.0,0.0,0.0,-0.000260555014221,0.999999966056
1583763060240408701,287,1583763054733524823,vo,-0.000547900786367,-0.00376387940785,0.0,0.0,0.0,-0.000205175479667,0.999999978952
1583763060240463318,288,1583763054833639238,vo,-0.00034716526175,-0.00305310272922,0.0,0.0,0.0,-0.000285240112958,0.999999959319
1583763060240506898,289,1583763054933801166,vo,-6.20447880065e-05,-0.00582084647708,0.0,0.0,0.0,-0.000121711423152,0.999999992593
1583763060240561225,290,1583763055034087359,vo,-0.000309232619275,-0.00650285058897,0.0,0.0,0.0,-0.000136353686147,0.999999990704
1583763060240620052,291,1583763055134096080,vo,-0.000300183520088,-0.00065636662565,0.0,0.0,0.0,-0.000589903601249,0.999999826007
1583763060240671672,292,1583763055234315896,vo,-0.000164508441691,-0.00287179030273,0.0,0.0,0.0,-0.000226484480847,0.999999974352
1583763060240708621,293,1583763055334449510,vo,-0.000402490582191,-0.00381085696016,0.0,0.0,0.0,-0.000270890773063,0.999999963309
1583763060240771819,294,1583763055434555737,vo,-0.000436969579902,-0.00367544497334,0.0,0.0,0.0,-0.000313896476985,0.999999950734
1583763060240823205,295,1583763055534661313,vo,-5.84206220194e-05,-0.0045906894454,0.0,0.0,0.0,2.38119162762e-05,0.999999999716
1583763060240868332,296,1583763055634849074,vo,0.00030527855653,-0.00543620824783,0.0,0.0,0.0,-4.46524651826e-05,0.999999999003
1583763060240925195,297,1583763055735070097,vo,0.0034651076309,-0.00201010638933,0.0,0.0,0.0,-0.000105932133921,0.999999994389
1583763060240973818,298,1583763055835086386,vo,0.00903963949101,0.00458579005405,0.0,0.0,0.0,0.00026978552654,0.999999963608
1583763060241015731,299,1583763055935256516,vo,0.0160042433446,-0.00143482329882,0.0,0.0,0.0,0.000749677035922,0.999999718992
1583763060241086186,300,1583763056035460349,vo,0.0250906810843,0.00525904799026,0.0,0.0,0.0,0.00100005707859,0.999999499943
1583763060241129215,301,1583763056135439866,vo,0.036053668736,0.00763553110143,0.0,0.0,0.0,0.00097815489491,0.999999521606
1583763060241184459,302,1583763056235877615,vo,0.0500385154477,0.00775803016199,0.0,0.0,0.0,0.001169342126,0.999999316319
1583763060241232542,303,1583763056335945550,vo,0.0643684246639,0.00939614497972,0.0,0.0,0.0,0.00110594944638,0.999999388438
1583763060241309487,304,1583763056435964974,vo,0.0824544733419,0.00964791398507,0.0,0.0,0.0,0.000921995231486,0.999999574962
1583763060242064857,305,1583763056536346657,vo,0.102244339529,0.012700572442,0.0,0.0,0.0,0.000883879989758,0.999999609378
1583763060243227366,306,1583763056636583642,vo,0.124900618502,0.0141930102618,0.0,0.0,0.0,0.00114697298478,0.999999342226
1583763060243550604,307,1583763056736780337,vo,0.146335984489,0.0170501603919,0.0,0.0,0.0,0.00123097622758,0.999999242348
1583763060243818538,308,1583763056836896846,vo,0.168980838776,0.0181092065139,0.0,0.0,0.0,0.000895939594016,0.999999598646
1583763060243980716,309,1583763056937188859,vo,0.189935884389,0.0200011817372,0.0,0.0,0.0,0.0011385206862,0.999999351885
1583763060244022074,310,1583763057037550602,vo,0.211295097965,0.0266602166865,0.0,0.0,0.0,0.00167834110149,0.999998591585
1583763060244233450,311,1583763057137994355,vo,0.232585053729,0.0285783159025,0.0,0.0,0.0,0.00157502195569,0.999998759652
1583763060244648184,312,1583763057238260432,vo,0.254006379115,0.0284576879625,0.0,0.0,0.0,0.00142450557953,0.999998985391
1583763060244698887,313,1583763057338592832,vo,0.27547735167,0.032453063803,0.0,0.0,0.0,0.00157376330465,0.999998761634
1583763060244787411,314,1583763057438971787,vo,0.295334269995,0.0374399173914,0.0,0.0,0.0,0.00131383745559,0.999999136915
1583763060244805721,315,1583763057539095823,vo,0.317142412867,0.0332251555461,0.0,0.0,0.0,0.00149278998739,0.999998885788
1583763060244824773,316,1583763057639335244,vo,0.337620604141,0.0373837047755,0.0,0.0,0.0,0.00137065714405,0.999999060649
1583763060244848144,317,1583763057739586658,vo,0.358313907149,0.041859561377,0.0,0.0,0.0,0.00149910207047,0.999998876346
1583763060244863800,318,1583763057839550337,vo,0.380349679132,0.0452161691393,0.0,0.0,0.0,0.00130175903075,0.999999152711
1583763060244952502,319,1583763057939995413,vo,0.400601033784,0.0514907029608,0.0,0.0,0.0,0.00146744419665,0.999998923303
1583763060245001945,320,1583763058040127063,vo,0.422123270829,0.0565827454013,0.0,0.0,0.0,0.00139857323247,0.999999021996
1583763060245040307,321,1583763058140247643,vo,0.442883409806,0.0597214607815,0.0,0.0,0.0,0.00126242050936,0.999999203147
1583763060245341152,322,1583763058240721027,vo,0.464017199847,0.0617383225981,0.0,0.0,0.0,0.00133283974883,0.999999111769
1583763060245352664,323,1583763058340988760,vo,0.485640273649,0.06574984231,0.0,0.0,0.0,0.000855373704084,0.999999634168
1583763060245362297,324,1583763058441126898,vo,0.507256356455,0.0667466434585,0.0,0.0,0.0,0.00086408151643,0.999999626681
1583763060245532331,325,1583763058541322468,vo,0.527579642098,0.0700566602339,0.0,0.0,0.0,0.000575364112667,0.999999834478
1583763060245557299,326,1583763058641482113,vo,0.547279908864,0.0780627326039,0.0,0.0,0.0,6.11522222485e-05,0.99999999813
1583763060245578756,327,1583763058741636071,vo,0.568584769848,0.0776431551397,0.0,0.0,0.0,0.000493940858321,0.999999878011
1583763060245645418,328,1583763058841956054,vo,0.58849142068,0.0782393870307,0.0,0.0,0.0,0.000332482386053,0.999999944728
1583763060245735184,329,1583763058941972950,vo,0.609372053162,0.0802269195319,0.0,0.0,0.0,0.000541943381107,0.999999853149
1583763060245764166,330,1583763059042422378,vo,0.629405453585,0.0790351653013,0.0,0.0,0.0,0.000239125812238,0.999999971409
1583763060245855650,331,1583763059142460317,vo,0.649563134284,0.083819175754,0.0,0.0,0.0,-0.000221071788414,0.999999975564
1583763060245885052,332,1583763059242817705,vo,0.670414971439,0.0820363018056,0.0,0.0,0.0,6.89700280289e-05,0.999999997622
1583763060246467588,333,1583763059343088337,vo,0.691109135867,0.0814583880149,0.0,0.0,0.0,-0.000321471926243,0.999999948328
1583763060246739201,334,1583763059443183469,vo,0.711249941003,0.0849575309286,0.0,0.0,0.0,-0.000156568063125,0.999999987743
1583763060246843092,335,1583763059543381532,vo,0.731468668138,0.0798155744433,0.0,0.0,0.0,-0.000698793588674,0.999999755844
1583763060246873281,336,1583763059643713887,vo,0.751285695503,0.0844574483998,0.0,0.0,0.0,-0.000717864439965,0.999999742335
1583763060246883897,337,1583763059744161537,vo,0.771349151452,0.0860888713537,0.0,0.0,0.0,-0.00089409300332,0.999999600299
1583763060247664418,338,1583763059844536237,vo,0.791794551625,0.0855235564704,0.0,0.0,0.0,-0.000954749806164,0.999999544226
1583763060247768745,339,1583763059944542849,vo,0.811385291016,0.086225062628,0.0,0.0,0.0,-0.00113951471167,0.999999350753
1583763060247790031,340,1583763060044768257,vo,0.830567666656,0.0896609016805,0.0,0.0,0.0,-0.00208227273382,0.999997832068
1583763060248169200,341,1583763060144891805,vo,0.850498221727,0.0888186448696,0.0,0.0,0.0,-0.0019605693998,0.999998078082
1583763060314388273,342,1583763060244996890,vo,0.870809360896,0.0946607534696,0.0,0.0,0.0,-0.00209118110564,0.999997813478
1583763060420329364,343,1583763060345158162,vo,0.889885090652,0.0939448314309,0.0,0.0,0.0,-0.00296527584904,0.99999560356
1583763060518276646,344,1583763060445289112,vo,0.909514045286,0.0926079574635,0.0,0.0,0.0,-0.00270502149621,0.999996341423
1583763060614845786,345,1583763060545319049,vo,0.928780761575,0.0932325249493,0.0,0.0,0.0,-0.00311204571155,0.999995157574
1583763060720934161,346,1583763060645394029,vo,0.948377544403,0.091969200355,0.0,0.0,0.0,-0.00315419962152,0.9999950255
1583763060821520865,347,1583763060745642001,vo,0.966684698387,0.0981266614658,0.0,0.0,0.0,-0.00404305009182,0.99999182684
1583763060921268320,348,1583763060845771138,vo,0.986673330905,0.101442626238,0.0,0.0,0.0,-0.00409577033955,0.999991612297
1583763061019942369,349,1583763060945901450,vo,1.00709288005,0.102898235024,0.0,0.0,0.0,-0.00487376864999,0.999988123119
1583763061124652174,350,1583763061046109339,vo,1.02766850545,0.10442290916,0.0,0.0,0.0,-0.00445117752206,0.99999009346
1583763061216952990,351,1583763061146261241,vo,1.04703454372,0.0965187007849,0.0,0.0,0.0,-0.00557925995717,0.999984435808
1583763061322314134,352,1583763061246649989,vo,1.06791799078,0.104112095578,0.0,0.0,0.0,-0.00558000821798,0.999984431633
1583763061417446736,353,1583763061347031301,vo,1.08761782486,0.108389497857,0.0,0.0,0.0,-0.00605354428532,0.999981677133
1583763061517972699,354,1583763061447420729,vo,1.10825459188,0.106308667519,0.0,0.0,0.0,-0.00650662844079,0.999978831669
1583763061619066058,355,1583763061547698135,vo,1.12751785776,0.106462884771,0.0,0.0,0.0,-0.00663502862573,0.999977987955
1583763061719496761,356,1583763061647891821,vo,1.14813546432,0.104654699127,0.0,0.0,0.0,-0.00635452495109,0.999979809803
1583763061818015607,357,1583763061748097902,vo,1.16594899429,0.108515571335,0.0,0.0,0.0,-0.00740741524253,0.999972564723
1583763061922074343,358,1583763061848258023,vo,1.18226395478,0.111846542745,0.0,0.0,0.0,-0.00936259117684,0.999956169983
1583763062022299592,359,1583763061948473717,vo,1.19439242293,0.109484524655,0.0,0.0,0.0,-0.00880506212992,0.999961234689
1583763062119227838,360,1583763062048702651,vo,1.20434057984,0.108901484651,0.0,0.0,0.0,-0.00874263587486,0.999961782429
1583763062222102337,361,1583763062148916283,vo,1.21146509114,0.109815783285,0.0,0.0,0.0,-0.00925980371056,0.999957127099
1583763062321077612,362,1583763062249091332,vo,1.21531170299,0.104523625246,0.0,0.0,0.0,-0.00868810033426,0.999962257744
1583763062428008815,363,1583763062349317189,vo,1.21560212729,0.106127573072,0.0,0.0,0.0,-0.00831480039939,0.99996543145
1583763062522401889,364,1583763062449523274,vo,1.2159755791,0.107161086169,0.0,0.0,0.0,-0.00807693290128,0.999967381045
1583763062621814385,365,1583763062549589733,vo,1.21549039104,0.111608919985,0.0,0.0,0.0,-0.00794972926848,0.999968400403
1583763062718107707,366,1583763062649849839,vo,1.21541811405,0.111821055105,0.0,0.0,0.0,-0.0081168144626,0.999967058119
1583763062821298205,367,1583763062749898045,vo,1.21504991218,0.112411428142,0.0,0.0,0.0,-0.00832481998238,0.999965348086
1583763062920451825,368,1583763062850255632,vo,1.21456615194,0.113415368,0.0,0.0,0.0,-0.00817419442665,0.999966590715
1583763063026908158,369,1583763062950337860,vo,1.21408490103,0.115842690843,0.0,0.0,0.0,-0.00816930102576,0.999966630704
1583763063121607288,370,1583763063050400414,vo,1.21446010818,0.113958542069,0.0,0.0,0.0,-0.00767295445208,0.999970562452
1583763063221731627,371,1583763063150606246,vo,1.21436316003,0.114020467501,0.0,0.0,0.0,-0.00800342626764,0.999967972071
1583763063339419942,372,1583763063250702521,vo,1.21435013667,0.111515949878,0.0,0.0,0.0,-0.0080044343166,0.999967964002
1583763063419603785,373,1583763063350884220,vo,1.2137892058,0.110189975004,0.0,0.0,0.0,-0.0079405359634,0.999968473447
1583763063520973766,374,1583763063451163768,vo,1.21405874794,0.111195798935,0.0,0.0,0.0,-0.00776165959817,0.999969877866
1583763063620894609,375,1583763063551369024,vo,1.21348814899,0.110162698307,0.0,0.0,0.0,-0.00785789214399,0.999969126289
1583763063720156344,376,1583763063651610292,vo,1.21391657586,0.110398967375,0.0,0.0,0.0,-0.00811231250076,0.999967094652
1583763063818448132,377,1583763063751922877,vo,1.21328683078,0.111719775214,0.0,0.0,0.0,-0.00828521649087,0.999965677005
1583763063931639093,378,1583763063852122307,vo,1.21348228551,0.112741384327,0.0,0.0,0.0,-0.00836083074181,0.999965047644
1583763064024914113,379,1583763063952366118,vo,1.21322229461,0.109602310211,0.0,0.0,0.0,-0.00795318289287,0.999968372941
1583763064122051562,380,1583763064052577011,vo,1.21288801345,0.108627700175,0.0,0.0,0.0,-0.00823715092709,0.999966074097
1583763064228530779,381,1583763064153012888,vo,1.21311903096,0.107731893174,0.0,0.0,0.0,-0.00788302629224,0.999968928466
1583763064338609672,382,1583763064253274425,vo,1.21225705385,0.11408056705,0.0,0.0,0.0,-0.00787862830349,0.999968963126
1583763064422175948,383,1583763064353390310,vo,1.21229372639,0.112731493575,0.0,0.0,0.0,-0.0077678184865,0.999969830043
1583763064529372069,384,1583763064453664202,vo,1.21246637763,0.110696875941,0.0,0.0,0.0,-0.00800393613113,0.99996796799
1583763064623350452,385,1583763064553873187,vo,1.2123294794,0.11064168719,0.0,0.0,0.0,-0.00792494373119,0.99996859714
1583763064725491797,386,1583763064654141782,vo,1.21247814206,0.112240741896,0.0,0.0,0.0,-0.0078053174698,0.999969538046
1583763064841940645,387,1583763064754272312,vo,1.21215482619,0.108926225748,0.0,0.0,0.0,-0.00830447141018,0.999965517283
1583763064924767123,388,1583763064854587031,vo,1.21223348325,0.112079863798,0.0,0.0,0.0,-0.00821447934749,0.999966260595
1583763065025456360,389,1583763064954829763,vo,1.21181655341,0.11448960967,0.0,0.0,0.0,-0.00818635425317,0.999966491241
1583763065131856132,390,1583763065054952213,vo,1.2120218497,0.114452820571,0.0,0.0,0.0,-0.00841933869225,0.99996455674
1583763065222328125,391,1583763065155158476,vo,1.21105423792,0.114227565774,0.0,0.0,0.0,-0.0078094942001,0.999969505435
1583763065324933474,392,1583763065255340911,vo,1.21153544986,0.110615674107,0.0,0.0,0.0,-0.00777300796241,0.999969789717
1583763065430649897,393,1583763065355304305,vo,1.21184098445,0.111227627648,0.0,0.0,0.0,-0.00818502276921,0.99996650214
1583763065525817899,394,1583763065455604058,vo,1.21165196226,0.110544721408,0.0,0.0,0.0,-0.00780152439521,0.999969567645
1583763065638294217,395,1583763065555619462,vo,1.2115201467,0.110630983624,0.0,0.0,0.0,-0.00807234389047,0.999967418101
1583763065739423165,396,1583763065655829850,vo,1.2110706078,0.109511933967,0.0,0.0,0.0,-0.0077565147746,0.999969917787
1583763065839552313,397,1583763065756026572,vo,1.21110914233,0.110051217835,0.0,0.0,0.0,-0.00760263424184,0.999971099559
1583763065943299556,398,1583763065856024389,vo,1.21064683753,0.108755227585,0.0,0.0,0.0,-0.00770864787813,0.999970287933
1583763066040016966,399,1583763065956333326,vo,1.21088084929,0.110308603737,0.0,0.0,0.0,-0.00823053058345,0.99996612861
1583763066126352639,400,1583763066056393178,vo,1.21027227559,0.109948762366,0.0,0.0,0.0,-0.00770537111706,0.999970313187
1583763066244661554,401,1583763066156434916,vo,1.20992922151,0.109882862922,0.0,0.0,0.0,-0.00750550922556,0.999971833269
1583763066330579089,402,1583763066256585575,vo,1.21028120134,0.112796603439,0.0,0.0,0.0,-0.0078527689733,0.999969166534
1583763066438895904,403,1583763066356648931,vo,1.21026066269,0.11003251425,0.0,0.0,0.0,-0.00768511719019,0.999970469051
1583763066527243269,404,1583763066456808490,vo,1.20991063403,0.111209125138,0.0,0.0,0.0,-0.00821910730622,0.999966222567
1583763066624648497,405,1583763066557017042,vo,1.21035051807,0.112238651555,0.0,0.0,0.0,-0.00787428436482,0.999968997342
1583763066740044087,406,1583763066656976590,vo,1.20987519568,0.113398493142,0.0,0.0,0.0,-0.00798728283204,0.999968101148
1583763066838286401,407,1583763066757008220,vo,1.20915976081,0.113349719479,0.0,0.0,0.0,-0.00776058251801,0.999969886226
1583763066940300119,408,1583763066857267614,vo,1.20955940044,0.111101176978,0.0,0.0,0.0,-0.00787384174526,0.999969000828
1583763067047364617,409,1583763066957494854,vo,1.20905489564,0.111304254405,0.0,0.0,0.0,-0.00795270528361,0.999968376739
1583763067128238923,410,1583763067057616526,vo,1.20897140609,0.111848640337,0.0,0.0,0.0,-0.0080659011003,0.999967470091
1583763067237240502,411,1583763067157675708,vo,1.20923567806,0.109604839715,0.0,0.0,0.0,-0.00817325710431,0.999966598376
1583763067325703590,412,1583763067257873479,vo,1.20964801467,0.108222139835,0.0,0.0,0.0,-0.00763962377046,0.999970817649
1583763067427389588,413,1583763067357889829,vo,1.20945944616,0.110387752583,0.0,0.0,0.0,-0.00766352512109,0.99997063476
1583763067543448310,414,1583763067458127701,vo,1.20832797679,0.111521641825,0.0,0.0,0.0,-0.00725382707746,0.99997369065
1583763067626500632,415,1583763067558366527,vo,1.20837154769,0.110752769092,0.0,0.0,0.0,-0.00778448574923,0.999969700432
1583763067739485044,416,1583763067658616254,vo,1.20885786545,0.111296574766,0.0,0.0,0.0,-0.00782887655527,0.999969353876
1583763067838774325,417,1583763067758897054,vo,1.20797699383,0.110977806076,0.0,0.0,0.0,-0.00764358096867,0.999970787408
1583763067928627253,418,1583763067859212339,vo,1.20797740338,0.111600235291,0.0,0.0,0.0,-0.00784979961728,0.999969189848
1583763068040609401,419,1583763067959420504,vo,1.20843273235,0.110533765453,0.0,0.0,0.0,-0.00775083030245,0.999969961864
1583763068131959641,420,1583763068059519510,vo,1.20826735348,0.111713696763,0.0,0.0,0.0,-0.007916121403,0.99996866702
1583763068233346456,421,1583763068159805029,vo,1.20829444052,0.109030785624,0.0,0.0,0.0,-0.00799463981919,0.999968042356
1583763068341271347,422,1583763068259999512,vo,1.20851287091,0.110047893695,0.0,0.0,0.0,-0.00804062525353,0.99996767365
1583763068434482849,423,1583763068360135735,vo,1.20853496238,0.10998339768,0.0,0.0,0.0,-0.00791685233782,0.999968661233
1583763068533956473,424,1583763068460384060,vo,1.20761727818,0.106350940951,0.0,0.0,0.0,-0.00726100639963,0.999973638546
1583763068627658121,425,1583763068560716375,vo,1.20745410421,0.107428232307,0.0,0.0,0.0,-0.00782385014621,0.999969393216
1583763068729383803,426,1583763068660870919,vo,1.20814121884,0.107483144223,0.0,0.0,0.0,-0.00770814857694,0.999970291781
1583763068838579465,427,1583763068761114083,vo,1.20765961828,0.109466637127,0.0,0.0,0.0,-0.00794028078072,0.999968475474
1583763068941172710,428,1583763068861204042,vo,1.20778782897,0.110061157326,0.0,0.0,0.0,-0.00803942639582,0.999967683289
1583763069040764718,429,1583763068961472931,vo,1.20775077317,0.105421272218,0.0,0.0,0.0,-0.00786014412959,0.99996910859
1583763069137503687,430,1583763069061783809,vo,1.20758411914,0.108889402854,0.0,0.0,0.0,-0.00801391512636,0.999967888067
1583763069239887194,431,1583763069161878179,vo,1.20761179922,0.107470328596,0.0,0.0,0.0,-0.0076729162091,0.999970562745
1583763069341257307,432,1583763069262183095,vo,1.20730786007,0.108543941227,0.0,0.0,0.0,-0.00726709178919,0.99997359434
1583763069455887295,433,1583763069362274149,vo,1.20757383127,0.109128333906,0.0,0.0,0.0,-0.00767116708614,0.999970576165
1583763069541356210,434,1583763069462468917,vo,1.2069152062,0.109504352728,0.0,0.0,0.0,-0.00757832108248,0.999971284112
1583763069632417377,435,1583763069562734241,vo,1.20674970229,0.109249875323,0.0,0.0,0.0,-0.0074260010107,0.999972426874
1583763069747305602,436,1583763069662811212,vo,1.20692946676,0.111214109216,0.0,0.0,0.0,-0.00753351097315,0.999971622704
1583763069847761192,437,1583763069762904161,vo,1.20680018148,0.115684254545,0.0,0.0,0.0,-0.00780774421248,0.999969519101
1583763069940127393,438,1583763069863186622,vo,1.20736752468,0.112722729294,0.0,0.0,0.0,-0.00749970116644,0.999971876846
1583763070052961307,439,1583763069963457960,vo,1.20707560831,0.112603765687,0.0,0.0,0.0,-0.00771392602692,0.99997024723
1583763070150616439,440,1583763070063546531,vo,1.20631256555,0.114128838465,0.0,0.0,0.0,-0.00782307072755,0.999969399314
1583763070242618363,441,1583763070163719768,vo,1.20637808568,0.114342353328,0.0,0.0,0.0,-0.00795917118624,0.999968325295
1583763070333721669,442,1583763070263875233,vo,1.20639064557,0.114967062636,0.0,0.0,0.0,-0.00749145465038,0.99997193866
1583763070442081960,443,1583763070363956953,vo,1.20590426942,0.115205095682,0.0,0.0,0.0,-0.00721274908972,0.999973987787
1583763070534354163,444,1583763070464056308,vo,1.20649424839,0.115065615113,0.0,0.0,0.0,-0.00749745811161,0.999971893666
1583763070650232990,445,1583763070564252800,vo,1.20518928657,0.11331362734,0.0,0.0,0.0,-0.00729895934355,0.999973362241
1583763070741774917,446,1583763070664313564,vo,1.20631535279,0.116065300082,0.0,0.0,0.0,-0.0072842802457,0.999973469279
1583763070839961999,447,1583763070764515583,vo,1.20593169394,0.113145602074,0.0,0.0,0.0,-0.00718014189263,0.999974222449
1583763070939311643,448,1583763070864642104,vo,1.20602147732,0.110530336471,0.0,0.0,0.0,-0.00727210564423,0.99997355789
1583763071040108960,449,1583763070964925836,vo,1.20637370247,0.109133116194,0.0,0.0,0.0,-0.00614783202379,0.999981101902
1583763071133793633,450,1583763071065310839,vo,1.20617660124,0.104764761719,0.0,0.0,0.0,0.000875341046881,0.999999616889
1583763071248768453,451,1583763071165658063,vo,1.20640350073,0.0884484601016,0.0,0.0,0.0,0.0100820433603,0.999949174909
1583763071342761021,452,1583763071265516680,vo,1.20720592931,0.0772789118204,0.0,0.0,0.0,0.020235628229,0.999795238711
1583763071441250790,453,1583763071365644178,vo,1.20701189121,0.0683873178189,0.0,0.0,0.0,0.0310262412917,0.999518570288
1583763071537389984,454,1583763071465753823,vo,1.20642364357,0.0600899850771,0.0,0.0,0.0,0.0423482447965,0.999102910697
1583763071642865995,455,1583763071565987391,vo,1.20763424612,0.0412208579464,0.0,0.0,0.0,0.0528113296449,0.998604508032
1583763071736370381,456,1583763071666109033,vo,1.20828011044,0.0295475241458,0.0,0.0,0.0,0.0636399847722,0.997972921646
1583763071852497401,457,1583763071766317880,vo,1.20763595682,0.0177275655795,0.0,0.0,0.0,0.0724456242655,0.997372363526
1583763071941772724,458,1583763071866619429,vo,1.20839295085,0.0130526505504,0.0,0.0,0.0,0.084879030758,0.99639126358
1583763072043072024,459,1583763071966666960,vo,1.20879308277,-0.00182872501779,0.0,0.0,0.0,0.0951748353087,0.995460572159
1583763072139803456,460,1583763072066860469,vo,1.20816131304,-0.0158717094211,0.0,0.0,0.0,0.105538121428,0.99441525779
1583763072241333451,461,1583763072167186082,vo,1.20928853529,-0.0330010867036,0.0,0.0,0.0,0.115855849684,0.993266037924
1583763072336320436,462,1583763072267252021,vo,1.21020146616,-0.0485551269569,0.0,0.0,0.0,0.126537607969,0.991961810641
1583763072442283432,463,1583763072367418788,vo,1.21006694667,-0.0642463370162,0.0,0.0,0.0,0.136997413586,0.990571405135
1583763072539015437,464,1583763072467644823,vo,1.21043614374,-0.0798131198983,0.0,0.0,0.0,0.147620753695,0.98904404001
1583763072643772164,465,1583763072567859129,vo,1.21118964835,-0.0973520094155,0.0,0.0,0.0,0.158515718075,0.987356453933
1583763072736969496,466,1583763072667953949,vo,1.21207047896,-0.106772998676,0.0,0.0,0.0,0.169337743966,0.985558079703
1583763072843508216,467,1583763072768086859,vo,1.21254630037,-0.118755037228,0.0,0.0,0.0,0.179753157131,0.983711747669
1583763072939648988,468,1583763072868292057,vo,1.21226328818,-0.130152725611,0.0,0.0,0.0,0.190010129397,0.981782129969
1583763073051068468,469,1583763072968682868,vo,1.21270517974,-0.13734485533,0.0,0.0,0.0,0.200567041581,0.979679979295
1583763073142406070,470,1583763073068814640,vo,1.21363952053,-0.150470908598,0.0,0.0,0.0,0.211542639576,0.977368769524
1583763073239174463,471,1583763073169108392,vo,1.21449180455,-0.162984354122,0.0,0.0,0.0,0.221615604597,0.975134105546
1583763073338843208,472,1583763073269144072,vo,1.21426901166,-0.180253721463,0.0,0.0,0.0,0.2320705993,0.972698944659
1583763073441570750,473,1583763073369404640,vo,1.21553228399,-0.194813696619,0.0,0.0,0.0,0.242357416757,0.970187034825
1583763073541159187,474,1583763073469378532,vo,1.21547377612,-0.203499701969,0.0,0.0,0.0,0.252323535657,0.967642926576
1583763073642463251,475,1583763073569665320,vo,1.21478220893,-0.205317606743,0.0,0.0,0.0,0.26209413392,0.965042312525
1583763073742442680,476,1583763073669523208,vo,1.21519963443,-0.208281624599,0.0,0.0,0.0,0.272695216846,0.962100472253
1583763073840617857,477,1583763073769784984,vo,1.2152769867,-0.207187037365,0.0,0.0,0.0,0.282319243323,0.959320512055
1583763073941057470,478,1583763073869905059,vo,1.21561017719,-0.211962273094,0.0,0.0,0.0,0.292359382952,0.95630852302
1583763074044655250,479,1583763073970115253,vo,1.213882658,-0.210147947444,0.0,0.0,0.0,0.297890099961,0.954600171981
1583763074140094427,480,1583763074070214251,vo,1.21357826001,-0.208047180826,0.0,0.0,0.0,0.299415404302,0.954122851454
1583763074251517250,481,1583763074170426657,vo,1.21428241349,-0.208386242402,0.0,0.0,0.0,0.300847571484,0.953672238629
1583763074339498611,482,1583763074270413591,vo,1.2152348264,-0.211020663557,0.0,0.0,0.0,0.301689372429,0.953406273612
1583763074438202243,483,1583763074370696618,vo,1.21450172844,-0.210669379634,0.0,0.0,0.0,0.301627692858,0.95342578888
1583763074554094929,484,1583763074470717226,vo,1.21435996714,-0.212086119894,0.0,0.0,0.0,0.301750874012,0.953386810289
1583763074640875512,485,1583763074570820737,vo,1.21476650873,-0.20737327358,0.0,0.0,0.0,0.30195563682,0.953321977819
1583763074742355314,486,1583763074671053440,vo,1.21419371189,-0.207232915302,0.0,0.0,0.0,0.301775206937,0.953379108476
1583763074838666623,487,1583763074771204625,vo,1.21432919476,-0.20801418651,0.0,0.0,0.0,0.302023635021,0.95330043737
1583763074939079161,488,1583763074871339291,vo,1.21598484377,-0.209436653813,0.0,0.0,0.0,0.30260152619,0.953117157724
1583763075041242706,489,1583763074971757857,vo,1.21577893181,-0.206397491893,0.0,0.0,0.0,0.302228541759,0.9532354948
1583763075138642468,490,1583763075071755910,vo,1.21439500524,-0.206364753661,0.0,0.0,0.0,0.301925264623,0.95333159739
1583763075242211670,491,1583763075171871322,vo,1.21473401975,-0.207876049065,0.0,0.0,0.0,0.302014491017,0.953303334315
1583763075340802960,492,1583763075272039574,vo,1.21558996195,-0.205324962268,0.0,0.0,0.0,0.30291750009,0.953016782717
1583763075440254906,493,1583763075372099189,vo,1.21517756787,-0.20736405946,0.0,0.0,0.0,0.302179099458,0.953251169341
1583763075540744437,494,1583763075472352743,vo,1.21453424507,-0.207227008885,0.0,0.0,0.0,0.302112711845,0.953272211565
1583763075638839378,495,1583763075572494930,vo,1.21495461862,-0.207947708969,0.0,0.0,0.0,0.302226132147,0.953236258777
1583763075740686330,496,1583763075672658375,vo,1.21443650758,-0.208090047148,0.0,0.0,0.0,0.301803894888,0.95337002734
1583763075840758172,497,1583763075772794136,vo,1.2151457154,-0.20768872155,0.0,0.0,0.0,0.302061416583,0.953288466631
1583763075940831774,498,1583763075872780049,vo,1.21510139591,-0.207987049213,0.0,0.0,0.0,0.302119218745,0.953270149362
1583763076048904116,499,1583763075973093368,vo,1.21428410573,-0.207715401461,0.0,0.0,0.0,0.301998791183,0.953308308012
1583763076141926643,500,1583763076073191678,vo,1.21584968663,-0.209537882569,0.0,0.0,0.0,0.302546180876,0.953134727327
1583763076240919675,501,1583763076173335351,vo,1.21531382442,-0.207668756968,0.0,0.0,0.0,0.302242173708,0.953231172608
1583763076347648659,502,1583763076273667685,vo,1.21526697053,-0.207849952732,0.0,0.0,0.0,0.302284326719,0.953217806076
1583763076441841030,503,1583763076373814258,vo,1.21558591735,-0.208335530738,0.0,0.0,0.0,0.302424862938,0.953173227843
1583763076543618433,504,1583763076474034411,vo,1.21508291895,-0.208761632362,0.0,0.0,0.0,0.302394011235,0.953183015989
1583763076649328242,505,1583763076574180691,vo,1.21511556401,-0.209034470738,0.0,0.0,0.0,0.302245072416,0.953230253507
1583763076742521084,506,1583763076674450113,vo,1.21480823152,-0.207548851253,0.0,0.0,0.0,0.302042681114,0.953294402997
1583763076841029816,507,1583763076774784543,vo,1.21493249083,-0.207534669579,0.0,0.0,0.0,0.301955188821,0.953322119718
1583763076949526632,508,1583763076874805792,vo,1.21469741041,-0.207377397441,0.0,0.0,0.0,0.301896686904,0.953340647637
1583763077042373197,509,1583763076975146984,vo,1.21590108608,-0.207970102299,0.0,0.0,0.0,0.302330252769,0.953203240794
1583763077142074223,510,1583763077075251760,vo,1.21596822662,-0.208861710385,0.0,0.0,0.0,0.302642454121,0.953104162704
1583763077251078841,511,1583763077175427976,vo,1.21511260502,-0.211163044141,0.0,0.0,0.0,0.302215582746,0.953239603429
1583763077342081872,512,1583763077275806640,vo,1.21612618524,-0.208308011098,0.0,0.0,0.0,0.302502470952,0.953148600727
1583763077447039637,513,1583763077375982753,vo,1.21478082275,-0.207402373109,0.0,0.0,0.0,0.301904149498,0.953338284407
1583763077548807475,514,1583763077476212819,vo,1.21440250061,-0.20781880541,0.0,0.0,0.0,0.301992734192,0.953310226786
1583763077643397673,515,1583763077576385817,vo,1.21526290992,-0.207825817652,0.0,0.0,0.0,0.302104448239,0.953274830442
1583763077750374006,516,1583763077676417200,vo,1.21610510421,-0.207857300785,0.0,0.0,0.0,0.302697228939,0.953086768134
1583763077852623584,517,1583763077776686675,vo,1.21576304113,-0.205888888238,0.0,0.0,0.0,0.302336523141,0.953201251979
1583763077944806478,518,1583763077876830903,vo,1.21658481519,-0.20639226735,0.0,0.0,0.0,0.30300566763,0.95298875407
1583763078045394311,519,1583763077977044127,vo,1.21529819219,-0.205743818844,0.0,0.0,0.0,0.302377932224,0.95318811685
1583763078148304392,520,1583763078077243491,vo,1.21558272189,-0.207641983444,0.0,0.0,0.0,0.302154377637,0.953259005766
1583763078246669836,521,1583763078177495709,vo,1.21525786445,-0.210470404764,0.0,0.0,0.0,0.302063681301,0.953287749024
1583763078348088441,522,1583763078277767872,vo,1.21552741293,-0.208313193326,0.0,0.0,0.0,0.302331417587,0.953202871345
1583763078451496145,523,1583763078377891234,vo,1.21522192154,-0.208284715276,0.0,0.0,0.0,0.302307889741,0.953210333452
1583763078546141335,524,1583763078478056404,vo,1.21497917569,-0.208129692108,0.0,0.0,0.0,0.302126373265,0.953267881856
1583763078650735675,525,1583763078578215929,vo,1.21599517638,-0.207823057596,0.0,0.0,0.0,0.302602566767,0.953116827354
1583763078750030593,526,1583763078678420759,vo,1.21547675087,-0.210314968515,0.0,0.0,0.0,0.30254797888,0.953134156599
1583763078847193978,527,1583763078778615255,vo,1.2154061464,-0.207481520918,0.0,0.0,0.0,0.302300903931,0.953212548954
1583763078945167024,528,1583763078878896157,vo,1.21562651534,-0.208851194944,0.0,0.0,0.0,0.302644791107,0.95310342063
1583763079049942155,529,1583763078978869890,vo,1.21607774238,-0.208948970652,0.0,0.0,0.0,0.302580814352,0.953123733198
1583763079145519466,530,1583763079079066503,vo,1.21469862216,-0.208910543467,0.0,0.0,0.0,0.302179132619,0.95325115883
1583763079265173409,531,1583763079179257568,vo,1.2157163527,-0.209552697998,0.0,0.0,0.0,0.302544834521,0.953135154689
1583763079351540301,532,1583763079279523794,vo,1.21631988511,-0.20561361807,0.0,0.0,0.0,0.302556311687,0.953131511523
1583763079450828479,533,1583763079379669836,vo,1.21497361087,-0.204167995181,0.0,0.0,0.0,0.302023756971,0.953300398733
1583763079545899435,534,1583763079479978248,vo,1.21526929593,-0.207205189404,0.0,0.0,0.0,0.301956733115,0.953321630577
1583763079652763384,535,1583763079580198678,vo,1.21488249387,-0.208083924391,0.0,0.0,0.0,0.302031507916,0.953297943051
1583763079745724394,536,1583763079680371846,vo,1.21471883554,-0.207949383058,0.0,0.0,0.0,0.302120269943,0.953269816206
1583763079849433363,537,1583763079780581693,vo,1.2161515588,-0.21033487598,0.0,0.0,0.0,0.302881809165,0.953028126383
1583763079948496268,538,1583763079880919476,vo,1.21583463667,-0.208539190614,0.0,0.0,0.0,0.302627696828,0.953108848512
1583763080050113636,539,1583763079981207519,vo,1.21453335775,-0.209730410831,0.0,0.0,0.0,0.301928827301,0.953330469063
1583763080147460410,540,1583763080081452453,vo,1.21501060944,-0.207938835735,0.0,0.0,0.0,0.30197966217,0.953314367685
1583763080250439609,541,1583763080181730350,vo,1.21529571629,-0.20809041294,0.0,0.0,0.0,0.302292269247,0.953215287306
1583763080348791167,542,1583763080282000923,vo,1.21614203946,-0.208585548155,0.0,0.0,0.0,0.302424565491,0.953173322218
1583763080451647676,543,1583763080382173434,vo,1.21641871105,-0.208443812976,0.0,0.0,0.0,0.302627645129,0.953108864928
1583763080548625916,544,1583763080482208308,vo,1.21597909251,-0.207957688051,0.0,0.0,0.0,0.302282883662,0.953218263697
1583763080649010077,545,1583763080582683797,vo,1.21584937358,-0.208448011882,0.0,0.0,0.0,0.302563025182,0.953129380406
1583763080758283355,546,1583763080682907039,vo,1.21420670089,-0.206701591768,0.0,0.0,0.0,0.301631906835,0.953424455727
1583763080852069108,547,1583763080783145119,vo,1.21601469841,-0.2060738965,0.0,0.0,0.0,0.302208930402,0.953241712466
1583763080949481486,548,1583763080883420405,vo,1.21631295081,-0.206121178202,0.0,0.0,0.0,0.302546389764,0.953134661022
1583763081051982308,549,1583763080983456421,vo,1.21610179622,-0.204878728818,0.0,0.0,0.0,0.30247684189,0.953156734289
1583763081151125039,550,1583763081083710536,vo,1.2160943233,-0.206815236792,0.0,0.0,0.0,0.302651717279,0.953101221292
1583763081252644648,551,1583763081183946783,vo,1.21567953329,-0.205614220023,0.0,0.0,0.0,0.302087421182,0.953280226357
1583763081356609661,552,1583763081283997105,vo,1.21594482472,-0.208673886092,0.0,0.0,0.0,0.302186355515,0.953248869153
1583763081455460776,553,1583763081384247931,vo,1.21668955561,-0.208910928999,0.0,0.0,0.0,0.30285469382,0.953036743484
1583763081552716588,554,1583763081484323571,vo,1.21650019019,-0.209151499963,0.0,0.0,0.0,0.30295618871,0.953004484629
1583763081658957631,555,1583763081584476443,vo,1.21733029462,-0.208053084322,0.0,0.0,0.0,0.303066670925,0.952969355737
1583763081751595297,556,1583763081684812327,vo,1.21626526011,-0.209046425899,0.0,0.0,0.0,0.302577074175,0.953124920555
1583763081853882069,557,1583763081784929373,vo,1.21649175401,-0.207537780266,0.0,0.0,0.0,0.30296224615,0.953002558972
1583763081956863773,558,1583763081885304845,vo,1.21631142489,-0.206472392906,0.0,0.0,0.0,0.302494362778,0.953151173995
1583763082055254637,559,1583763081985419471,vo,1.21714833701,-0.209363142057,0.0,0.0,0.0,0.303063513994,0.95297035971
1583763082152156773,560,1583763082085681652,vo,1.21748434631,-0.208805512842,0.0,0.0,0.0,0.302870621905,0.953031681733
1583763082264252024,561,1583763082185797814,vo,1.21685598712,-0.208809542701,0.0,0.0,0.0,0.302502498214,0.953148592075
1583763082353154734,562,1583763082285951863,vo,1.21699008675,-0.208142226368,0.0,0.0,0.0,0.302594028387,0.95311953814
1583763082455094953,563,1583763082386224154,vo,1.21596922173,-0.206924526043,0.0,0.0,0.0,0.302358320079,0.953194338149
1583763082552482434,564,1583763082486399859,vo,1.21573487754,-0.207955953037,0.0,0.0,0.0,0.302304976008,0.95321125753
1583763082653997249,565,1583763082586458259,vo,1.21595541326,-0.207280721016,0.0,0.0,0.0,0.302088211221,0.953279975999
1583763082752097947,566,1583763082686835787,vo,1.21590762091,-0.207645004801,0.0,0.0,0.0,0.302228134603,0.953235623891
1583763082865535762,567,1583763082786862984,vo,1.2168092228,-0.20522559002,0.0,0.0,0.0,0.302682397473,0.953091478432
1583763082954433741,568,1583763082887092656,vo,1.21641292423,-0.206038432129,0.0,0.0,0.0,0.302756026405,0.953068092255
1583763083055146217,569,1583763082987093241,vo,1.21669074433,-0.206562139845,0.0,0.0,0.0,0.302875144656,0.953030244404
1583763083158390091,570,1583763083087146839,vo,1.21668181871,-0.209009804432,0.0,0.0,0.0,0.302722850741,0.953078630355
1583763083261234948,571,1583763083187341459,vo,1.21576426175,-0.207599928342,0.0,0.0,0.0,0.300670718801,0.953728010942
1583763083367005727,572,1583763083287311109,vo,1.21660489497,-0.208472691547,0.0,0.0,0.0,0.293042535581,0.956099405052
1583763083469519926,573,1583763083387510815,vo,1.21663422635,-0.205999004177,0.0,0.0,0.0,0.284367049367,0.958715485029
1583763083556612861,574,1583763083487609198,vo,1.21736449867,-0.204569429301,0.0,0.0,0.0,0.275832068764,0.961205841556
1583763083661211928,575,1583763083587764487,vo,1.21661280232,-0.204978125797,0.0,0.0,0.0,0.264761067732,0.964314044808
1583763083768687264,576,1583763083687898424,vo,1.21591559302,-0.205380355044,0.0,0.0,0.0,0.254297611373,0.967126012911
1583763083865382573,577,1583763083788081456,vo,1.21636808906,-0.200418576812,0.0,0.0,0.0,0.244837981945,0.969564006447
1583763083956861364,578,1583763083888320413,vo,1.21614043034,-0.197353564181,0.0,0.0,0.0,0.235080081896,0.971976005412
1583763084064123810,579,1583763083988472600,vo,1.21668106877,-0.201102289701,0.0,0.0,0.0,0.225705893836,0.974195488333
1583763084170750870,580,1583763084088749960,vo,1.21673398096,-0.200249246392,0.0,0.0,0.0,0.215387833521,0.976528586971
1583763084266490703,581,1583763084188807473,vo,1.21681814283,-0.201965566092,0.0,0.0,0.0,0.205997681962,0.978552479444
1583763084359399830,582,1583763084288936150,vo,1.21606157617,-0.197155544852,0.0,0.0,0.0,0.19505830822,0.9807916478
1583763084459641499,583,1583763084389058836,vo,1.21507816126,-0.1891024788,0.0,0.0,0.0,0.184035361397,0.982919623243
1583763084556040964,584,1583763084489256146,vo,1.21474149857,-0.176374846579,0.0,0.0,0.0,0.172873201775,0.984944087808
1583763084662569324,585,1583763084589665058,vo,1.21510837663,-0.166389587189,0.0,0.0,0.0,0.162549069457,0.986700461142
1583763084756404274,586,1583763084689823203,vo,1.21429397631,-0.155126579893,0.0,0.0,0.0,0.151643164694,0.988435304206
1583763084859695857,587,1583763084790086762,vo,1.21508560673,-0.141273342012,0.0,0.0,0.0,0.141550544734,0.98993102956
1583763084958397512,588,1583763084890315216,vo,1.21527460297,-0.122187359878,0.0,0.0,0.0,0.131559378957,0.99130829201
1583763085060725328,589,1583763084990635884,vo,1.2142256765,-0.103678511839,0.0,0.0,0.0,0.121912674494,0.992540830292
1583763085157067325,590,1583763085090786784,vo,1.21435952054,-0.0856832809602,0.0,0.0,0.0,0.11085586701,0.993836493971
1583763085263229147,591,1583763085190931118,vo,1.212854209,-0.0692773172193,0.0,0.0,0.0,0.100273747661,0.994959886392
1583763085358694169,592,1583763085290998680,vo,1.21383089829,-0.0545914391571,0.0,0.0,0.0,0.0897590386468,0.995963510868
1583763085460620489,593,1583763085391229183,vo,1.21235934678,-0.0376434889154,0.0,0.0,0.0,0.0787419355963,0.99689503338
1583763085558734035,594,1583763085491400563,vo,1.21249608733,-0.0295696961953,0.0,0.0,0.0,0.0679999150364,0.997685326922
1583763085662575812,595,1583763085591707725,vo,1.21320083549,-0.0175725957396,0.0,0.0,0.0,0.0575859038123,0.998340554962
1583763085760833608,596,1583763085691990739,vo,1.21265402041,-0.000397590734139,0.0,0.0,0.0,0.04778079278,0.998857845662
1583763085861924973,597,1583763085792090908,vo,1.2117507807,0.0191077868944,0.0,0.0,0.0,0.0362771406292,0.999341767899
1583763085959817613,598,1583763085892236804,vo,1.21178673903,0.0338923384125,0.0,0.0,0.0,0.0258536507617,0.999665738506
1583763086074923207,599,1583763085992521752,vo,1.2118768136,0.0485535274231,0.0,0.0,0.0,0.0156498541295,0.999877533534
1583763086160271274,600,1583763086092660502,vo,1.21159753737,0.0562976190735,0.0,0.0,0.0,0.00532101649135,0.999985843292
1583763086262676198,601,1583763086192939395,vo,1.21244566003,0.0656206065652,0.0,0.0,0.0,-0.00470376581733,0.999988937232
1583763086360430462,602,1583763086293053477,vo,1.21193464472,0.0805213153338,0.0,0.0,0.0,-0.0142823044854,0.999898002688
1583763086463072383,603,1583763086393249933,vo,1.21284050304,0.0936789658136,0.0,0.0,0.0,-0.0249249117072,0.999689326129
1583763086560923123,604,1583763086493286512,vo,1.21228022304,0.10586284754,0.0,0.0,0.0,-0.0352094012597,0.999379956805
1583763086664444371,605,1583763086593345318,vo,1.21227119338,0.128004538431,0.0,0.0,0.0,-0.0459211365129,0.99894506817
1583763086760668623,606,1583763086693642924,vo,1.21265522142,0.138236704324,0.0,0.0,0.0,-0.056377439631,0.998409527349
1583763086865236509,607,1583763086793833047,vo,1.21207518744,0.152993840138,0.0,0.0,0.0,-0.0673903619938,0.997726685576
1583763086967665974,608,1583763086893929167,vo,1.21261988687,0.165073731423,0.0,0.0,0.0,-0.0779029937994,0.996960943847
1583763087064077794,609,1583763086994299719,vo,1.21152014015,0.181914679807,0.0,0.0,0.0,-0.0886175242914,0.996065727946
1583763087161638580,610,1583763087094241229,vo,1.2115436143,0.200653884443,0.0,0.0,0.0,-0.0990360864379,0.995083842489
1583763087405799489,611,1583763087194436176,vo,1.21173826421,0.217665856059,0.0,0.0,0.0,-0.110519747117,0.993873928372
1583763087416051624,612,1583763087294444839,vo,1.21095406102,0.232743488594,0.0,0.0,0.0,-0.12123002444,0.992624441153
1583763087464412692,613,1583763087394556396,vo,1.20862058964,0.248329202001,0.0,0.0,0.0,-0.13042610363,0.991458033147
1583763087567216523,614,1583763087494684798,vo,1.20913155591,0.259511385052,0.0,0.0,0.0,-0.141699008287,0.98990978935
1583763087665472280,615,1583763087594668693,vo,1.20803767061,0.279011166276,0.0,0.0,0.0,-0.15198063837,0.988383470906
1583763087786129871,616,1583763087694873217,vo,1.20879308519,0.295802857409,0.0,0.0,0.0,-0.162762827872,0.98666522279
1583763087877401617,617,1583763087795067042,vo,1.20801641658,0.313791083976,0.0,0.0,0.0,-0.172562910234,0.984998498482
1583763087964185962,618,1583763087895068550,vo,1.20711606787,0.330460398859,0.0,0.0,0.0,-0.183354092237,0.983046935227
1583763088064705460,619,1583763087995325368,vo,1.20569851449,0.348063746994,0.0,0.0,0.0,-0.193424570131,0.981115149037
1583763088166394871,620,1583763088095473718,vo,1.20606605377,0.365874920986,0.0,0.0,0.0,-0.203852112772,0.979001693624
1583763088268565602,621,1583763088195574917,vo,1.20662027581,0.377354568567,0.0,0.0,0.0,-0.213319755518,0.976982436846
1583763088366943930,622,1583763088295722116,vo,1.20715148542,0.385785502688,0.0,0.0,0.0,-0.223809398104,0.974632932606
1583763088473040356,623,1583763088395853638,vo,1.20687015378,0.395950990553,0.0,0.0,0.0,-0.233184809093,0.972432437143
1583763088569056540,624,1583763088495852718,vo,1.20549346004,0.414888299663,0.0,0.0,0.0,-0.242410602005,0.970173747344
1583763088672373881,625,1583763088595936750,vo,1.20564791124,0.433530683034,0.0,0.0,0.0,-0.253622791321,0.967303199479
1583763088776085531,626,1583763088695903795,vo,1.20398016267,0.452034436622,0.0,0.0,0.0,-0.263143733909,0.964756640456
1583763088864684637,627,1583763088796070520,vo,1.20435170487,0.471693274295,0.0,0.0,0.0,-0.273403748211,0.961899366079
1583763088962949360,628,1583763088896256841,vo,1.20299598961,0.48201570456,0.0,0.0,0.0,-0.282989922825,0.959122882419
1583763089073613486,629,1583763088996344008,vo,1.20389376866,0.49684469236,0.0,0.0,0.0,-0.293989196511,0.95580874255
1583763089165619909,630,1583763089096385215,vo,1.20381150442,0.505386784425,0.0,0.0,0.0,-0.303940944283,0.952690874517
1583763089268091383,631,1583763089196371539,vo,1.20394877834,0.507114538776,0.0,0.0,0.0,-0.314296884304,0.949324743445
1583763089371096235,632,1583763089296529614,vo,1.20460679263,0.502763826206,0.0,0.0,0.0,-0.324419543716,0.945913293941
1583763089466118053,633,1583763089396613630,vo,1.20470334365,0.506106418932,0.0,0.0,0.0,-0.330202607447,0.943910079422
1583763089563821896,634,1583763089496946285,vo,1.20582197725,0.497050852654,0.0,0.0,0.0,-0.332128064729,0.943234302079
1583763089670319090,635,1583763089597291489,vo,1.20554251941,0.496512826616,0.0,0.0,0.0,-0.332175402693,0.943217632281
1583763089766658466,636,1583763089697379966,vo,1.20559737888,0.48980593827,0.0,0.0,0.0,-0.332418169613,0.943132101305
1583763089868683908,637,1583763089797509556,vo,1.20630115116,0.486939585708,0.0,0.0,0.0,-0.333530298174,0.942739380847
1583763089970892204,638,1583763089897723405,vo,1.2058643371,0.47847748755,0.0,0.0,0.0,-0.333463705842,0.942762937798
1583763090068129157,639,1583763089997933860,vo,1.20475665997,0.475808940367,0.0,0.0,0.0,-0.332925885946,0.942952996955
1583763090165535370,640,1583763090098291590,vo,1.20457473537,0.475681689665,0.0,0.0,0.0,-0.333093043797,0.942893962317
1583763090272536081,641,1583763090198540871,vo,1.20530558916,0.478845580561,0.0,0.0,0.0,-0.333399758182,0.942785554219
1583763090367560385,642,1583763090298605070,vo,1.20509450237,0.473782762754,0.0,0.0,0.0,-0.333359444838,0.942799809364
1583763090478327794,643,1583763090398798406,vo,1.20513229188,0.473519047303,0.0,0.0,0.0,-0.333291996533,0.942823655329
1583763090568823122,644,1583763090498907673,vo,1.20527105014,0.474959619478,0.0,0.0,0.0,-0.333431212473,0.942774430364
1583763090671322037,645,1583763090599282667,vo,1.20494815111,0.473486668544,0.0,0.0,0.0,-0.333289202723,0.942824642947
1583763090772395297,646,1583763090699454160,vo,1.20605057205,0.479120695203,0.0,0.0,0.0,-0.333564169132,0.942727397009
1583763090874957657,647,1583763090799713387,vo,1.2044650654,0.475618353451,0.0,0.0,0.0,-0.333386455474,0.942790258386
1583763090970173340,648,1583763090899893854,vo,1.20503490925,0.474288882587,0.0,0.0,0.0,-0.333231727503,0.942844958509
1583763091079780003,649,1583763091000155307,vo,1.20480219182,0.474301895254,0.0,0.0,0.0,-0.333242331322,0.942841210711
1583763091171305615,650,1583763091100372691,vo,1.20436951438,0.474507811148,0.0,0.0,0.0,-0.333176880062,0.942864341564
1583763091272368544,651,1583763091200696196,vo,1.20445511557,0.477686574115,0.0,0.0,0.0,-0.333161915107,0.942869629547
1583763091367722075,652,1583763091300909092,vo,1.20478474291,0.477321309031,0.0,0.0,0.0,-0.333344871128,0.942804962276
1583763091469386706,653,1583763091401369128,vo,1.20388752695,0.477010326823,0.0,0.0,0.0,-0.332926980255,0.94295261059
1583763091570744940,654,1583763091501541267,vo,1.20357325508,0.476311081159,0.0,0.0,0.0,-0.332764732522,0.943009879476
1583763091679335219,655,1583763091601622546,vo,1.20511216913,0.47345214079,0.0,0.0,0.0,-0.333076105888,0.942899945745
1583763091768424441,656,1583763091701885776,vo,1.20457849078,0.473851457957,0.0,0.0,0.0,-0.333102334051,0.942890680328
1583763091893602988,657,1583763091802017408,vo,1.20484870256,0.473233754817,0.0,0.0,0.0,-0.333205557772,0.942854207325
1583763091971990994,658,1583763091902332498,vo,1.20513534754,0.47449746196,0.0,0.0,0.0,-0.333402337859,0.942784641957
1583763092073335366,659,1583763092002496703,vo,1.20380347868,0.476691099543,0.0,0.0,0.0,-0.33289217392,0.942964898892
1583763092170365134,660,1583763092102641223,vo,1.20442724374,0.472124697842,0.0,0.0,0.0,-0.333107082887,0.942889002657
1583763092292002140,661,1583763092202858158,vo,1.20462080409,0.47751559654,0.0,0.0,0.0,-0.333101751381,0.942890886172
1583763092374873954,662,1583763092303088320,vo,1.20292546338,0.474245475025,0.0,0.0,0.0,-0.332353099834,0.943155033402
1583763092476960082,663,1583763092403216859,vo,1.20453673928,0.473377155225,0.0,0.0,0.0,-0.333252593502,0.942837583534
1583763092576252331,664,1583763092503509394,vo,1.2043826596,0.474639466955,0.0,0.0,0.0,-0.333439286401,0.942771574818
1583763092673984988,665,1583763092603706403,vo,1.20461334688,0.473440366951,0.0,0.0,0.0,-0.333110417019,0.942887824756
1583763092772572192,666,1583763092704018314,vo,1.20525072174,0.475178527399,0.0,0.0,0.0,-0.333749042679,0.942661963013
1583763092881803393,667,1583763092804072246,vo,1.20372278209,0.478072268263,0.0,0.0,0.0,-0.333064133775,0.942904174767
1583763092972044771,668,1583763092904216609,vo,1.20379755039,0.476205474626,0.0,0.0,0.0,-0.332907447738,0.942959506681
1583763093077660871,669,1583763093004328277,vo,1.20341948032,0.472155673503,0.0,0.0,0.0,-0.332803013239,0.942996370289
1583763093194771200,670,1583763093104478883,vo,1.20265769061,0.474207456394,0.0,0.0,0.0,-0.332644378196,0.943052340888
1583763093278989675,671,1583763093204724342,vo,1.20401650173,0.476605526218,0.0,0.0,0.0,-0.332851106555,0.94297939578
1583763093373353648,672,1583763093304910313,vo,1.2036159081,0.47719108812,0.0,0.0,0.0,-0.332796124264,0.942998801524
1583763093482538839,673,1583763093405106160,vo,1.20280438244,0.47831236435,0.0,0.0,0.0,-0.332714337471,0.943027661122
1583763093645532061,674,1583763093505414641,vo,1.20430192525,0.472336043872,0.0,0.0,0.0,-0.333054679408,0.942907514301
1583763093672822207,675,1583763093605648667,vo,1.2042092597,0.473372214791,0.0,0.0,0.0,-0.332856068374,0.942977644351
1583763093781837954,676,1583763093705914409,vo,1.20451695961,0.474223017035,0.0,0.0,0.0,-0.333214449985,0.942851064761
1583763093879246770,677,1583763093806109867,vo,1.20424819538,0.472540756655,0.0,0.0,0.0,-0.332949837408,0.942944540135
1583763093976843109,678,1583763093906363887,vo,1.20416342493,0.476917623316,0.0,0.0,0.0,-0.333220034077,0.94284909126
1583763094078147359,679,1583763094006523240,vo,1.20434325072,0.47710439892,0.0,0.0,0.0,-0.333182668666,0.942862296044
1583763094174744818,680,1583763094106662478,vo,1.20378396852,0.476153205254,0.0,0.0,0.0,-0.333011428382,0.942922790353
1583763094277787562,681,1583763094206710866,vo,1.20365261311,0.476114509394,0.0,0.0,0.0,-0.332784792236,0.943002800662
1583763094382839680,682,1583763094306978822,vo,1.20471381646,0.478954943031,0.0,0.0,0.0,-0.333194026999,0.942858282231
1583763094474179691,683,1583763094407093517,vo,1.20402877131,0.477176277704,0.0,0.0,0.0,-0.332890788799,0.942965387876
1583763094575090375,684,1583763094507122865,vo,1.20377912484,0.475808003341,0.0,0.0,0.0,-0.332916417234,0.942956339995
1583763094674678377,685,1583763094607352378,vo,1.20417973505,0.474630951529,0.0,0.0,0.0,-0.332832265205,0.942986046153
1583763094777008447,686,1583763094707698098,vo,1.20468508599,0.474494540202,0.0,0.0,0.0,-0.333335707321,0.942808202247
1583763094875499609,687,1583763094807771077,vo,1.20459688211,0.474518206537,0.0,0.0,0.0,-0.333032204858,0.942915452481
1583763094982097678,688,1583763094908013033,vo,1.20423919494,0.474882367796,0.0,0.0,0.0,-0.333097469871,0.942892398721
1583763095074500524,689,1583763095008232676,vo,1.20506691048,0.475552450536,0.0,0.0,0.0,-0.333319656927,0.94281387681
1583763095178761092,690,1583763095108425160,vo,1.20410003248,0.476225105379,0.0,0.0,0.0,-0.332699017842,0.943033065978
1583763095279655720,691,1583763095208505411,vo,1.20397659047,0.476450061011,0.0,0.0,0.0,-0.332956420945,0.942942215489
1583763095375895348,692,1583763095308661105,vo,1.20409294816,0.474808452529,0.0,0.0,0.0,-0.332750415098,0.943014931617
1583763095475199529,693,1583763095408845598,vo,1.20378269539,0.474345411768,0.0,0.0,0.0,-0.332448138587,0.943121537846
1583763095579044512,694,1583763095509013913,vo,1.20355579812,0.473946910624,0.0,0.0,0.0,-0.332653523885,0.943049114865
1583763095678772981,695,1583763095609110688,vo,1.20494511988,0.471090274181,0.0,0.0,0.0,-0.333282763445,0.942826919212
1583763095776626955,696,1583763095709191150,vo,1.20501746984,0.474261094451,0.0,0.0,0.0,-0.333427817537,0.942775631045
1583763095878822703,697,1583763095809434764,vo,1.20449996318,0.473473917729,0.0,0.0,0.0,-0.333103787175,0.94289016697
1583763095976449640,698,1583763095909448710,vo,1.20546813921,0.474445260201,0.0,0.0,0.0,-0.333516588385,0.9427442311
1583763096079727357,699,1583763096009704380,vo,1.20586514913,0.472060106896,0.0,0.0,0.0,-0.333623606484,0.94270636425
1583763096182980418,700,1583763096109829059,vo,1.2048873549,0.471837598838,0.0,0.0,0.0,-0.332900677011,0.942961897027
1583763096279537012,701,1583763096210223850,vo,1.2054504284,0.473790920441,0.0,0.0,0.0,-0.333305757158,0.942818790779
1583763096377632187,702,1583763096310557074,vo,1.20598459296,0.472548384779,0.0,0.0,0.0,-0.333349774916,0.942803228444
1583763096573227998,703,1583763096410801927,vo,1.20563764402,0.470940768801,0.0,0.0,0.0,-0.33338074019,0.942792279386
1583763096621540744,704,1583763096510862116,vo,1.20589484378,0.4744021056,0.0,0.0,0.0,-0.333416611187,0.942779594277
1583763096802796888,705,1583763096611165434,vo,1.2068107542,0.475286887306,0.0,0.0,0.0,-0.333951318806,0.942590322817
1583763096944890561,706,1583763096711380281,vo,1.20572418737,0.473599013823,0.0,0.0,0.0,-0.333402595626,0.942784550801
1583763097104877169,707,1583763096811540807,vo,1.20573441121,0.471847398779,0.0,0.0,0.0,-0.333305858736,0.942818754869
1583763097107725550,708,1583763096911821431,vo,1.20711996863,0.473797773813,0.0,0.0,0.0,-0.333728666129,0.942669177073
1583763097114789770,709,1583763097012039733,vo,1.20625849089,0.473620628232,0.0,0.0,0.0,-0.333524995843,0.942741256734
1583763097255367021,710,1583763097112104529,vo,1.20578537744,0.473609176269,0.0,0.0,0.0,-0.333460595195,0.942764038056
1583763097409338963,711,1583763097212371439,vo,1.20556223165,0.472413322328,0.0,0.0,0.0,-0.333538053854,0.942736636941
1583763097561813500,712,1583763097312615260,vo,1.20548071439,0.473637033153,0.0,0.0,0.0,-0.333387064888,0.942790042886
1583763097563665406,713,1583763097412841260,vo,1.20501047482,0.47307318434,0.0,0.0,0.0,-0.333062930343,0.942904599857
1583763097709027892,714,1583763097513015490,vo,1.20519737204,0.473625830771,0.0,0.0,0.0,-0.333150466713,0.942873674746
1583763097731745088,715,1583763097613184660,vo,1.20597975094,0.474364704971,0.0,0.0,0.0,-0.33349714923,0.942751107905
1583763097872115846,716,1583763097713385126,vo,1.20626462761,0.471273213239,0.0,0.0,0.0,-0.333549701252,0.942732516038
1583763098026043994,717,1583763097813453527,vo,1.20598167667,0.471727126543,0.0,0.0,0.0,-0.33352998654,0.942739491099
1583763098027274580,718,1583763097913720579,vo,1.20634634689,0.472351880367,0.0,0.0,0.0,-0.333692900084,0.942681838392
1583763098163377140,719,1583763098013848818,vo,1.20622626851,0.47156454505,0.0,0.0,0.0,-0.333759104606,0.942658400531
1583763098192130281,720,1583763098113914753,vo,1.20600849973,0.473927579294,0.0,0.0,0.0,-0.333523937065,0.94274163131
1583763098335788562,721,1583763098214058656,vo,1.2054206547,0.474944206326,0.0,0.0,0.0,-0.333317599025,0.942814604352
1583763098473006024,722,1583763098314225003,vo,1.20601740222,0.475414703055,0.0,0.0,0.0,-0.33340642477,0.94278319667
1583763098481678872,723,1583763098414379614,vo,1.20663104902,0.473418341026,0.0,0.0,0.0,-0.333462468843,0.942763375335
1583763098637607317,724,1583763098514659162,vo,1.20468572918,0.469510037566,0.0,0.0,0.0,-0.333101291644,0.942891048587
1583763098774682946,725,1583763098614920738,vo,1.20644540804,0.471009275941,0.0,0.0,0.0,-0.333436482182,0.942772566609
1583763098795158255,726,1583763098715066343,vo,1.20618232502,0.471705793706,0.0,0.0,0.0,-0.332320899411,0.94316637971
1583763098940556213,727,1583763098815288567,vo,1.2036354918,0.473758382633,0.0,0.0,0.0,-0.329518038904,0.94414927953
1583763099085642369,728,1583763098915707849,vo,1.20270905005,0.475507872476,0.0,0.0,0.0,-0.325396037809,0.945577822592
1583763099099567451,729,1583763099016147143,vo,1.20125868361,0.454826686292,0.0,0.0,0.0,-0.313656005277,0.949536681942
1583763099243650441,730,1583763099116300037,vo,1.20284116752,0.448691493418,0.0,0.0,0.0,-0.305106125315,0.952318356588
1583763099395243261,731,1583763099216505281,vo,1.20154468472,0.432162962387,0.0,0.0,0.0,-0.293940098749,0.955823842739
1583763099550393838,732,1583763099316857172,vo,1.20380235707,0.420475107006,0.0,0.0,0.0,-0.285087135186,0.958501604251
1583763099554010958,733,1583763099417006259,vo,1.20387763343,0.406525813351,0.0,0.0,0.0,-0.274064430656,0.961711332911
1583763099694354027,734,1583763099517318176,vo,1.20366624457,0.391120215851,0.0,0.0,0.0,-0.263641629483,0.9646206981
1583763099708999827,735,1583763099617486548,vo,1.20508003402,0.376322269998,0.0,0.0,0.0,-0.254157361242,0.967162879626
1583763099869601332,736,1583763099717826729,vo,1.20472058164,0.357966976933,0.0,0.0,0.0,-0.243495451809,0.969902038841
1583763100009358890,737,1583763099818040853,vo,1.20604927606,0.342416141437,0.0,0.0,0.0,-0.23342732053,0.97237425204
1583763100022608642,738,1583763099918162570,vo,1.20713991026,0.32455046518,0.0,0.0,0.0,-0.223384904301,0.974730313744
1583763100174474965,739,1583763100018220797,vo,1.20599682264,0.310092917458,0.0,0.0,0.0,-0.212459900366,0.977169786033
1583763100197671447,740,1583763100118564592,vo,1.20751921395,0.291482093016,0.0,0.0,0.0,-0.202613400906,0.979258806329
1583763100323505317,741,1583763100218817768,vo,1.20895958261,0.271829632471,0.0,0.0,0.0,-0.192895168808,0.981219370911
1583763100471154531,742,1583763100319092128,vo,1.20866007639,0.249059297117,0.0,0.0,0.0,-0.181802987281,0.983334975385
1583763100489608830,743,1583763100419355329,vo,1.20980557599,0.240991080293,0.0,0.0,0.0,-0.171671457795,0.98515425725
1583763100620290225,744,1583763100519459057,vo,1.209586454,0.219809557257,0.0,0.0,0.0,-0.161033702933,0.986948907755
1583763100779660941,745,1583763100619813417,vo,1.21084580291,0.195128288722,0.0,0.0,0.0,-0.150422946716,0.988621736106
1583763100788582546,746,1583763100720157343,vo,1.2115350726,0.179586979045,0.0,0.0,0.0,-0.140166753725,0.990127911509
1583763100930541813,747,1583763100820542554,vo,1.21151847286,0.161934909768,0.0,0.0,0.0,-0.129831142586,0.991536118563
1583763100993301710,748,1583763100920706275,vo,1.21262556473,0.146772065069,0.0,0.0,0.0,-0.119474890028,0.992837222637
1583763101087993647,749,1583763101021075483,vo,1.21153449342,0.137181230768,0.0,0.0,0.0,-0.10854689375,0.994091329736
1583763101192662337,750,1583763101121468938,vo,1.21199775785,0.119325237266,0.0,0.0,0.0,-0.097810776704,0.995205030112
1583763101288458850,751,1583763101221632011,vo,1.2134506773,0.106536283964,0.0,0.0,0.0,-0.087939626677,0.996125806342
1583763101392321201,752,1583763101321926396,vo,1.21485725364,0.0880904400373,0.0,0.0,0.0,-0.0778026906673,0.996968776505
1583763101489165845,753,1583763101422130554,vo,1.21527360773,0.0673280340989,0.0,0.0,0.0,-0.0668570212433,0.9977625663
1583763101600431662,754,1583763101522141648,vo,1.2149211061,0.0604798245301,0.0,0.0,0.0,-0.0573582784336,0.998353658728
1583763101701445003,755,1583763101622179076,vo,1.21540565744,0.0511332735609,0.0,0.0,0.0,-0.0533490008736,0.998575928062
1583763101799899468,756,1583763101722268186,vo,1.21470413631,0.0491642328594,0.0,0.0,0.0,-0.0514593818056,0.998675088317
1583763101912915411,757,1583763101822299321,vo,1.21664992164,0.0569862720065,0.0,0.0,0.0,-0.0515915478371,0.998668269343
1583763101992326049,758,1583763101922479431,vo,1.21621346462,0.0676711634329,0.0,0.0,0.0,-0.0508968428935,0.998703915775
1583763102090714296,759,1583763102022467961,vo,1.21585034274,0.0684141805223,0.0,0.0,0.0,-0.0503849557697,0.998729871503
1583763102191696755,760,1583763102122618698,vo,1.2169706329,0.0700910906217,0.0,0.0,0.0,-0.0507095946631,0.998713440887
1583763102290428341,761,1583763102222789637,vo,1.215138037,0.0705052441454,0.0,0.0,0.0,-0.0498032551712,0.998759047906
1583763102393490222,762,1583763102322953127,vo,1.21584249163,0.0745537148272,0.0,0.0,0.0,-0.0499134697527,0.998753545945
1583763102491606302,763,1583763102423077300,vo,1.21711727365,0.0790008712579,0.0,0.0,0.0,-0.0505559642225,0.998721229614
1583763102592704772,764,1583763102523179449,vo,1.21539207269,0.0792148597857,0.0,0.0,0.0,-0.0494417489504,0.998777008877
1583763102691571999,765,1583763102623404083,vo,1.21509558818,0.0852946367469,0.0,0.0,0.0,-0.0496700703919,0.998765680281
1583763102793889361,766,1583763102723616078,vo,1.21549957569,0.0946023727294,0.0,0.0,0.0,-0.0496932011213,0.998764529688
1583763102889072773,767,1583763102823651103,vo,1.21572538572,0.0949087885518,0.0,0.0,0.0,-0.0497759373467,0.998760409739
1583763102995774171,768,1583763102923922177,vo,1.21539692649,0.0995632831132,0.0,0.0,0.0,-0.0495090102185,0.99877367702
1583763103090935488,769,1583763103024166845,vo,1.21459291438,0.100394766699,0.0,0.0,0.0,-0.0492946971899,0.998784277424
1583763103201230341,770,1583763103124274846,vo,1.21475923751,0.103971480331,0.0,0.0,0.0,-0.0493041478489,0.998783810945
