%time,field.header.seq,field.header.stamp,field.header.frame_id,field.name0,field.name1,field.position0,field.position1,field.velocity0,field.velocity1,field.effort0,field.effort1
1583763060239052642,266,1583763054096165548,,chassis_to_left_wheel,chassis_to_right_wheel,0.0,0.0,0.0,0.0,0.0,0.0
1583763060239118277,267,1583763054196180478,,chassis_to_left_wheel,chassis_to_right_wheel,0.0,0.0,0.0,0.0,0.0,0.0
1583763060239226231,268,1583763054296202991,,chassis_to_left_wheel,chassis_to_right_wheel,0.0,0.0,0.0,0.0,0.0,0.0
1583763060239721156,269,1583763054396177262,,chassis_to_left_wheel,chassis_to_right_wheel,0.0,0.0,0.0,0.0,0.0,0.0
1583763060239757925,270,1583763054496190811,,chassis_to_left_wheel,chassis_to_right_wheel,0.0,0.0,0.0,0.0,0.0,0.0
1583763060239803378,271,1583763054596187132,,chassis_to_left_wheel,chassis_to_right_wheel,0.0,0.0,0.0,0.0,0.0,0.0
1583763060239952772,272,1583763054696172681,,chassis_to_left_wheel,chassis_to_right_wheel,0.0,0.0,0.0,0.0,0.0,0.0
1583763060239968479,273,1583763054796182037,,chassis_to_left_wheel,chassis_to_right_wheel,0.0,0.0,0.0,0.0,0.0,0.0
1583763060240003141,274,1583763054896191348,,chassis_to_left_wheel,chassis_to_right_wheel,0.0,0.0,0.0,0.0,0.0,0.0
1583763060240174129,275,1583763054996219198,,chassis_to_left_wheel,chassis_to_right_wheel,0.0,0.0,0.0,0.0,0.0,0.0
1583763060241852799,276,1583763055096196729,,chassis_to_left_wheel,chassis_to_right_wheel,0.0,0.0,0.0,0.0,0.0,0.0
1583763060241919657,277,1583763055196173492,,chassis_to_left_wheel,chassis_to_right_wheel,0.0,0.0,0.0,0.0,0.0,0.0
1583763060242046199,278,1583763055296190391,,chassis_to_left_wheel,chassis_to_right_wheel,0.0,0.0,0.0,0.0,0.0,0.0
1583763060242170907,279,1583763055396191164,,chassis_to_left_wheel,chassis_to_right_wheel,0.0,0.0,0.0,0.0,0.0,0.0
1583763060242992484,280,1583763055496196788,,chassis_to_left_wheel,chassis_to_right_wheel,0.0,0.0,0.0,0.0,0.0,0.0
1583763060243201041,281,1583763055596184490,,chassis_to_left_wheel,chassis_to_right_wheel,0.0,0.0,0.0,0.0,0.0,0.0
1583763060243513042,282,1583763055696211650,,chassis_to_left_wheel,chassis_to_right_wheel,0.002458368,0.004186908,0.0,0.0,0.0,0.0
1583763060243587283,283,1583763055796190127,,chassis_to_left_wheel,chassis_to_right_wheel,0.0236080152,0.0299844072,0.0,0.0,0.0,0.0
1583763060243827526,284,1583763055896193255,,chassis_to_left_wheel,chassis_to_right_wheel,0.07164183708,0.08342087688,0.0,0.0,0.0,0.0
1583763060243969408,285,1583763055996186393,,chassis_to_left_wheel,chassis_to_right_wheel,0.150355553832,0.167368612752,0.0,0.0,0.0,0.0
1583763060244017118,286,1583763056096195871,,chassis_to_left_wheel,chassis_to_right_wheel,0.260940951533,0.283591125101,0.0,0.0,0.0,0.0
1583763060244256929,287,1583763056196198742,,chassis_to_left_wheel,chassis_to_right_wheel,0.403797920613,0.43219843204,0.0,0.0,0.0,0.0
1583763060244801318,288,1583763056296198310,,chassis_to_left_wheel,chassis_to_right_wheel,0.579230462245,0.613906750816,0.0,0.0,0.0,0.0
1583763060244833365,289,1583763056396188430,,chassis_to_left_wheel,chassis_to_right_wheel,0.787523427898,0.827610133326,0.0,0.0,0.0,0.0
1583763060244841239,290,1583763056496202226,,chassis_to_left_wheel,chassis_to_right_wheel,1.02849306516,1.07413379633,0.0,0.0,0.0,0.0
1583763060245326871,291,1583763056596186835,,chassis_to_left_wheel,chassis_to_right_wheel,1.30224833006,1.35364457553,0.0,0.0,0.0,0.0
1583763060245392486,292,1583763056696166988,,chassis_to_left_wheel,chassis_to_right_wheel,1.60882320203,1.66575786421,0.0,0.0,0.0,0.0
1583763060245505865,293,1583763056796188981,,chassis_to_left_wheel,chassis_to_right_wheel,1.93901239281,1.99987175569,0.0,0.0,0.0,0.0
1583763060245695515,294,1583763056896199690,,chassis_to_left_wheel,chassis_to_right_wheel,2.27845525112,2.33925198427,0.0,0.0,0.0,0.0
1583763060245749405,295,1583763056996195435,,chassis_to_left_wheel,chassis_to_right_wheel,2.62106180845,2.68343719071,0.0,0.0,0.0,0.0
1583763060245846691,296,1583763057096187055,,chassis_to_left_wheel,chassis_to_right_wheel,2.96560605538,3.02868972128,0.0,0.0,0.0,0.0
1583763060245933753,297,1583763057196195275,,chassis_to_left_wheel,chassis_to_right_wheel,3.31097339315,3.37355292651,0.0,0.0,0.0,0.0
1583763060246305097,298,1583763057296171007,,chassis_to_left_wheel,chassis_to_right_wheel,3.65676599726,3.71991211761,0.0,0.0,0.0,0.0
1583763060246320865,299,1583763057396170121,,chassis_to_left_wheel,chassis_to_right_wheel,4.0027383109,4.06531401704,0.0,0.0,0.0,0.0
1583763060246342082,300,1583763057496222366,,chassis_to_left_wheel,chassis_to_right_wheel,4.34876330236,4.41209034882,0.0,0.0,0.0,0.0
1583763060246349909,301,1583763057596173795,,chassis_to_left_wheel,chassis_to_right_wheel,4.69562561994,4.75915717253,0.0,0.0,0.0,0.0
1583763060246371168,302,1583763057696197997,,chassis_to_left_wheel,chassis_to_right_wheel,5.04107512198,5.10483252201,0.0,0.0,0.0,0.0
1583763060246382631,303,1583763057796189991,,chassis_to_left_wheel,chassis_to_right_wheel,5.38688138579,5.4507483308,0.0,0.0,0.0,0.0
1583763060246397470,304,1583763057896181742,,chassis_to_left_wheel,chassis_to_right_wheel,5.73358899132,5.79670270532,0.0,0.0,0.0,0.0
1583763060246408139,305,1583763057996177896,,chassis_to_left_wheel,chassis_to_right_wheel,6.07911105053,6.14197148713,0.0,0.0,0.0,0.0
1583763060246509806,306,1583763058096191668,,chassis_to_left_wheel,chassis_to_right_wheel,6.42485030721,6.48843529085,0.0,0.0,0.0,0.0
1583763060246567992,307,1583763058196194789,,chassis_to_left_wheel,chassis_to_right_wheel,6.77081088488,6.83558836934,0.0,0.0,0.0,0.0
1583763060246586956,308,1583763058296212160,,chassis_to_left_wheel,chassis_to_right_wheel,7.11680237295,7.18105814574,0.0,0.0,0.0,0.0
1583763060246613577,309,1583763058396195841,,chassis_to_left_wheel,chassis_to_right_wheel,7.46287344618,7.52780401029,0.0,0.0,0.0,0.0
1583763060246642299,310,1583763058496217361,,chassis_to_left_wheel,chassis_to_right_wheel,7.80876508747,7.87299566512,0.0,0.0,0.0,0.0
1583763060246662645,311,1583763058596176682,,chassis_to_left_wheel,chassis_to_right_wheel,8.15486344299,8.21887164405,0.0,0.0,0.0,0.0
1583763060246803621,312,1583763058696199267,,chassis_to_left_wheel,chassis_to_right_wheel,8.5009388512,8.56481968962,0.0,0.0,0.0,0.0
1583763060246887802,313,1583763058796192790,,chassis_to_left_wheel,chassis_to_right_wheel,8.84686103548,8.91145916885,0.0,0.0,0.0,0.0
1583763060247894229,314,1583763058896199365,,chassis_to_left_wheel,chassis_to_right_wheel,9.19297160819,9.25713643454,0.0,0.0,0.0,0.0
1583763060247901043,315,1583763058996190633,,chassis_to_left_wheel,chassis_to_right_wheel,9.53904230028,9.60379244082,0.0,0.0,0.0,0.0
1583763060247911679,316,1583763059096205829,,chassis_to_left_wheel,chassis_to_right_wheel,9.88522187911,9.95003329133,0.0,0.0,0.0,0.0
1583763060248035850,317,1583763059196174851,,chassis_to_left_wheel,chassis_to_right_wheel,10.2310993046,10.2962041095,0.0,0.0,0.0,0.0
1583763060248121733,318,1583763059296200645,,chassis_to_left_wheel,chassis_to_right_wheel,10.5771823709,10.6422412818,0.0,0.0,0.0,0.0
1583763060248202225,319,1583763059396192496,,chassis_to_left_wheel,chassis_to_right_wheel,10.9233476933,10.9883690407,0.0,0.0,0.0,0.0
1583763060248450214,320,1583763059496215143,,chassis_to_left_wheel,chassis_to_right_wheel,11.2686048243,11.3345618433,0.0,0.0,0.0,0.0
1583763060248458266,321,1583763059596188740,,chassis_to_left_wheel,chassis_to_right_wheel,11.6151792037,11.6807134423,0.0,0.0,0.0,0.0
1583763060248493537,322,1583763059696218862,,chassis_to_left_wheel,chassis_to_right_wheel,11.9613874035,12.0266949119,0.0,0.0,0.0,0.0
1583763060248567289,323,1583763059796188510,,chassis_to_left_wheel,chassis_to_right_wheel,12.3075547644,12.3727331688,0.0,0.0,0.0,0.0
1583763060248758761,324,1583763059896223115,,chassis_to_left_wheel,chassis_to_right_wheel,12.6535233328,12.7187557285,0.0,0.0,0.0,0.0
1583763060248799155,325,1583763059996188189,,chassis_to_left_wheel,chassis_to_right_wheel,12.9987305711,13.0647912154,0.0,0.0,0.0,0.0
1583763060249068211,326,1583763060096170089,,chassis_to_left_wheel,chassis_to_right_wheel,13.3443631054,13.4107934612,0.0,0.0,0.0,0.0
1583763060251563299,327,1583763060196189860,,chassis_to_left_wheel,chassis_to_right_wheel,13.6903962302,13.7568496315,0.0,0.0,0.0,0.0
1583763060296884980,328,1583763060296196658,,chassis_to_left_wheel,chassis_to_right_wheel,14.0363399131,14.1027545176,0.0,0.0,0.0,0.0
1583763060398247481,329,1583763060396180526,,chassis_to_left_wheel,chassis_to_right_wheel,14.3824110702,14.448666111,0.0,0.0,0.0,0.0
1583763060497374082,330,1583763060496239664,,chassis_to_left_wheel,chassis_to_right_wheel,14.7284563931,14.7946956234,0.0,0.0,0.0,0.0
1583763060598036449,331,1583763060596218570,,chassis_to_left_wheel,chassis_to_right_wheel,15.0743185282,15.1413772924,0.0,0.0,0.0,0.0
1583763060697053000,332,1583763060696180515,,chassis_to_left_wheel,chassis_to_right_wheel,15.4204626993,15.4870714339,0.0,0.0,0.0,0.0
1583763060797420191,333,1583763060796185810,,chassis_to_left_wheel,chassis_to_right_wheel,15.7664700067,15.8328219056,0.0,0.0,0.0,0.0
1583763060897508594,334,1583763060896178970,,chassis_to_left_wheel,chassis_to_right_wheel,16.1125474077,16.1788541902,0.0,0.0,0.0,0.0
1583763060998148959,335,1583763060996190700,,chassis_to_left_wheel,chassis_to_right_wheel,16.4586048311,16.5247495221,0.0,0.0,0.0,0.0
1583763061096780055,336,1583763061096193855,,chassis_to_left_wheel,chassis_to_right_wheel,16.8045390274,16.8706380878,0.0,0.0,0.0,0.0
1583763061198358361,337,1583763061196189513,,chassis_to_left_wheel,chassis_to_right_wheel,17.15051036,17.2175802771,0.0,0.0,0.0,0.0
1583763061297083702,338,1583763061296191953,,chassis_to_left_wheel,chassis_to_right_wheel,17.496515753,17.5630425219,0.0,0.0,0.0,0.0
1583763061398005871,339,1583763061396164960,,chassis_to_left_wheel,chassis_to_right_wheel,17.8417761332,17.9090267367,0.0,0.0,0.0,0.0
1583763061497007661,340,1583763061496183654,,chassis_to_left_wheel,chassis_to_right_wheel,18.1882557823,18.2557286987,0.0,0.0,0.0,0.0
1583763061597830017,341,1583763061596197196,,chassis_to_left_wheel,chassis_to_right_wheel,18.5344645019,18.6011332645,0.0,0.0,0.0,0.0
1583763061697026803,342,1583763061696174830,,chassis_to_left_wheel,chassis_to_right_wheel,18.8804880258,18.9478626478,0.0,0.0,0.0,0.0
1583763061798147816,343,1583763061796188573,,chassis_to_left_wheel,chassis_to_right_wheel,19.2215879563,19.2860855351,0.0,0.0,0.0,0.0
1583763061897283791,344,1583763061896195060,,chassis_to_left_wheel,chassis_to_right_wheel,19.5356930315,19.593153154,0.0,0.0,0.0,0.0
1583763061997727862,345,1583763061996193036,,chassis_to_left_wheel,chassis_to_right_wheel,19.8082513586,19.8582102346,0.0,0.0,0.0,0.0
1583763062097889392,346,1583763062096202499,,chassis_to_left_wheel,chassis_to_right_wheel,20.0355548404,20.0770491108,0.0,0.0,0.0,0.0
1583763062199035573,347,1583763062196218278,,chassis_to_left_wheel,chassis_to_right_wheel,20.2145837582,20.2481595703,0.0,0.0,0.0,0.0
1583763062297418153,348,1583763062296198983,,chassis_to_left_wheel,chassis_to_right_wheel,20.3453690113,20.3703133331,0.0,0.0,0.0,0.0
1583763062398575678,349,1583763062396188551,,chassis_to_left_wheel,chassis_to_right_wheel,20.4272411465,20.4434224133,0.0,0.0,0.0,0.0
1583763062497487639,350,1583763062496194551,,chassis_to_left_wheel,chassis_to_right_wheel,20.4644553956,20.4756141663,0.0,0.0,0.0,0.0
1583763062598551176,351,1583763062596186816,,chassis_to_left_wheel,chassis_to_right_wheel,20.4806086912,20.4896144185,0.0,0.0,0.0,0.0
1583763062697418207,352,1583763062696165504,,chassis_to_left_wheel,chassis_to_right_wheel,20.4877230135,20.4958963324,0.0,0.0,0.0,0.0
1583763062798301030,353,1583763062796145898,,chassis_to_left_wheel,chassis_to_right_wheel,20.4909432594,20.4987356,0.0,0.0,0.0,0.0
1583763062897291006,354,1583763062896171039,,chassis_to_left_wheel,chassis_to_right_wheel,20.4924042118,20.500044161,0.0,0.0,0.0,0.0
1583763062997757259,355,1583763062996179151,,chassis_to_left_wheel,chassis_to_right_wheel,20.4930750197,20.5006636154,0.0,0.0,0.0,0.0
1583763063097283282,356,1583763063096197717,,chassis_to_left_wheel,chassis_to_right_wheel,20.4933721519,20.5009402062,0.0,0.0,0.0,0.0
1583763063197870437,357,1583763063196132630,,chassis_to_left_wheel,chassis_to_right_wheel,20.4934910048,20.5010508425,0.0,0.0,0.0,0.0
1583763063297468057,358,1583763063296183389,,chassis_to_left_wheel,chassis_to_right_wheel,20.4935385459,20.501095097,0.0,0.0,0.0,0.0
1583763063396799116,359,1583763063396198146,,chassis_to_left_wheel,chassis_to_right_wheel,20.4935575624,20.5011127988,0.0,0.0,0.0,0.0
1583763063497183094,360,1583763063496162491,,chassis_to_left_wheel,chassis_to_right_wheel,20.4935651689,20.5011198795,0.0,0.0,0.0,0.0
1583763063597623364,361,1583763063596169921,,chassis_to_left_wheel,chassis_to_right_wheel,20.4935682116,20.5011227118,0.0,0.0,0.0,0.0
1583763063697152683,362,1583763063696211604,,chassis_to_left_wheel,chassis_to_right_wheel,20.4935694286,20.5011238447,0.0,0.0,0.0,0.0
1583763063798260951,363,1583763063796197848,,chassis_to_left_wheel,chassis_to_right_wheel,20.4935699155,20.5011242979,0.0,0.0,0.0,0.0
1583763063896859118,364,1583763063896192827,,chassis_to_left_wheel,chassis_to_right_wheel,20.4935701102,20.5011244792,0.0,0.0,0.0,0.0
1583763063997705568,365,1583763063996182318,,chassis_to_left_wheel,chassis_to_right_wheel,20.4935701881,20.5011245517,0.0,0.0,0.0,0.0
1583763064097262753,366,1583763064096193950,,chassis_to_left_wheel,chassis_to_right_wheel,20.4935702192,20.5011245807,0.0,0.0,0.0,0.0
1583763064197803357,367,1583763064196183525,,chassis_to_left_wheel,chassis_to_right_wheel,20.4935702317,20.5011245923,0.0,0.0,0.0,0.0
1583763064297391536,368,1583763064296188535,,chassis_to_left_wheel,chassis_to_right_wheel,20.4935702367,20.5011245969,0.0,0.0,0.0,0.0
1583763064398331986,369,1583763064396192895,,chassis_to_left_wheel,chassis_to_right_wheel,20.4935702387,20.5011245988,0.0,0.0,0.0,0.0
1583763064496695385,370,1583763064496210179,,chassis_to_left_wheel,chassis_to_right_wheel,20.4935702395,20.5011245995,0.0,0.0,0.0,0.0
1583763064597768087,371,1583763064596186544,,chassis_to_left_wheel,chassis_to_right_wheel,20.4935702398,20.5011245998,0.0,0.0,0.0,0.0
1583763064696738735,372,1583763064696207999,,chassis_to_left_wheel,chassis_to_right_wheel,20.4935702399,20.5011245999,0.0,0.0,0.0,0.0
1583763064797956494,373,1583763064796192008,,chassis_to_left_wheel,chassis_to_right_wheel,20.49357024,20.5011246,0.0,0.0,0.0,0.0
1583763064897032597,374,1583763064896193463,,chassis_to_left_wheel,chassis_to_right_wheel,20.49357024,20.5011246,0.0,0.0,0.0,0.0
1583763064997786062,375,1583763064996188792,,chassis_to_left_wheel,chassis_to_right_wheel,20.49357024,20.5011246,0.0,0.0,0.0,0.0
1583763065097147268,376,1583763065096190316,,chassis_to_left_wheel,chassis_to_right_wheel,20.49357024,20.5011246,0.0,0.0,0.0,0.0
1583763065198387137,377,1583763065196187322,,chassis_to_left_wheel,chassis_to_right_wheel,20.49357024,20.5011246,0.0,0.0,0.0,0.0
1583763065296932042,378,1583763065296196494,,chassis_to_left_wheel,chassis_to_right_wheel,20.49357024,20.5011246,0.0,0.0,0.0,0.0
1583763065399695129,379,1583763065396251042,,chassis_to_left_wheel,chassis_to_right_wheel,20.49357024,20.5011246,0.0,0.0,0.0,0.0
1583763065497300400,380,1583763065496211942,,chassis_to_left_wheel,chassis_to_right_wheel,20.49357024,20.5011246,0.0,0.0,0.0,0.0
1583763065597707467,381,1583763065596189519,,chassis_to_left_wheel,chassis_to_right_wheel,20.49357024,20.5011246,0.0,0.0,0.0,0.0
1583763065696960152,382,1583763065696215924,,chassis_to_left_wheel,chassis_to_right_wheel,20.49357024,20.5011246,0.0,0.0,0.0,0.0
1583763065797236059,383,1583763065796192226,,chassis_to_left_wheel,chassis_to_right_wheel,20.49357024,20.5011246,0.0,0.0,0.0,0.0
1583763065897353202,384,1583763065896221405,,chassis_to_left_wheel,chassis_to_right_wheel,20.49357024,20.5011246,0.0,0.0,0.0,0.0
1583763065998456490,385,1583763065996179736,,chassis_to_left_wheel,chassis_to_right_wheel,20.49357024,20.5011246,0.0,0.0,0.0,0.0
1583763066097220483,386,1583763066096217499,,chassis_to_left_wheel,chassis_to_right_wheel,20.49357024,20.5011246,0.0,0.0,0.0,0.0
1583763066197573905,387,1583763066196178138,,chassis_to_left_wheel,chassis_to_right_wheel,20.49357024,20.5011246,0.0,0.0,0.0,0.0
1583763066297944099,388,1583763066296197844,,chassis_to_left_wheel,chassis_to_right_wheel,20.49357024,20.5011246,0.0,0.0,0.0,0.0
1583763066397193563,389,1583763066396168688,,chassis_to_left_wheel,chassis_to_right_wheel,20.49357024,20.5011246,0.0,0.0,0.0,0.0
1583763066496845408,390,1583763066496214800,,chassis_to_left_wheel,chassis_to_right_wheel,20.49357024,20.5011246,0.0,0.0,0.0,0.0
1583763066598771218,391,1583763066596185825,,chassis_to_left_wheel,chassis_to_right_wheel,20.49357024,20.5011246,0.0,0.0,0.0,0.0
1583763066696940687,392,1583763066696191608,,chassis_to_left_wheel,chassis_to_right_wheel,20.49357024,20.5011246,0.0,0.0,0.0,0.0
1583763066797629502,393,1583763066796187167,,chassis_to_left_wheel,chassis_to_right_wheel,20.49357024,20.5011246,0.0,0.0,0.0,0.0
1583763066897394962,394,1583763066896170505,,chassis_to_left_wheel,chassis_to_right_wheel,20.49357024,20.5011246,0.0,0.0,0.0,0.0
1583763066998625206,395,1583763066996186311,,chassis_to_left_wheel,chassis_to_right_wheel,20.49357024,20.5011246,0.0,0.0,0.0,0.0
1583763067097160530,396,1583763067096165877,,chassis_to_left_wheel,chassis_to_right_wheel,20.49357024,20.5011246,0.0,0.0,0.0,0.0
1583763067198089026,397,1583763067196179400,,chassis_to_left_wheel,chassis_to_right_wheel,20.49357024,20.5011246,0.0,0.0,0.0,0.0
1583763067297180655,398,1583763067296183184,,chassis_to_left_wheel,chassis_to_right_wheel,20.49357024,20.5011246,0.0,0.0,0.0,0.0
1583763067398059265,399,1583763067396158230,,chassis_to_left_wheel,chassis_to_right_wheel,20.49357024,20.5011246,0.0,0.0,0.0,0.0
1583763067497788598,400,1583763067496168045,,chassis_to_left_wheel,chassis_to_right_wheel,20.49357024,20.5011246,0.0,0.0,0.0,0.0
1583763067597651173,401,1583763067596188190,,chassis_to_left_wheel,chassis_to_right_wheel,20.49357024,20.5011246,0.0,0.0,0.0,0.0
1583763067697052794,402,1583763067696176460,,chassis_to_left_wheel,chassis_to_right_wheel,20.49357024,20.5011246,0.0,0.0,0.0,0.0
1583763067798751788,403,1583763067796187105,,chassis_to_left_wheel,chassis_to_right_wheel,20.49357024,20.5011246,0.0,0.0,0.0,0.0
1583763067896958910,404,1583763067896172223,,chassis_to_left_wheel,chassis_to_right_wheel,20.49357024,20.5011246,0.0,0.0,0.0,0.0
1583763067998110746,405,1583763067996187450,,chassis_to_left_wheel,chassis_to_right_wheel,20.49357024,20.5011246,0.0,0.0,0.0,0.0
1583763068097690577,406,1583763068097189572,,chassis_to_left_wheel,chassis_to_right_wheel,20.49357024,20.5011246,0.0,0.0,0.0,0.0
1583763068197969892,407,1583763068196171392,,chassis_to_left_wheel,chassis_to_right_wheel,20.49357024,20.5011246,0.0,0.0,0.0,0.0
1583763068297406702,408,1583763068296196295,,chassis_to_left_wheel,chassis_to_right_wheel,20.49357024,20.5011246,0.0,0.0,0.0,0.0
1583763068397262294,409,1583763068396175419,,chassis_to_left_wheel,chassis_to_right_wheel,20.49357024,20.5011246,0.0,0.0,0.0,0.0
1583763068497275063,410,1583763068496198072,,chassis_to_left_wheel,chassis_to_right_wheel,20.49357024,20.5011246,0.0,0.0,0.0,0.0
1583763068597376843,411,1583763068596183005,,chassis_to_left_wheel,chassis_to_right_wheel,20.49357024,20.5011246,0.0,0.0,0.0,0.0
1583763068697327520,412,1583763068696169732,,chassis_to_left_wheel,chassis_to_right_wheel,20.49357024,20.5011246,0.0,0.0,0.0,0.0
1583763068797781502,413,1583763068796181111,,chassis_to_left_wheel,chassis_to_right_wheel,20.49357024,20.5011246,0.0,0.0,0.0,0.0
1583763068897102584,414,1583763068896180549,,chassis_to_left_wheel,chassis_to_right_wheel,20.49357024,20.5011246,0.0,0.0,0.0,0.0
1583763068997621656,415,1583763068996187746,,chassis_to_left_wheel,chassis_to_right_wheel,20.49357024,20.5011246,0.0,0.0,0.0,0.0
1583763069096998746,416,1583763069096221722,,chassis_to_left_wheel,chassis_to_right_wheel,20.49357024,20.5011246,0.0,0.0,0.0,0.0
1583763069197663676,417,1583763069196178272,,chassis_to_left_wheel,chassis_to_right_wheel,20.49357024,20.5011246,0.0,0.0,0.0,0.0
1583763069297167672,418,1583763069296173425,,chassis_to_left_wheel,chassis_to_right_wheel,20.49357024,20.5011246,0.0,0.0,0.0,0.0
1583763069397832394,419,1583763069396185746,,chassis_to_left_wheel,chassis_to_right_wheel,20.49357024,20.5011246,0.0,0.0,0.0,0.0
1583763069497092384,420,1583763069496186672,,chassis_to_left_wheel,chassis_to_right_wheel,20.49357024,20.5011246,0.0,0.0,0.0,0.0
1583763069599499297,421,1583763069596198816,,chassis_to_left_wheel,chassis_to_right_wheel,20.49357024,20.5011246,0.0,0.0,0.0,0.0
1583763069697211226,422,1583763069696167958,,chassis_to_left_wheel,chassis_to_right_wheel,20.49357024,20.5011246,0.0,0.0,0.0,0.0
1583763069797062451,423,1583763069796194824,,chassis_to_left_wheel,chassis_to_right_wheel,20.49357024,20.5011246,0.0,0.0,0.0,0.0
1583763069897616862,424,1583763069896220366,,chassis_to_left_wheel,chassis_to_right_wheel,20.49357024,20.5011246,0.0,0.0,0.0,0.0
1583763069997263578,425,1583763069996175413,,chassis_to_left_wheel,chassis_to_right_wheel,20.49357024,20.5011246,0.0,0.0,0.0,0.0
1583763070097362258,426,1583763070096194825,,chassis_to_left_wheel,chassis_to_right_wheel,20.49357024,20.5011246,0.0,0.0,0.0,0.0
1583763070197963420,427,1583763070196190423,,chassis_to_left_wheel,chassis_to_right_wheel,20.49357024,20.5011246,0.0,0.0,0.0,0.0
1583763070297125362,428,1583763070296225867,,chassis_to_left_wheel,chassis_to_right_wheel,20.49357024,20.5011246,0.0,0.0,0.0,0.0
1583763070397528470,429,1583763070396182458,,chassis_to_left_wheel,chassis_to_right_wheel,20.49357024,20.5011246,0.0,0.0,0.0,0.0
1583763070497469920,430,1583763070496165982,,chassis_to_left_wheel,chassis_to_right_wheel,20.49357024,20.5011246,0.0,0.0,0.0,0.0
1583763070597083378,431,1583763070596188169,,chassis_to_left_wheel,chassis_to_right_wheel,20.49357024,20.5011246,0.0,0.0,0.0,0.0
1583763070696625759,432,1583763070696192300,,chassis_to_left_wheel,chassis_to_right_wheel,20.49357024,20.5011246,0.0,0.0,0.0,0.0
1583763070798923024,433,1583763070796171278,,chassis_to_left_wheel,chassis_to_right_wheel,20.49357024,20.5011246,0.0,0.0,0.0,0.0
1583763070897188882,434,1583763070896191890,,chassis_to_left_wheel,chassis_to_right_wheel,20.49357024,20.5011246,0.0,0.0,0.0,0.0
1583763070997185111,435,1583763070996179270,,chassis_to_left_wheel,chassis_to_right_wheel,20.489277699,20.504610489,0.0,0.0,0.0,0.0
1583763071097522186,436,1583763071096222410,,chassis_to_left_wheel,chassis_to_right_wheel,20.4650608536,20.5265360586,0.0,0.0,0.0,0.0
1583763071197677901,437,1583763071196190773,,chassis_to_left_wheel,chassis_to_right_wheel,20.4207745064,20.5699635134,0.0,0.0,0.0,0.0
1583763071297398313,438,1583763071296198235,,chassis_to_left_wheel,chassis_to_right_wheel,20.3639661546,20.6273117844,0.0,0.0,0.0,0.0
1583763071398835260,439,1583763071396184570,,chassis_to_left_wheel,chassis_to_right_wheel,20.2990376288,20.6915151838,0.0,0.0,0.0,0.0
1583763071497226407,440,1583763071496180284,,chassis_to_left_wheel,chassis_to_right_wheel,20.2295166135,20.7611590775,0.0,0.0,0.0,0.0
1583763071598146027,441,1583763071596188138,,chassis_to_left_wheel,chassis_to_right_wheel,20.1574575834,20.833276862,0.0,0.0,0.0,0.0
1583763071697121252,442,1583763071696168903,,chassis_to_left_wheel,chassis_to_right_wheel,20.0839800214,20.9068643528,0.0,0.0,0.0,0.0
1583763071797900493,443,1583763071796167620,,chassis_to_left_wheel,chassis_to_right_wheel,20.0097621925,20.9807324301,0.0,0.0,0.0,0.0
1583763071897239181,444,1583763071896199923,,chassis_to_left_wheel,chassis_to_right_wheel,19.935382699,21.055740263,0.0,0.0,0.0,0.0
1583763071997622033,445,1583763071996181143,,chassis_to_left_wheel,chassis_to_right_wheel,19.8602567266,21.1308102752,0.0,0.0,0.0,0.0
1583763072097274707,446,1583763072096198121,,chassis_to_left_wheel,chassis_to_right_wheel,19.7853027096,21.2059147621,0.0,0.0,0.0,0.0
1583763072197717677,447,1583763072196171015,,chassis_to_left_wheel,chassis_to_right_wheel,19.7100141489,21.2811482748,0.0,0.0,0.0,0.0
1583763072297342046,448,1583763072296197634,,chassis_to_left_wheel,chassis_to_right_wheel,19.6346878005,21.3563277649,0.0,0.0,0.0,0.0
1583763072399005802,449,1583763072396178062,,chassis_to_left_wheel,chassis_to_right_wheel,19.5597112512,21.43137041,0.0,0.0,0.0,0.0
1583763072497147169,450,1583763072496167389,,chassis_to_left_wheel,chassis_to_right_wheel,19.4845577225,21.506454347,0.0,0.0,0.0,0.0
1583763072598081316,451,1583763072596175371,,chassis_to_left_wheel,chassis_to_right_wheel,19.40939102,21.5810746508,0.0,0.0,0.0,0.0
1583763072696950876,452,1583763072696192189,,chassis_to_left_wheel,chassis_to_right_wheel,19.334267063,21.6568539213,0.0,0.0,0.0,0.0
1583763072796917894,453,1583763072796190615,,chassis_to_left_wheel,chassis_to_right_wheel,19.2591217922,21.7320788605,0.0,0.0,0.0,0.0
1583763072897376668,454,1583763072896197284,,chassis_to_left_wheel,chassis_to_right_wheel,19.1839583929,21.8074277752,0.0,0.0,0.0,0.0
1583763072998517529,455,1583763072996186336,,chassis_to_left_wheel,chassis_to_right_wheel,19.1087877422,21.8827878681,0.0,0.0,0.0,0.0
1583763073096853928,456,1583763073096206049,,chassis_to_left_wheel,chassis_to_right_wheel,19.0336045879,21.9577299002,0.0,0.0,0.0,0.0
1583763073197339688,457,1583763073196188312,,chassis_to_left_wheel,chassis_to_right_wheel,18.9583972261,22.0329176371,0.0,0.0,0.0,0.0
1583763073296759206,458,1583763073296180638,,chassis_to_left_wheel,chassis_to_right_wheel,18.8831705785,22.1075506518,0.0,0.0,0.0,0.0
1583763073398222067,459,1583763073396192193,,chassis_to_left_wheel,chassis_to_right_wheel,18.8079650254,22.1830757257,0.0,0.0,0.0,0.0
1583763073497537187,460,1583763073496215720,,chassis_to_left_wheel,chassis_to_right_wheel,18.7327775132,22.2578340723,0.0,0.0,0.0,0.0
1583763073597149623,461,1583763073596188840,,chassis_to_left_wheel,chassis_to_right_wheel,18.6578564983,22.3329483349,0.0,0.0,0.0,0.0
1583763073696673399,462,1583763073696209745,,chassis_to_left_wheel,chassis_to_right_wheel,18.5826387563,22.408368215,0.0,0.0,0.0,0.0
1583763073798510479,463,1583763073796187216,,chassis_to_left_wheel,chassis_to_right_wheel,18.5073599415,22.483218926,0.0,0.0,0.0,0.0
1583763073897096559,464,1583763073896194612,,chassis_to_left_wheel,chassis_to_right_wheel,18.4321623306,22.5581204564,0.0,0.0,0.0,0.0
1583763073997535756,465,1583763073996214564,,chassis_to_left_wheel,chassis_to_right_wheel,18.3640265972,22.6282216086,0.0,0.0,0.0,0.0
1583763074097051919,466,1583763074096217175,,chassis_to_left_wheel,chassis_to_right_wheel,18.3173358319,22.6762939274,0.0,0.0,0.0,0.0
1583763074197590123,467,1583763074196190296,,chassis_to_left_wheel,chassis_to_right_wheel,18.2886916118,22.706287818,0.0,0.0,0.0,0.0
1583763074296991982,468,1583763074296213965,,chassis_to_left_wheel,chassis_to_right_wheel,18.2713568877,22.7233941702,0.0,0.0,0.0,0.0
1583763074397623048,469,1583763074396176680,,chassis_to_left_wheel,chassis_to_right_wheel,18.2615228921,22.7333192741,0.0,0.0,0.0,0.0
1583763074497455845,470,1583763074496228694,,chassis_to_left_wheel,chassis_to_right_wheel,18.2560047988,22.7389218256,0.0,0.0,0.0,0.0
1583763074597846291,471,1583763074596184227,,chassis_to_left_wheel,chassis_to_right_wheel,18.2529524975,22.7420463223,0.0,0.0,0.0,0.0
1583763074697431578,472,1583763074696224555,,chassis_to_left_wheel,chassis_to_right_wheel,18.251251427,22.7436802409,0.0,0.0,0.0,0.0
1583763074798021771,473,1583763074796192941,,chassis_to_left_wheel,chassis_to_right_wheel,18.2503213208,22.7445546774,0.0,0.0,0.0,0.0
1583763074897068832,474,1583763074896218980,,chassis_to_left_wheel,chassis_to_right_wheel,18.2498340423,22.7449812759,0.0,0.0,0.0,0.0
1583763074997643919,475,1583763074996188019,,chassis_to_left_wheel,chassis_to_right_wheel,18.2496199249,22.7451903274,0.0,0.0,0.0,0.0
1583763075097151755,476,1583763075096198302,,chassis_to_left_wheel,chassis_to_right_wheel,18.249534278,22.745273948,0.0,0.0,0.0,0.0
1583763075197589161,477,1583763075196172863,,chassis_to_left_wheel,chassis_to_right_wheel,18.2495000192,22.7453073962,0.0,0.0,0.0,0.0
1583763075297447870,478,1583763075296199505,,chassis_to_left_wheel,chassis_to_right_wheel,18.2494863157,22.7453303785,0.0,0.0,0.0,0.0
1583763075398172154,479,1583763075396204410,,chassis_to_left_wheel,chassis_to_right_wheel,18.2494808343,22.7453395714,0.0,0.0,0.0,0.0
1583763075497453942,480,1583763075496203130,,chassis_to_left_wheel,chassis_to_right_wheel,18.2494786417,22.7453432486,0.0,0.0,0.0,0.0
1583763075598224458,481,1583763075596189449,,chassis_to_left_wheel,chassis_to_right_wheel,18.2494777647,22.7453447194,0.0,0.0,0.0,0.0
1583763075697039327,482,1583763075696188742,,chassis_to_left_wheel,chassis_to_right_wheel,18.2494774139,22.7453453078,0.0,0.0,0.0,0.0
1583763075797986523,483,1583763075796186559,,chassis_to_left_wheel,chassis_to_right_wheel,18.2494772735,22.7453455431,0.0,0.0,0.0,0.0
1583763075896971076,484,1583763075896219502,,chassis_to_left_wheel,chassis_to_right_wheel,18.2494772174,22.7453456372,0.0,0.0,0.0,0.0
1583763075997817392,485,1583763075996189110,,chassis_to_left_wheel,chassis_to_right_wheel,18.249477195,22.7453456749,0.0,0.0,0.0,0.0
1583763076096685566,486,1583763076096209515,,chassis_to_left_wheel,chassis_to_right_wheel,18.249477186,22.74534569,0.0,0.0,0.0,0.0
1583763076196929135,487,1583763076196189051,,chassis_to_left_wheel,chassis_to_right_wheel,18.2494771824,22.745345696,0.0,0.0,0.0,0.0
1583763076296875507,488,1583763076296188304,,chassis_to_left_wheel,chassis_to_right_wheel,18.249477181,22.7453456984,0.0,0.0,0.0,0.0
1583763076397833202,489,1583763076396196404,,chassis_to_left_wheel,chassis_to_right_wheel,18.2494771804,22.7453456994,0.0,0.0,0.0,0.0
1583763076497112378,490,1583763076496191950,,chassis_to_left_wheel,chassis_to_right_wheel,18.2494771802,22.7453456997,0.0,0.0,0.0,0.0
1583763076598341957,491,1583763076596214242,,chassis_to_left_wheel,chassis_to_right_wheel,18.2494771801,22.7453456999,0.0,0.0,0.0,0.0
1583763076696599778,492,1583763076696188702,,chassis_to_left_wheel,chassis_to_right_wheel,18.24947718,22.7453457,0.0,0.0,0.0,0.0
1583763076797939748,493,1583763076796190473,,chassis_to_left_wheel,chassis_to_right_wheel,18.24947718,22.7453457,0.0,0.0,0.0,0.0
1583763076896899230,494,1583763076896199604,,chassis_to_left_wheel,chassis_to_right_wheel,18.24947718,22.7453457,0.0,0.0,0.0,0.0
1583763076998340756,495,1583763076996186114,,chassis_to_left_wheel,chassis_to_right_wheel,18.24947718,22.7453457,0.0,0.0,0.0,0.0
1583763077097045741,496,1583763077096186987,,chassis_to_left_wheel,chassis_to_right_wheel,18.24947718,22.7453457,0.0,0.0,0.0,0.0
1583763077197729630,497,1583763077196169492,,chassis_to_left_wheel,chassis_to_right_wheel,18.24947718,22.7453457,0.0,0.0,0.0,0.0
1583763077296964818,498,1583763077296165901,,chassis_to_left_wheel,chassis_to_right_wheel,18.24947718,22.7453457,0.0,0.0,0.0,0.0
1583763077397794962,499,1583763077396187183,,chassis_to_left_wheel,chassis_to_right_wheel,18.24947718,22.7453457,0.0,0.0,0.0,0.0
1583763077497197878,500,1583763077496197494,,chassis_to_left_wheel,chassis_to_right_wheel,18.24947718,22.7453457,0.0,0.0,0.0,0.0
1583763077598015057,501,1583763077596175086,,chassis_to_left_wheel,chassis_to_right_wheel,18.24947718,22.7453457,0.0,0.0,0.0,0.0
1583763077697168798,502,1583763077696171693,,chassis_to_left_wheel,chassis_to_right_wheel,18.24947718,22.7453457,0.0,0.0,0.0,0.0
1583763077798211034,503,1583763077796175075,,chassis_to_left_wheel,chassis_to_right_wheel,18.24947718,22.7453457,0.0,0.0,0.0,0.0
1583763077896947753,504,1583763077896203501,,chassis_to_left_wheel,chassis_to_right_wheel,18.24947718,22.7453457,0.0,0.0,0.0,0.0
1583763077997970087,505,1583763077996258419,,chassis_to_left_wheel,chassis_to_right_wheel,18.24947718,22.7453457,0.0,0.0,0.0,0.0
1583763078097248073,506,1583763078096180774,,chassis_to_left_wheel,chassis_to_right_wheel,18.24947718,22.7453457,0.0,0.0,0.0,0.0
1583763078198420497,507,1583763078196180115,,chassis_to_left_wheel,chassis_to_right_wheel,18.24947718,22.745355303,0.0,0.0,0.0,0.0
1583763078297202035,508,1583763078296235060,,chassis_to_left_wheel,chassis_to_right_wheel,18.24947718,22.7453591442,0.0,0.0,0.0,0.0
1583763078397117117,509,1583763078396187581,,chassis_to_left_wheel,chassis_to_right_wheel,18.24947718,22.7453606807,0.0,0.0,0.0,0.0
1583763078496806463,510,1583763078496182462,,chassis_to_left_wheel,chassis_to_right_wheel,18.24947718,22.7453612953,0.0,0.0,0.0,0.0
1583763078598510605,511,1583763078596190887,,chassis_to_left_wheel,chassis_to_right_wheel,18.24947718,22.7453615411,0.0,0.0,0.0,0.0
1583763078696838373,512,1583763078696191728,,chassis_to_left_wheel,chassis_to_right_wheel,18.24947718,22.7453616394,0.0,0.0,0.0,0.0
1583763078799006759,513,1583763078796189963,,chassis_to_left_wheel,chassis_to_right_wheel,18.24947718,22.7453616788,0.0,0.0,0.0,0.0
1583763078897024867,514,1583763078896195957,,chassis_to_left_wheel,chassis_to_right_wheel,18.24947718,22.7453616945,0.0,0.0,0.0,0.0
1583763078997873390,515,1583763078996179868,,chassis_to_left_wheel,chassis_to_right_wheel,18.24947718,22.7453617008,0.0,0.0,0.0,0.0
1583763079097153155,516,1583763079096170903,,chassis_to_left_wheel,chassis_to_right_wheel,18.24947718,22.7453617033,0.0,0.0,0.0,0.0
1583763079197201453,517,1583763079196180786,,chassis_to_left_wheel,chassis_to_right_wheel,18.24947718,22.7453617043,0.0,0.0,0.0,0.0
1583763079297401544,518,1583763079296169401,,chassis_to_left_wheel,chassis_to_right_wheel,18.24947718,22.7453617047,0.0,0.0,0.0,0.0
1583763079397226548,519,1583763079396187404,,chassis_to_left_wheel,chassis_to_right_wheel,18.24947718,22.7453617049,0.0,0.0,0.0,0.0
1583763079497200438,520,1583763079496191080,,chassis_to_left_wheel,chassis_to_right_wheel,18.24947718,22.745361705,0.0,0.0,0.0,0.0
1583763079597653509,521,1583763079596177626,,chassis_to_left_wheel,chassis_to_right_wheel,18.24947718,22.745361705,0.0,0.0,0.0,0.0
1583763079696946652,522,1583763079696187058,,chassis_to_left_wheel,chassis_to_right_wheel,18.24947718,22.745361705,0.0,0.0,0.0,0.0
1583763079798666293,523,1583763079796404319,,chassis_to_left_wheel,chassis_to_right_wheel,18.24947718,22.745361705,0.0,0.0,0.0,0.0
1583763079896838425,524,1583763079896189738,,chassis_to_left_wheel,chassis_to_right_wheel,18.24947718,22.745361705,0.0,0.0,0.0,0.0
1583763079998267509,525,1583763079996184942,,chassis_to_left_wheel,chassis_to_right_wheel,18.24947718,22.745361705,0.0,0.0,0.0,0.0
1583763080097488747,526,1583763080096209649,,chassis_to_left_wheel,chassis_to_right_wheel,18.24947718,22.745361705,0.0,0.0,0.0,0.0
1583763080197859372,527,1583763080196195143,,chassis_to_left_wheel,chassis_to_right_wheel,18.24947718,22.745361705,0.0,0.0,0.0,0.0
1583763080296941310,528,1583763080296193357,,chassis_to_left_wheel,chassis_to_right_wheel,18.24947718,22.745361705,0.0,0.0,0.0,0.0
1583763080397322522,529,1583763080396175766,,chassis_to_left_wheel,chassis_to_right_wheel,18.24947718,22.745361705,0.0,0.0,0.0,0.0
1583763080496964533,530,1583763080496166210,,chassis_to_left_wheel,chassis_to_right_wheel,18.24947718,22.745361705,0.0,0.0,0.0,0.0
1583763080598296960,531,1583763080596189832,,chassis_to_left_wheel,chassis_to_right_wheel,18.24947718,22.745361705,0.0,0.0,0.0,0.0
1583763080696822381,532,1583763080696168628,,chassis_to_left_wheel,chassis_to_right_wheel,18.24947718,22.745361705,0.0,0.0,0.0,0.0
1583763080798179242,533,1583763080796632955,,chassis_to_left_wheel,chassis_to_right_wheel,18.24947718,22.745361705,0.0,0.0,0.0,0.0
1583763080897148927,534,1583763080896138236,,chassis_to_left_wheel,chassis_to_right_wheel,18.24947718,22.745361705,0.0,0.0,0.0,0.0
1583763080997935751,535,1583763080996194941,,chassis_to_left_wheel,chassis_to_right_wheel,18.24947718,22.745361705,0.0,0.0,0.0,0.0
1583763081097264923,536,1583763081096209880,,chassis_to_left_wheel,chassis_to_right_wheel,18.24947718,22.745361705,0.0,0.0,0.0,0.0
1583763081198215061,537,1583763081196191677,,chassis_to_left_wheel,chassis_to_right_wheel,18.24947718,22.745361705,0.0,0.0,0.0,0.0
1583763081297152765,538,1583763081296192669,,chassis_to_left_wheel,chassis_to_right_wheel,18.24947718,22.745361705,0.0,0.0,0.0,0.0
1583763081397782494,539,1583763081396186054,,chassis_to_left_wheel,chassis_to_right_wheel,18.24947718,22.745361705,0.0,0.0,0.0,0.0
1583763081497077846,540,1583763081496169668,,chassis_to_left_wheel,chassis_to_right_wheel,18.24947718,22.745361705,0.0,0.0,0.0,0.0
1583763081597903573,541,1583763081596185045,,chassis_to_left_wheel,chassis_to_right_wheel,18.24947718,22.745361705,0.0,0.0,0.0,0.0
1583763081696748114,542,1583763081696210909,,chassis_to_left_wheel,chassis_to_right_wheel,18.24947718,22.745361705,0.0,0.0,0.0,0.0
1583763081798337034,543,1583763081796184957,,chassis_to_left_wheel,chassis_to_right_wheel,18.24947718,22.745361705,0.0,0.0,0.0,0.0
1583763081897624891,544,1583763081896202916,,chassis_to_left_wheel,chassis_to_right_wheel,18.24947718,22.745361705,0.0,0.0,0.0,0.0
1583763081998402289,545,1583763081996166027,,chassis_to_left_wheel,chassis_to_right_wheel,18.24947718,22.745361705,0.0,0.0,0.0,0.0
1583763082097737131,546,1583763082096169121,,chassis_to_left_wheel,chassis_to_right_wheel,18.24947718,22.745361705,0.0,0.0,0.0,0.0
1583763082198061326,547,1583763082196175702,,chassis_to_left_wheel,chassis_to_right_wheel,18.24947718,22.745361705,0.0,0.0,0.0,0.0
1583763082297187155,548,1583763082296164251,,chassis_to_left_wheel,chassis_to_right_wheel,18.24947718,22.745361705,0.0,0.0,0.0,0.0
1583763082398155871,549,1583763082396191086,,chassis_to_left_wheel,chassis_to_right_wheel,18.24947718,22.745361705,0.0,0.0,0.0,0.0
1583763082497433509,550,1583763082496205230,,chassis_to_left_wheel,chassis_to_right_wheel,18.24947718,22.745361705,0.0,0.0,0.0,0.0
1583763082598051813,551,1583763082596191789,,chassis_to_left_wheel,chassis_to_right_wheel,18.24947718,22.745361705,0.0,0.0,0.0,0.0
1583763082697406516,552,1583763082696169311,,chassis_to_left_wheel,chassis_to_right_wheel,18.24947718,22.745361705,0.0,0.0,0.0,0.0
1583763082798270415,553,1583763082796217640,,chassis_to_left_wheel,chassis_to_right_wheel,18.24947718,22.745361705,0.0,0.0,0.0,0.0
1583763082897193572,554,1583763082896182843,,chassis_to_left_wheel,chassis_to_right_wheel,18.24947718,22.745361705,0.0,0.0,0.0,0.0
1583763082997256411,555,1583763082996195527,,chassis_to_left_wheel,chassis_to_right_wheel,18.24947718,22.745361705,0.0,0.0,0.0,0.0
1583763083096881184,556,1583763083096234157,,chassis_to_left_wheel,chassis_to_right_wheel,18.24947718,22.745361705,0.0,0.0,0.0,0.0
1583763083198240571,557,1583763083196187376,,chassis_to_left_wheel,chassis_to_right_wheel,18.253904163,22.742403981,0.0,0.0,0.0,0.0
1583763083296763520,558,1583763083296200203,,chassis_to_left_wheel,chassis_to_right_wheel,18.2782708152,22.7203247634,0.0,0.0,0.0,0.0
1583763083397828920,559,1583763083396185896,,chassis_to_left_wheel,chassis_to_right_wheel,18.3223097891,22.6773448084,0.0,0.0,0.0,0.0
1583763083497423856,560,1583763083496197112,,chassis_to_left_wheel,chassis_to_right_wheel,18.3796433866,22.6207229083,0.0,0.0,0.0,0.0
1583763083597591174,561,1583763083596187031,,chassis_to_left_wheel,chassis_to_right_wheel,18.4447820107,22.5565315703,0.0,0.0,0.0,0.0
1583763083697584356,562,1583763083696202345,,chassis_to_left_wheel,chassis_to_right_wheel,18.5143486533,22.4871421791,0.0,0.0,0.0,0.0
1583763083797507639,563,1583763083796190862,,chassis_to_left_wheel,chassis_to_right_wheel,18.5865123613,22.4148957237,0.0,0.0,0.0,0.0
1583763083897188437,564,1583763083896219907,,chassis_to_left_wheel,chassis_to_right_wheel,18.6598589405,22.3415736635,0.0,0.0,0.0,0.0
1583763083997566678,565,1583763083996187853,,chassis_to_left_wheel,chassis_to_right_wheel,18.7340723912,22.2676773164,0.0,0.0,0.0,0.0
1583763084097159104,566,1583763084096206463,,chassis_to_left_wheel,chassis_to_right_wheel,18.8086998115,22.1927926176,0.0,0.0,0.0,0.0
1583763084197796571,567,1583763084196176229,,chassis_to_left_wheel,chassis_to_right_wheel,18.8836368646,22.117502975,0.0,0.0,0.0,0.0
1583763084297374983,568,1583763084296171961,,chassis_to_left_wheel,chassis_to_right_wheel,18.9586593588,22.042253018,0.0,0.0,0.0,0.0
1583763084397092056,569,1583763084396187987,,chassis_to_left_wheel,chassis_to_right_wheel,19.0337448385,21.9673262312,0.0,0.0,0.0,0.0
1583763084497221062,570,1583763084496207850,,chassis_to_left_wheel,chassis_to_right_wheel,19.1089227334,21.8919525325,0.0,0.0,0.0,0.0
1583763084598227829,571,1583763084596182089,,chassis_to_left_wheel,chassis_to_right_wheel,19.1843008454,21.816957043,0.0,0.0,0.0,0.0
1583763084697303412,572,1583763084696216603,,chassis_to_left_wheel,chassis_to_right_wheel,19.2593461151,21.7418631592,0.0,0.0,0.0,0.0
1583763084798082121,573,1583763084796188196,,chassis_to_left_wheel,chassis_to_right_wheel,19.3344599111,21.6665090487,0.0,0.0,0.0,0.0
1583763084897107726,574,1583763084896255100,,chassis_to_left_wheel,chassis_to_right_wheel,19.4097835744,21.5915694095,0.0,0.0,0.0,0.0
1583763084997206010,575,1583763084996184173,,chassis_to_left_wheel,chassis_to_right_wheel,19.4848262708,21.5164114388,0.0,0.0,0.0,0.0
1583763085097134183,576,1583763085096201064,,chassis_to_left_wheel,chassis_to_right_wheel,19.5597949923,21.4412237535,0.0,0.0,0.0,0.0
1583763085198922293,577,1583763085196212924,,chassis_to_left_wheel,chassis_to_right_wheel,19.6350990379,21.3659377554,0.0,0.0,0.0,0.0
1583763085297084970,578,1583763085296206941,,chassis_to_left_wheel,chassis_to_right_wheel,19.7102971382,21.2907756832,0.0,0.0,0.0,0.0
1583763085398733299,579,1583763085396178486,,chassis_to_left_wheel,chassis_to_right_wheel,19.7855392873,21.2157880203,0.0,0.0,0.0,0.0
1583763085497548982,580,1583763085496167574,,chassis_to_left_wheel,chassis_to_right_wheel,19.8607702469,21.1404379861,0.0,0.0,0.0,0.0
1583763085598016161,581,1583763085596195691,,chassis_to_left_wheel,chassis_to_right_wheel,19.9359391128,21.0654519624,0.0,0.0,0.0,0.0
1583763085697159830,582,1583763085696221670,,chassis_to_left_wheel,chassis_to_right_wheel,20.0109486991,20.990352262,0.0,0.0,0.0,0.0
1583763085797035080,583,1583763085796192255,,chassis_to_left_wheel,chassis_to_right_wheel,20.0859617946,20.9150246338,0.0,0.0,0.0,0.0
1583763085897078639,584,1583763085896193408,,chassis_to_left_wheel,chassis_to_right_wheel,20.1612259719,20.8397018645,0.0,0.0,0.0,0.0
1583763085998023949,585,1583763085996178463,,chassis_to_left_wheel,chassis_to_right_wheel,20.2362832857,20.7646595258,0.0,0.0,0.0,0.0
1583763086097183139,586,1583763086096202565,,chassis_to_left_wheel,chassis_to_right_wheel,20.3116707833,20.6894028573,0.0,0.0,0.0,0.0
1583763086197985248,587,1583763086196190555,,chassis_to_left_wheel,chassis_to_right_wheel,20.3868830583,20.6142045019,0.0,0.0,0.0,0.0
1583763086297733476,588,1583763086296222634,,chassis_to_left_wheel,chassis_to_right_wheel,20.4620636563,20.5390774868,0.0,0.0,0.0,0.0
1583763086398981594,589,1583763086396174254,,chassis_to_left_wheel,chassis_to_right_wheel,20.5371739655,20.4639117867,0.0,0.0,0.0,0.0
1583763086496647615,590,1583763086496212171,,chassis_to_left_wheel,chassis_to_right_wheel,20.6125826612,20.3887210097,0.0,0.0,0.0,0.0
1583763086598473381,591,1583763086596176320,,chassis_to_left_wheel,chassis_to_right_wheel,20.6877842095,20.3133377449,0.0,0.0,0.0,0.0
1583763086697263935,592,1583763086696218046,,chassis_to_left_wheel,chassis_to_right_wheel,20.7628740898,20.2382231929,0.0,0.0,0.0,0.0
1583763086798790643,593,1583763086796189847,,chassis_to_left_wheel,chassis_to_right_wheel,20.8378616849,20.1630144632,0.0,0.0,0.0,0.0
1583763086897331213,594,1583763086896192442,,chassis_to_left_wheel,chassis_to_right_wheel,20.912990823,20.0877872683,0.0,0.0,0.0,0.0
1583763086997830141,595,1583763086996191358,,chassis_to_left_wheel,chassis_to_right_wheel,20.9882149902,20.0124566573,0.0,0.0,0.0,0.0
1583763087097216438,596,1583763087096210084,,chassis_to_left_wheel,chassis_to_right_wheel,21.0634099481,19.9373631669,0.0,0.0,0.0,0.0
1583763087197662998,597,1583763087196188630,,chassis_to_left_wheel,chassis_to_right_wheel,21.1383819562,19.8620380228,0.0,0.0,0.0,0.0
1583763087297040047,598,1583763087296214395,,chassis_to_left_wheel,chassis_to_right_wheel,21.2136296985,19.7867930711,0.0,0.0,0.0,0.0
1583763087397223291,599,1583763087396188167,,chassis_to_left_wheel,chassis_to_right_wheel,21.2889877344,19.7115801964,0.0,0.0,0.0,0.0
1583763087497273603,600,1583763087496214613,,chassis_to_left_wheel,chassis_to_right_wheel,21.3642458428,19.6362265046,0.0,0.0,0.0,0.0
1583763087597421122,601,1583763087596195956,,chassis_to_left_wheel,chassis_to_right_wheel,21.4394159651,19.5609221188,0.0,0.0,0.0,0.0
1583763087697293900,602,1583763087696169679,,chassis_to_left_wheel,chassis_to_right_wheel,21.514330024,19.4857142795,0.0,0.0,0.0,0.0
1583763087797432534,603,1583763087796180432,,chassis_to_left_wheel,chassis_to_right_wheel,21.5896122046,19.4107275158,0.0,0.0,0.0,0.0
1583763087897253217,604,1583763087896167369,,chassis_to_left_wheel,chassis_to_right_wheel,21.6647055288,19.3356659313,0.0,0.0,0.0,0.0
1583763087998463536,605,1583763087996190067,,chassis_to_left_wheel,chassis_to_right_wheel,21.7399729885,19.2604879915,0.0,0.0,0.0,0.0
1583763088097492138,606,1583763088096219959,,chassis_to_left_wheel,chassis_to_right_wheel,21.8152428814,19.1851386706,0.0,0.0,0.0,0.0
1583763088197992150,607,1583763088196189351,,chassis_to_left_wheel,chassis_to_right_wheel,21.8906193806,19.1097207972,0.0,0.0,0.0,0.0
1583763088297112179,608,1583763088296198286,,chassis_to_left_wheel,chassis_to_right_wheel,21.9660289192,19.0341410609,0.0,0.0,0.0,0.0
1583763088397681639,609,1583763088396189136,,chassis_to_left_wheel,chassis_to_right_wheel,22.0408562877,18.9595241004,0.0,0.0,0.0,0.0
1583763088497091046,610,1583763088496195883,,chassis_to_left_wheel,chassis_to_right_wheel,22.1157964961,18.8845912311,0.0,0.0,0.0,0.0
1583763088598515009,611,1583763088596189525,,chassis_to_left_wheel,chassis_to_right_wheel,22.1909642974,18.8093399385,0.0,0.0,0.0,0.0
1583763088697115563,612,1583763088696196616,,chassis_to_left_wheel,chassis_to_right_wheel,22.266251945,18.7341437334,0.0,0.0,0.0,0.0
1583763088798297904,613,1583763088796186770,,chassis_to_left_wheel,chassis_to_right_wheel,22.341405074,18.6589695634,0.0,0.0,0.0,0.0
1583763088897220410,614,1583763088896232682,,chassis_to_left_wheel,chassis_to_right_wheel,22.4166964556,18.5835065143,0.0,0.0,0.0,0.0
1583763088998443483,615,1583763088996194230,,chassis_to_left_wheel,chassis_to_right_wheel,22.4916206062,18.5083696517,0.0,0.0,0.0,0.0
1583763089097672619,616,1583763089096204995,,chassis_to_left_wheel,chassis_to_right_wheel,22.5667243665,18.4333248517,0.0,0.0,0.0,0.0
1583763089197829630,617,1583763089196185826,,chassis_to_left_wheel,chassis_to_right_wheel,22.6422648846,18.3583072737,0.0,0.0,0.0,0.0
1583763089297095919,618,1583763089296166188,,chassis_to_left_wheel,chassis_to_right_wheel,22.7173655138,18.2830028915,0.0,0.0,0.0,0.0
1583763089397152646,619,1583763089396193568,,chassis_to_left_wheel,chassis_to_right_wheel,22.7861922825,18.2126637746,0.0,0.0,0.0,0.0
1583763089497286056,620,1583763089496208692,,chassis_to_left_wheel,chassis_to_right_wheel,22.834388646,18.1655718058,0.0,0.0,0.0,0.0
1583763089598195056,621,1583763089596161567,,chassis_to_left_wheel,chassis_to_right_wheel,22.8645377874,18.1370167823,0.0,0.0,0.0,0.0
1583763089697245504,622,1583763089696182404,,chassis_to_left_wheel,chassis_to_right_wheel,22.881744652,18.1199193999,0.0,0.0,0.0,0.0
1583763089798187027,623,1583763089796193101,,chassis_to_left_wheel,chassis_to_right_wheel,22.8927086728,18.109114408,0.0,0.0,0.0,0.0
1583763089897527502,624,1583763089896206358,,chassis_to_left_wheel,chassis_to_right_wheel,22.9000616081,18.1021515862,0.0,0.0,0.0,0.0
1583763089997851901,625,1583763089996193137,,chassis_to_left_wheel,chassis_to_right_wheel,22.9037518162,18.0985694085,0.0,0.0,0.0,0.0
1583763090097061514,626,1583763090096198903,,chassis_to_left_wheel,chassis_to_right_wheel,22.9056600345,18.0966755934,0.0,0.0,0.0,0.0
1583763090198791372,627,1583763090196187795,,chassis_to_left_wheel,chassis_to_right_wheel,22.9066441908,18.0956875954,0.0,0.0,0.0,0.0
1583763090297105399,628,1583763090296192401,,chassis_to_left_wheel,chassis_to_right_wheel,22.9071338833,18.0951867631,0.0,0.0,0.0,0.0
1583763090398376873,629,1583763090396185463,,chassis_to_left_wheel,chassis_to_right_wheel,22.9073585693,18.0949576213,0.0,0.0,0.0,0.0
1583763090497359775,630,1583763090496221767,,chassis_to_left_wheel,chassis_to_right_wheel,22.9074484437,18.0948659645,0.0,0.0,0.0,0.0
1583763090597508814,631,1583763090596186287,,chassis_to_left_wheel,chassis_to_right_wheel,22.9074843935,18.0948293018,0.0,0.0,0.0,0.0
1583763090696987370,632,1583763090696201247,,chassis_to_left_wheel,chassis_to_right_wheel,22.9074987734,18.0948146367,0.0,0.0,0.0,0.0
1583763090798034007,633,1583763090796179689,,chassis_to_left_wheel,chassis_to_right_wheel,22.9075045254,18.0948087707,0.0,0.0,0.0,0.0
1583763090897111974,634,1583763090896200208,,chassis_to_left_wheel,chassis_to_right_wheel,22.9075068261,18.0948064243,0.0,0.0,0.0,0.0
1583763090997661126,635,1583763090996184908,,chassis_to_left_wheel,chassis_to_right_wheel,22.9075077465,18.0948054857,0.0,0.0,0.0,0.0
1583763091096718604,636,1583763091096188689,,chassis_to_left_wheel,chassis_to_right_wheel,22.9075081146,18.0948051103,0.0,0.0,0.0,0.0
1583763091198129586,637,1583763091196185533,,chassis_to_left_wheel,chassis_to_right_wheel,22.9075082618,18.0948049601,0.0,0.0,0.0,0.0
1583763091296886566,638,1583763091296200248,,chassis_to_left_wheel,chassis_to_right_wheel,22.9075083207,18.0948049,0.0,0.0,0.0,0.0
1583763091398373963,639,1583763091396172347,,chassis_to_left_wheel,chassis_to_right_wheel,22.9075083443,18.094804876,0.0,0.0,0.0,0.0
1583763091496961276,640,1583763091496176680,,chassis_to_left_wheel,chassis_to_right_wheel,22.9075083537,18.0948048664,0.0,0.0,0.0,0.0
1583763091597998598,641,1583763091596197429,,chassis_to_left_wheel,chassis_to_right_wheel,22.9075083575,18.0948048626,0.0,0.0,0.0,0.0
1583763091697200844,642,1583763091696217266,,chassis_to_left_wheel,chassis_to_right_wheel,22.907508359,18.094804861,0.0,0.0,0.0,0.0
1583763091798569506,643,1583763091796193859,,chassis_to_left_wheel,chassis_to_right_wheel,22.9075083596,18.0948048604,0.0,0.0,0.0,0.0
1583763091897172226,644,1583763091896196497,,chassis_to_left_wheel,chassis_to_right_wheel,22.9075083598,18.0948048602,0.0,0.0,0.0,0.0
1583763091997727856,645,1583763091996187399,,chassis_to_left_wheel,chassis_to_right_wheel,22.9075083599,18.0948048601,0.0,0.0,0.0,0.0
1583763092097205535,646,1583763092096202080,,chassis_to_left_wheel,chassis_to_right_wheel,22.90750836,18.09480486,0.0,0.0,0.0,0.0
1583763092197278918,647,1583763092196179606,,chassis_to_left_wheel,chassis_to_right_wheel,22.90750836,18.09480486,0.0,0.0,0.0,0.0
1583763092297021147,648,1583763092296188383,,chassis_to_left_wheel,chassis_to_right_wheel,22.90750836,18.09480486,0.0,0.0,0.0,0.0
1583763092398093059,649,1583763092396186718,,chassis_to_left_wheel,chassis_to_right_wheel,22.90750836,18.09480486,0.0,0.0,0.0,0.0
1583763092497076362,650,1583763092496188265,,chassis_to_left_wheel,chassis_to_right_wheel,22.90750836,18.09480486,0.0,0.0,0.0,0.0
1583763092598145199,651,1583763092596211547,,chassis_to_left_wheel,chassis_to_right_wheel,22.90750836,18.09480486,0.0,0.0,0.0,0.0
1583763092696955978,652,1583763092696188486,,chassis_to_left_wheel,chassis_to_right_wheel,22.90750836,18.09480486,0.0,0.0,0.0,0.0
1583763092797702372,653,1583763092796196338,,chassis_to_left_wheel,chassis_to_right_wheel,22.90750836,18.09480486,0.0,0.0,0.0,0.0
1583763092896612082,654,1583763092896195295,,chassis_to_left_wheel,chassis_to_right_wheel,22.90750836,18.09480486,0.0,0.0,0.0,0.0
1583763092998064533,655,1583763092996172198,,chassis_to_left_wheel,chassis_to_right_wheel,22.90750836,18.09480486,0.0,0.0,0.0,0.0
1583763093096894680,656,1583763093096188002,,chassis_to_left_wheel,chassis_to_right_wheel,22.90750836,18.09480486,0.0,0.0,0.0,0.0
1583763093197993698,657,1583763093196184407,,chassis_to_left_wheel,chassis_to_right_wheel,22.90750836,18.09480486,0.0,0.0,0.0,0.0
1583763093297006660,658,1583763093296189168,,chassis_to_left_wheel,chassis_to_right_wheel,22.90750836,18.09480486,0.0,0.0,0.0,0.0
1583763093397734989,659,1583763093396136819,,chassis_to_left_wheel,chassis_to_right_wheel,22.90750836,18.09480486,0.0,0.0,0.0,0.0
1583763093496601235,660,1583763093496165210,,chassis_to_left_wheel,chassis_to_right_wheel,22.90750836,18.09480486,0.0,0.0,0.0,0.0
1583763093598016782,661,1583763093596181421,,chassis_to_left_wheel,chassis_to_right_wheel,22.90750836,18.09480486,0.0,0.0,0.0,0.0
1583763093697930995,662,1583763093697123184,,chassis_to_left_wheel,chassis_to_right_wheel,22.90750836,18.09480486,0.0,0.0,0.0,0.0
1583763093797949351,663,1583763093796173344,,chassis_to_left_wheel,chassis_to_right_wheel,22.90750836,18.09480486,0.0,0.0,0.0,0.0
1583763093897089721,664,1583763093896198073,,chassis_to_left_wheel,chassis_to_right_wheel,22.90750836,18.09480486,0.0,0.0,0.0,0.0
1583763093998156659,665,1583763093996189989,,chassis_to_left_wheel,chassis_to_right_wheel,22.90750836,18.09480486,0.0,0.0,0.0,0.0
1583763094097079709,666,1583763094096171024,,chassis_to_left_wheel,chassis_to_right_wheel,22.90750836,18.09480486,0.0,0.0,0.0,0.0
1583763094198542475,667,1583763094196191995,,chassis_to_left_wheel,chassis_to_right_wheel,22.90750836,18.09480486,0.0,0.0,0.0,0.0
1583763094297074780,668,1583763094296198050,,chassis_to_left_wheel,chassis_to_right_wheel,22.90750836,18.09480486,0.0,0.0,0.0,0.0
1583763094397941777,669,1583763094396174377,,chassis_to_left_wheel,chassis_to_right_wheel,22.90750836,18.09480486,0.0,0.0,0.0,0.0
1583763094497180033,670,1583763094496192572,,chassis_to_left_wheel,chassis_to_right_wheel,22.90750836,18.09480486,0.0,0.0,0.0,0.0
1583763094598372050,671,1583763094596190726,,chassis_to_left_wheel,chassis_to_right_wheel,22.90750836,18.09480486,0.0,0.0,0.0,0.0
1583763094697206784,672,1583763094696178177,,chassis_to_left_wheel,chassis_to_right_wheel,22.90750836,18.094795257,0.0,0.0,0.0,0.0
1583763094798596340,673,1583763094796187632,,chassis_to_left_wheel,chassis_to_right_wheel,22.90750836,18.0947914158,0.0,0.0,0.0,0.0
1583763094897209590,674,1583763094896192813,,chassis_to_left_wheel,chassis_to_right_wheel,22.90750836,18.0947898793,0.0,0.0,0.0,0.0
1583763094998512346,675,1583763094996199323,,chassis_to_left_wheel,chassis_to_right_wheel,22.90750836,18.0947892647,0.0,0.0,0.0,0.0
1583763095097288869,676,1583763095096199424,,chassis_to_left_wheel,chassis_to_right_wheel,22.90750836,18.0947890189,0.0,0.0,0.0,0.0
1583763095197877246,677,1583763095196186575,,chassis_to_left_wheel,chassis_to_right_wheel,22.90750836,18.0947889206,0.0,0.0,0.0,0.0
1583763095296968791,678,1583763095296201332,,chassis_to_left_wheel,chassis_to_right_wheel,22.90750836,18.0947888812,0.0,0.0,0.0,0.0
1583763095398463792,679,1583763095396175851,,chassis_to_left_wheel,chassis_to_right_wheel,22.90750836,18.0947888655,0.0,0.0,0.0,0.0
1583763095496967671,680,1583763095496165592,,chassis_to_left_wheel,chassis_to_right_wheel,22.90750836,18.0947888592,0.0,0.0,0.0,0.0
1583763095597933310,681,1583763095596185700,,chassis_to_left_wheel,chassis_to_right_wheel,22.90750836,18.0947888567,0.0,0.0,0.0,0.0
1583763095697001974,682,1583763095696186036,,chassis_to_left_wheel,chassis_to_right_wheel,22.90750836,18.0947888557,0.0,0.0,0.0,0.0
1583763095797644099,683,1583763095796147483,,chassis_to_left_wheel,chassis_to_right_wheel,22.90750836,18.0947888553,0.0,0.0,0.0,0.0
1583763095896808907,684,1583763095896192706,,chassis_to_left_wheel,chassis_to_right_wheel,22.90750836,18.0947888551,0.0,0.0,0.0,0.0
1583763095998156394,685,1583763095996172819,,chassis_to_left_wheel,chassis_to_right_wheel,22.90750836,18.094788855,0.0,0.0,0.0,0.0
1583763096096795775,686,1583763096096191888,,chassis_to_left_wheel,chassis_to_right_wheel,22.90750836,18.094788855,0.0,0.0,0.0,0.0
1583763096197399629,687,1583763096196193214,,chassis_to_left_wheel,chassis_to_right_wheel,22.90750836,18.094788855,0.0,0.0,0.0,0.0
1583763096297219512,688,1583763096296193723,,chassis_to_left_wheel,chassis_to_right_wheel,22.90750836,18.094788855,0.0,0.0,0.0,0.0
1583763096397677612,689,1583763096396186179,,chassis_to_left_wheel,chassis_to_right_wheel,22.90750836,18.094788855,0.0,0.0,0.0,0.0
1583763096497089843,690,1583763096496168453,,chassis_to_left_wheel,chassis_to_right_wheel,22.90750836,18.094788855,0.0,0.0,0.0,0.0
1583763096598081993,691,1583763096596209364,,chassis_to_left_wheel,chassis_to_right_wheel,22.90750836,18.094788855,0.0,0.0,0.0,0.0
1583763096697143552,692,1583763096696187109,,chassis_to_left_wheel,chassis_to_right_wheel,22.90750836,18.094788855,0.0,0.0,0.0,0.0
1583763096797643228,693,1583763096796192797,,chassis_to_left_wheel,chassis_to_right_wheel,22.90750836,18.094788855,0.0,0.0,0.0,0.0
1583763096896863304,694,1583763096896198137,,chassis_to_left_wheel,chassis_to_right_wheel,22.90750836,18.094788855,0.0,0.0,0.0,0.0
1583763096997001335,695,1583763096996172375,,chassis_to_left_wheel,chassis_to_right_wheel,22.90750836,18.094788855,0.0,0.0,0.0,0.0
1583763097096882452,696,1583763097096205103,,chassis_to_left_wheel,chassis_to_right_wheel,22.90750836,18.094788855,0.0,0.0,0.0,0.0
1583763097197630953,697,1583763097196217055,,chassis_to_left_wheel,chassis_to_right_wheel,22.90750836,18.094788855,0.0,0.0,0.0,0.0
1583763097296895867,698,1583763097296245047,,chassis_to_left_wheel,chassis_to_right_wheel,22.90750836,18.094788855,0.0,0.0,0.0,0.0
1583763097397389628,699,1583763097396189009,,chassis_to_left_wheel,chassis_to_right_wheel,22.90750836,18.094788855,0.0,0.0,0.0,0.0
1583763097496629331,700,1583763097496202232,,chassis_to_left_wheel,chassis_to_right_wheel,22.90750836,18.094788855,0.0,0.0,0.0,0.0
1583763097598411447,701,1583763097596191975,,chassis_to_left_wheel,chassis_to_right_wheel,22.90750836,18.094788855,0.0,0.0,0.0,0.0
1583763097697400989,702,1583763097696201623,,chassis_to_left_wheel,chassis_to_right_wheel,22.90750836,18.094788855,0.0,0.0,0.0,0.0
1583763097797638232,703,1583763097796187151,,chassis_to_left_wheel,chassis_to_right_wheel,22.90750836,18.094788855,0.0,0.0,0.0,0.0
1583763097896997289,704,1583763097896201483,,chassis_to_left_wheel,chassis_to_right_wheel,22.90750836,18.094788855,0.0,0.0,0.0,0.0
1583763097997931417,705,1583763097996189538,,chassis_to_left_wheel,chassis_to_right_wheel,22.90750836,18.094788855,0.0,0.0,0.0,0.0
1583763098097682394,706,1583763098096156287,,chassis_to_left_wheel,chassis_to_right_wheel,22.90750836,18.094788855,0.0,0.0,0.0,0.0
1583763098198311918,707,1583763098196189758,,chassis_to_left_wheel,chassis_to_right_wheel,22.90750836,18.094788855,0.0,0.0,0.0,0.0
1583763098296697389,708,1583763098296223074,,chassis_to_left_wheel,chassis_to_right_wheel,22.90750836,18.094788855,0.0,0.0,0.0,0.0
1583763098397640749,709,1583763098396173542,,chassis_to_left_wheel,chassis_to_right_wheel,22.90750836,18.094788855,0.0,0.0,0.0,0.0
1583763098497226391,710,1583763098496190074,,chassis_to_left_wheel,chassis_to_right_wheel,22.90750836,18.094788855,0.0,0.0,0.0,0.0
1583763098597386506,711,1583763098596180841,,chassis_to_left_wheel,chassis_to_right_wheel,22.90750836,18.094788855,0.0,0.0,0.0,0.0
1583763098697036788,712,1583763098696195166,,chassis_to_left_wheel,chassis_to_right_wheel,22.903177407,18.098245935,0.0,0.0,0.0,0.0
1583763098797099841,713,1583763098796135227,,chassis_to_left_wheel,chassis_to_right_wheel,22.8785610768,18.121302738,0.0,0.0,0.0,0.0
1583763098897387080,714,1583763098896197922,,chassis_to_left_wheel,chassis_to_right_wheel,22.8458305957,18.1521994302,0.0,0.0,0.0,0.0
1583763098997706588,715,1583763098996219124,,chassis_to_left_wheel,chassis_to_right_wheel,22.7904371883,18.2062639361,0.0,0.0,0.0,0.0
1583763099097401095,716,1583763099096182204,,chassis_to_left_wheel,chassis_to_right_wheel,22.7240580103,18.2719290964,0.0,0.0,0.0,0.0
1583763099198148151,717,1583763099196194482,,chassis_to_left_wheel,chassis_to_right_wheel,22.6532845241,18.3422345186,0.0,0.0,0.0,0.0
1583763099297543153,718,1583763099296171965,,chassis_to_left_wheel,chassis_to_right_wheel,22.5804076067,18.4152123004,0.0,0.0,0.0,0.0
1583763099397116029,719,1583763099396158282,,chassis_to_left_wheel,chassis_to_right_wheel,22.5066893167,18.4892590262,0.0,0.0,0.0,0.0
