%time,field.header.seq,field.header.stamp,field.header.frame_id,field.pose.pose.position.x,field.pose.pose.position.y,field.pose.pose.position.z,field.pose.pose.orientation.x,field.pose.pose.orientation.y,field.pose.pose.orientation.z,field.pose.pose.orientation.w,field.pose.covariance0,field.pose.covariance1,field.pose.covariance2,field.pose.covariance3,field.pose.covariance4,field.pose.covariance5,field.pose.covariance6,field.pose.covariance7,field.pose.covariance8,field.pose.covariance9,field.pose.covariance10,field.pose.covariance11,field.pose.covariance12,field.pose.covariance13,field.pose.covariance14,field.pose.covariance15,field.pose.covariance16,field.pose.covariance17,field.pose.covariance18,field.pose.covariance19,field.pose.covariance20,field.pose.covariance21,field.pose.covariance22,field.pose.covariance23,field.pose.covariance24,field.pose.covariance25,field.pose.covariance26,field.pose.covariance27,field.pose.covariance28,field.pose.covariance29,field.pose.covariance30,field.pose.covariance31,field.pose.covariance32,field.pose.covariance33,field.pose.covariance34,field.pose.covariance35
1583763060238376551,1,1583763052749411989,odom,0.0,0.0,0.0,0.00376638892758,-0.0253316508557,-0.983624921278,0.18022767335,9.99984331429e-06,0.0,0.0,0.0,0.0,0.0,0.0,9.99984331429e-06,0.0,0.0,0.0,0.0,0.0,0.0,250000000.0,0.0,0.0,0.0,0.0,0.0,0.0,2.32830643654e-10,0.0,0.0,0.0,0.0,0.0,0.0,2.32830643654e-10,0.0,0.0,0.0,0.0,0.0,0.0,2.88991648012e-10
1583763060238416861,2,1583763052849411989,odom,0.0,0.0,0.0,0.00376638892758,-0.0253316508557,-0.983624921278,0.18022767335,9.99984331429e-06,0.0,0.0,0.0,0.0,0.0,0.0,9.99984331429e-06,0.0,0.0,0.0,0.0,0.0,0.0,251000000.0,0.0,0.0,0.0,0.0,0.0,0.0,2.32830643654e-10,0.0,0.0,0.0,0.0,0.0,0.0,2.32830643654e-10,0.0,0.0,0.0,0.0,0.0,0.0,2.88991648012e-10
1583763060238448703,3,1583763052949411989,odom,0.0,0.0,0.0,0.00376638892758,-0.0253316508557,-0.983624921278,0.18022767335,9.99984331429e-06,0.0,0.0,0.0,0.0,0.0,0.0,9.99984331429e-06,0.0,0.0,0.0,0.0,0.0,0.0,252000000.0,0.0,0.0,0.0,0.0,0.0,0.0,2.32830643654e-10,0.0,0.0,0.0,0.0,0.0,0.0,2.32830643654e-10,0.0,0.0,0.0,0.0,0.0,0.0,2.88991648012e-10
1583763060238484562,4,1583763053048411989,odom,0.0,0.0,0.0,0.00376643740214,-0.0252706561707,-0.98356275276,0.180566639729,9.80100594461e-06,0.0,0.0,0.0,0.0,0.0,0.0,9.80100594461e-06,0.0,0.0,0.0,0.0,0.0,0.0,253000000.0,0.0,0.0,0.0,0.0,0.0,0.0,2.32830643654e-10,0.0,0.0,0.0,0.0,0.0,0.0,2.32830643654e-10,0.0,0.0,0.0,0.0,0.0,0.0,2.8324071435e-10
1583763060238517674,5,1583763053150411989,odom,0.0,0.0,0.0,0.00376648582533,-0.0252096612571,-0.983502293454,0.180895657137,1.04039208964e-05,0.0,0.0,0.0,0.0,0.0,0.0,1.04039208964e-05,0.0,0.0,0.0,0.0,0.0,0.0,254000000.0,0.0,0.0,0.0,0.0,0.0,0.0,4.65661287308e-10,0.0,0.0,0.0,0.0,0.0,0.0,4.65661287308e-10,0.0,0.0,0.0,0.0,0.0,0.0,3.00666910855e-10
1583763060238561930,6,1583763053249411989,odom,0.0,0.0,0.0,0.00376648582533,-0.0252096612571,-0.983502293454,0.180895657137,9.80100594461e-06,0.0,0.0,0.0,0.0,0.0,0.0,9.80100594461e-06,0.0,0.0,0.0,0.0,0.0,0.0,255000000.0,0.0,0.0,0.0,0.0,0.0,0.0,2.32830643654e-10,0.0,0.0,0.0,0.0,0.0,0.0,2.32830643654e-10,0.0,0.0,0.0,0.0,0.0,0.0,2.83240714252e-10
1583763060238613807,7,1583763053349411989,odom,0.0,0.0,0.0,0.00370545254744,-0.0252096243732,-0.983918049336,0.178620469686,9.99984331429e-06,0.0,0.0,0.0,0.0,0.0,0.0,9.99984331429e-06,0.0,0.0,0.0,0.0,0.0,0.0,256000000.0,0.0,0.0,0.0,0.0,0.0,0.0,2.32830643654e-10,0.0,0.0,0.0,0.0,0.0,0.0,2.32830643654e-10,0.0,0.0,0.0,0.0,0.0,0.0,2.88991648012e-10
1583763060238649436,8,1583763053449411989,odom,0.0,0.0,0.0,0.00364446766903,-0.0251485920784,-0.984273324293,0.176652266004,9.99984331429e-06,0.0,0.0,0.0,0.0,0.0,0.0,9.99984331429e-06,0.0,0.0,0.0,0.0,0.0,0.0,257000000.0,0.0,0.0,0.0,0.0,0.0,0.0,2.32830643654e-10,0.0,0.0,0.0,0.0,0.0,0.0,2.32830643654e-10,0.0,0.0,0.0,0.0,0.0,0.0,2.88991648012e-10
1583763060238702900,9,1583763053549411989,odom,0.0,0.0,0.0,0.00364451591511,-0.025087596521,-0.984213454252,0.176985526158,9.99984331429e-06,0.0,0.0,0.0,0.0,0.0,0.0,9.99984331429e-06,0.0,0.0,0.0,0.0,0.0,0.0,258000000.0,0.0,0.0,0.0,0.0,0.0,0.0,2.32830643654e-10,0.0,0.0,0.0,0.0,0.0,0.0,2.32830643654e-10,0.0,0.0,0.0,0.0,0.0,0.0,2.88991648012e-10
1583763060238749733,10,1583763053648411989,odom,0.0,0.0,0.0,0.00370559745,-0.0250266375693,-0.983743271329,0.179580556059,9.80100594461e-06,0.0,0.0,0.0,0.0,0.0,0.0,9.80100594461e-06,0.0,0.0,0.0,0.0,0.0,0.0,259000000.0,0.0,0.0,0.0,0.0,0.0,0.0,2.32830643654e-10,0.0,0.0,0.0,0.0,0.0,0.0,2.32830643654e-10,0.0,0.0,0.0,0.0,0.0,0.0,2.8324071435e-10
1583763060239343518,11,1583763053749411989,odom,0.0,0.0,0.0,0.00376663100806,-0.0250266744955,-0.983322330205,0.181871369161,1.02010089904e-05,0.0,0.0,0.0,0.0,0.0,0.0,1.02010089904e-05,0.0,0.0,0.0,0.0,0.0,0.0,260000000.0,0.0,0.0,0.0,0.0,0.0,0.0,4.65661287308e-10,0.0,0.0,0.0,0.0,0.0,0.0,4.65661287308e-10,0.0,0.0,0.0,0.0,0.0,0.0,2.94800380276e-10
1583763060239384831,12,1583763053849411989,odom,0.0,0.0,0.0,0.003766582654,-0.0250876704384,-0.983380018689,0.181559188263,9.99984331429e-06,0.0,0.0,0.0,0.0,0.0,0.0,9.99984331429e-06,0.0,0.0,0.0,0.0,0.0,0.0,261000000.0,0.0,0.0,0.0,0.0,0.0,0.0,2.32830643654e-10,0.0,0.0,0.0,0.0,0.0,0.0,2.32830643654e-10,0.0,0.0,0.0,0.0,0.0,0.0,2.88991648108e-10
1583763060239819359,13,1583763053948411989,odom,0.0,0.0,0.0,0.00376653422084,-0.025148665968,-0.983443394638,0.181215588573,9.80100594461e-06,0.0,0.0,0.0,0.0,0.0,0.0,9.80100594461e-06,0.0,0.0,0.0,0.0,0.0,0.0,262000000.0,0.0,0.0,0.0,0.0,0.0,0.0,2.32830643654e-10,0.0,0.0,0.0,0.0,0.0,0.0,2.32830643654e-10,0.0,0.0,0.0,0.0,0.0,0.0,2.8324071435e-10
1583763060239864286,14,1583763054049411989,odom,0.0,0.0,0.0,0.00376648577381,-0.0252096612168,-0.983506351313,0.180873593779,1.02010089904e-05,0.0,0.0,0.0,0.0,0.0,0.0,1.02010089904e-05,0.0,0.0,0.0,0.0,0.0,0.0,263000000.0,0.0,0.0,0.0,0.0,0.0,0.0,4.65661287308e-10,0.0,0.0,0.0,0.0,0.0,0.0,4.65661287308e-10,0.0,0.0,0.0,0.0,0.0,0.0,2.94800380276e-10
1583763060239947378,15,1583763054149411989,odom,0.0,0.0,0.0,0.00382751877655,-0.0252096980067,-0.983085679031,0.183146246711,9.99984331429e-06,0.0,0.0,0.0,0.0,0.0,0.0,9.99984331429e-06,0.0,0.0,0.0,0.0,0.0,0.0,264000000.0,0.0,0.0,0.0,0.0,0.0,0.0,2.32830643654e-10,0.0,0.0,0.0,0.0,0.0,0.0,2.32830643654e-10,0.0,0.0,0.0,0.0,0.0,0.0,2.88991648108e-10
1583763060239987047,16,1583763054254393013,odom,0.0,0.0,0.0,0.00382751877655,-0.0252096980067,-0.983085679031,0.183146246711,1.10210385174e-05,0.0,0.0,0.0,0.0,0.0,0.0,1.10210385174e-05,0.0,0.0,0.0,0.0,0.0,0.0,265000000.0,0.0,0.0,0.0,0.0,0.0,0.0,4.65661287308e-10,0.0,0.0,0.0,0.0,0.0,0.0,4.65661287308e-10,0.0,0.0,0.0,0.0,0.0,0.0,3.18498140388e-10
1583763060240139614,17,1583763054353393013,odom,0.0,0.0,0.0,0.00382756731735,-0.0251487027722,-0.983020948885,0.183493362423,9.80088952929e-06,0.0,0.0,0.0,0.0,0.0,0.0,9.80088952929e-06,0.0,0.0,0.0,0.0,0.0,0.0,266000000.0,0.0,0.0,0.0,0.0,0.0,0.0,2.32830643654e-10,0.0,0.0,0.0,0.0,0.0,0.0,2.32830643654e-10,0.0,0.0,0.0,0.0,0.0,0.0,2.83240714252e-10
1583763060243043864,18,1583763054453393013,odom,0.0,0.0,0.0,0.00388864899118,-0.0250877439818,-0.982526571327,0.186122370056,9.99995972961e-06,0.0,0.0,0.0,0.0,0.0,0.0,9.99995972961e-06,0.0,0.0,0.0,0.0,0.0,0.0,267000000.0,0.0,0.0,0.0,0.0,0.0,0.0,2.32830643654e-10,0.0,0.0,0.0,0.0,0.0,0.0,2.32830643654e-10,0.0,0.0,0.0,0.0,0.0,0.0,2.88991648012e-10
1583763060243248374,19,1583763054553393013,odom,0.0,0.0,0.0,0.00394968209473,-0.0250877806133,-0.982092388385,0.188399948717,9.99995972961e-06,0.0,0.0,0.0,0.0,0.0,0.0,9.99995972961e-06,0.0,0.0,0.0,0.0,0.0,0.0,268000000.0,0.0,0.0,0.0,0.0,0.0,0.0,2.32830643654e-10,0.0,0.0,0.0,0.0,0.0,0.0,2.32830643654e-10,0.0,0.0,0.0,0.0,0.0,0.0,2.88991648012e-10
1583763060243271756,20,1583763054654393013,odom,0.0,0.0,0.0,0.00401071520578,-0.025087817191,-0.981648979417,0.190696830625,1.02010089904e-05,0.0,0.0,0.0,0.0,0.0,0.0,1.02010089904e-05,0.0,0.0,0.0,0.0,0.0,0.0,269000000.0,0.0,0.0,0.0,0.0,0.0,0.0,4.65661287308e-10,0.0,0.0,0.0,0.0,0.0,0.0,4.65661287308e-10,0.0,0.0,0.0,0.0,0.0,0.0,2.94800380276e-10
1583763060243335323,21,1583763054753393013,odom,0.0,0.0,0.0,0.00394968214638,-0.0250877806531,-0.982088151679,0.188422032499,9.80100594461e-06,0.0,0.0,0.0,0.0,0.0,0.0,9.80100594461e-06,0.0,0.0,0.0,0.0,0.0,0.0,270000000.0,0.0,0.0,0.0,0.0,0.0,0.0,2.32830643654e-10,0.0,0.0,0.0,0.0,0.0,0.0,2.32830643654e-10,0.0,0.0,0.0,0.0,0.0,0.0,2.83240714252e-10
1583763060243520602,22,1583763054853393013,odom,0.0,0.0,0.0,0.00394968209473,-0.0250877806133,-0.982092388385,0.188399948717,9.99984331429e-06,0.0,0.0,0.0,0.0,0.0,0.0,9.99984331429e-06,0.0,0.0,0.0,0.0,0.0,0.0,271000000.0,0.0,0.0,0.0,0.0,0.0,0.0,2.32830643654e-10,0.0,0.0,0.0,0.0,0.0,0.0,2.32830643654e-10,0.0,0.0,0.0,0.0,0.0,0.0,2.88991648012e-10
1583763060243603318,23,1583763054953393013,odom,0.0,0.0,0.0,0.00388860037094,-0.0251487394827,-0.982593539367,0.185768502161,9.99984331429e-06,0.0,0.0,0.0,0.0,0.0,0.0,9.99984331429e-06,0.0,0.0,0.0,0.0,0.0,0.0,272000000.0,0.0,0.0,0.0,0.0,0.0,0.0,2.32830643654e-10,0.0,0.0,0.0,0.0,0.0,0.0,2.32830643654e-10,0.0,0.0,0.0,0.0,0.0,0.0,2.88991648012e-10
1583763060243679723,24,1583763055052393013,odom,0.0,0.0,0.0,0.00388855178813,-0.0252097347428,-0.982655922666,0.18543823136,9.80100594461e-06,0.0,0.0,0.0,0.0,0.0,0.0,9.80100594461e-06,0.0,0.0,0.0,0.0,0.0,0.0,273000000.0,0.0,0.0,0.0,0.0,0.0,0.0,2.32830643654e-10,0.0,0.0,0.0,0.0,0.0,0.0,2.32830643654e-10,0.0,0.0,0.0,0.0,0.0,0.0,2.8324071435e-10
1583763060244072126,25,1583763055152393013,odom,0.0,0.0,0.0,0.00382751877655,-0.0252096980067,-0.983085679031,0.183146246711,9.99984331429e-06,0.0,0.0,0.0,0.0,0.0,0.0,9.99984331429e-06,0.0,0.0,0.0,0.0,0.0,0.0,274000000.0,0.0,0.0,0.0,0.0,0.0,0.0,2.32830643654e-10,0.0,0.0,0.0,0.0,0.0,0.0,2.32830643654e-10,0.0,0.0,0.0,0.0,0.0,0.0,2.88991648012e-10
1583763060244242100,26,1583763055253393013,odom,0.0,0.0,0.0,0.00388855173638,-0.0252097347027,-0.982660064236,0.185416283414,1.02010089904e-05,0.0,0.0,0.0,0.0,0.0,0.0,1.02010089904e-05,0.0,0.0,0.0,0.0,0.0,0.0,275000000.0,0.0,0.0,0.0,0.0,0.0,0.0,4.65661287308e-10,0.0,0.0,0.0,0.0,0.0,0.0,4.65661287308e-10,0.0,0.0,0.0,0.0,0.0,0.0,2.94800380276e-10
1583763060244649431,27,1583763055352393013,odom,0.0,0.0,0.0,0.00382756731734,-0.0251487027722,-0.983020948885,0.183493362423,9.80100594461e-06,0.0,0.0,0.0,0.0,0.0,0.0,9.80100594461e-06,0.0,0.0,0.0,0.0,0.0,0.0,276000000.0,0.0,0.0,0.0,0.0,0.0,0.0,2.32830643654e-10,0.0,0.0,0.0,0.0,0.0,0.0,2.32830643654e-10,0.0,0.0,0.0,0.0,0.0,0.0,2.83240714252e-10
1583763060244704274,28,1583763055452393013,odom,0.0,0.0,0.0,0.00382761584404,-0.0250877072569,-0.982955787582,0.183842105238,9.99984331429e-06,0.0,0.0,0.0,0.0,0.0,0.0,9.99984331429e-06,0.0,0.0,0.0,0.0,0.0,0.0,277000000.0,0.0,0.0,0.0,0.0,0.0,0.0,2.32830643654e-10,0.0,0.0,0.0,0.0,0.0,0.0,2.32830643654e-10,0.0,0.0,0.0,0.0,0.0,0.0,2.88991648012e-10
1583763060244853791,29,1583763055553393013,odom,0.0,0.0,0.0,0.00388864899118,-0.0250877439818,-0.982526571327,0.186122370056,1.02010089904e-05,0.0,0.0,0.0,0.0,0.0,0.0,1.02010089904e-05,0.0,0.0,0.0,0.0,0.0,0.0,278000000.0,0.0,0.0,0.0,0.0,0.0,0.0,4.65661287308e-10,0.0,0.0,0.0,0.0,0.0,0.0,4.65661287308e-10,0.0,0.0,0.0,0.0,0.0,0.0,2.94800380276e-10
1583763060244967116,30,1583763055653393013,odom,0.000113634229324,1.64580810821e-08,0.0,0.00388860042223,-0.0251487394748,-0.982593539169,0.185768503206,9.99984331429e-06,0.0,0.0,0.0,0.0,0.0,0.0,9.99984331429e-06,0.0,0.0,0.0,0.0,0.0,0.0,279000000.0,0.0,0.0,0.0,0.0,0.0,0.0,2.32830643654e-10,0.0,0.0,0.0,0.0,0.0,0.0,2.32830643654e-10,0.0,0.0,0.0,0.0,0.0,0.0,2.88991648108e-10
1583763060245142885,31,1583763055753393013,odom,0.00100149141042,2.67031301246e-07,0.0,0.0038275666194,-0.0251486990443,-0.98312473285,0.182936490782,9.99984331429e-06,0.0,0.0,0.0,0.0,0.0,0.0,9.99984331429e-06,0.0,0.0,0.0,0.0,0.0,0.0,280000000.0,0.0,0.0,0.0,0.0,0.0,0.0,2.32830643654e-10,0.0,0.0,0.0,0.0,0.0,0.0,2.32830643654e-10,0.0,0.0,0.0,0.0,0.0,0.0,2.88991648012e-10
1583763060245157604,32,1583763055853393013,odom,0.00333773319176,3.75945088428e-06,0.0,0.00382785724918,-0.0247827188899,-0.982805308352,0.184644864199,9.99984331429e-06,0.0,0.0,0.0,0.0,0.0,0.0,9.99984331429e-06,0.0,0.0,0.0,0.0,0.0,0.0,281000000.0,0.0,0.0,0.0,0.0,0.0,0.0,2.32830643654e-10,0.0,0.0,0.0,0.0,0.0,0.0,2.32830643654e-10,0.0,0.0,0.0,0.0,0.0,0.0,2.88991648012e-10
1583763060245184352,33,1583763055953393013,odom,0.00741820631282,1.16232941176e-05,0.0,0.00395045802748,-0.0241118032491,-0.981226886714,0.192856933473,9.99984331429e-06,0.0,0.0,0.0,0.0,0.0,0.0,9.99984331429e-06,0.0,0.0,0.0,0.0,0.0,0.0,282000000.0,0.0,0.0,0.0,0.0,0.0,0.0,2.32830643654e-10,0.0,0.0,0.0,0.0,0.0,0.0,2.32830643654e-10,0.0,0.0,0.0,0.0,0.0,0.0,2.88991648012e-10
1583763060245195115,34,1583763056053393013,odom,0.0133785103187,2.53231981156e-05,0.0,0.00401212099713,-0.0233188083712,-0.980000299204,0.19899601393,9.99984331429e-06,0.0,0.0,0.0,0.0,0.0,0.0,9.99984331429e-06,0.0,0.0,0.0,0.0,0.0,0.0,283000000.0,0.0,0.0,0.0,0.0,0.0,0.0,2.32830643654e-10,0.0,0.0,0.0,0.0,0.0,0.0,2.32830643654e-10,0.0,0.0,0.0,0.0,0.0,0.0,2.88991648012e-10
1583763060245348554,35,1583763056153393013,odom,0.0212650392418,4.9701546744e-05,0.0,0.00401245466905,-0.022585365108,-0.979160714696,0.20308691439,9.99984331429e-06,0.0,0.0,0.0,0.0,0.0,0.0,9.99984331429e-06,0.0,0.0,0.0,0.0,0.0,0.0,284000000.0,0.0,0.0,0.0,0.0,0.0,0.0,2.32830643654e-10,0.0,0.0,0.0,0.0,0.0,0.0,2.32830643654e-10,0.0,0.0,0.0,0.0,0.0,0.0,2.88991648012e-10
1583763060245356602,36,1583763056252393013,odom,0.0309956408015,8.35933150218e-05,0.0,0.00425726259683,-0.0217314406081,-0.975910144703,0.218172843097,9.80100594461e-06,0.0,0.0,0.0,0.0,0.0,0.0,9.80100594461e-06,0.0,0.0,0.0,0.0,0.0,0.0,285000000.0,0.0,0.0,0.0,0.0,0.0,0.0,2.32830643654e-10,0.0,0.0,0.0,0.0,0.0,0.0,2.32830643654e-10,0.0,0.0,0.0,0.0,0.0,0.0,2.8324071435e-10
1583763060245532338,37,1583763056353393013,odom,0.0428902013711,0.00013150182725,0.0,0.00437995861792,-0.0209384127294,-0.97330388974,0.229520234875,1.02010089904e-05,0.0,0.0,0.0,0.0,0.0,0.0,1.02010089904e-05,0.0,0.0,0.0,0.0,0.0,0.0,286000000.0,0.0,0.0,0.0,0.0,0.0,0.0,4.65661287308e-10,0.0,0.0,0.0,0.0,0.0,0.0,4.65661287308e-10,0.0,0.0,0.0,0.0,0.0,0.0,2.94800380276e-10
1583763060245608731,38,1583763056453393013,odom,0.0566268753205,0.000187724588506,0.0,0.00438050953349,-0.0199000089655,-0.971060994776,0.238831623586,9.99984331429e-06,0.0,0.0,0.0,0.0,0.0,0.0,9.99984331429e-06,0.0,0.0,0.0,0.0,0.0,0.0,287000000.0,0.0,0.0,0.0,0.0,0.0,0.0,2.32830643654e-10,0.0,0.0,0.0,0.0,0.0,0.0,2.32830643654e-10,0.0,0.0,0.0,0.0,0.0,0.0,2.88991648108e-10
1583763060245790354,39,1583763056553393013,odom,0.0723274689083,0.000252301486997,0.0,0.00474723385083,-0.0192291126236,-0.965050494424,0.262064005947,9.99984331429e-06,0.0,0.0,0.0,0.0,0.0,0.0,9.99984331429e-06,0.0,0.0,0.0,0.0,0.0,0.0,288000000.0,0.0,0.0,0.0,0.0,0.0,0.0,2.32830643654e-10,0.0,0.0,0.0,0.0,0.0,0.0,2.32830643654e-10,0.0,0.0,0.0,0.0,0.0,0.0,2.88991648012e-10
1583763060245832537,40,1583763056653393013,odom,0.0899914635461,0.000327259804328,0.0,0.00486982985548,-0.0185580418722,-0.961649251542,0.274282185001,9.99984331429e-06,0.0,0.0,0.0,0.0,0.0,0.0,9.99984331429e-06,0.0,0.0,0.0,0.0,0.0,0.0,289000000.0,0.0,0.0,0.0,0.0,0.0,0.0,2.32830643654e-10,0.0,0.0,0.0,0.0,0.0,0.0,2.32830643654e-10,0.0,0.0,0.0,0.0,0.0,0.0,2.88991648012e-10
1583763060245859337,41,1583763056755393013,odom,0.10966598714,0.000415419248511,0.0,0.00529764668884,-0.0178261241089,-0.952256264365,0.305299864032,1.04039208964e-05,0.0,0.0,0.0,0.0,0.0,0.0,1.04039208964e-05,0.0,0.0,0.0,0.0,0.0,0.0,290000000.0,0.0,0.0,0.0,0.0,0.0,0.0,4.65661287308e-10,0.0,0.0,0.0,0.0,0.0,0.0,4.65661287308e-10,0.0,0.0,0.0,0.0,0.0,0.0,3.00666910855e-10
1583763060245891794,42,1583763056860198904,odom,0.130756928668,0.000501229584705,0.0,0.00529798697639,-0.0173990111911,-0.949812895082,0.312818580547,1.0984367691e-05,0.0,0.0,0.0,0.0,0.0,0.0,1.0984367691e-05,0.0,0.0,0.0,0.0,0.0,0.0,291000000.0,0.0,0.0,0.0,0.0,0.0,0.0,4.65661287308e-10,0.0,0.0,0.0,0.0,0.0,0.0,4.65661287308e-10,0.0,0.0,0.0,0.0,0.0,0.0,3.17436367451e-10
1583763060246241208,43,1583763056960198904,odom,0.151205049023,0.000571833317338,0.0,0.00572537391188,-0.0172162187195,-0.941327990346,0.337493132659,9.99984331429e-06,0.0,0.0,0.0,0.0,0.0,0.0,9.99984331429e-06,0.0,0.0,0.0,0.0,0.0,0.0,292000000.0,0.0,0.0,0.0,0.0,0.0,0.0,2.32830643654e-10,0.0,0.0,0.0,0.0,0.0,0.0,2.32830643654e-10,0.0,0.0,0.0,0.0,0.0,0.0,2.88991648108e-10
1583763060246254556,44,1583763057060198904,odom,0.171798103476,0.000639255876401,0.0,0.00596936315502,-0.0173994177776,-0.938086183466,0.346401952059,9.99984331429e-06,0.0,0.0,0.0,0.0,0.0,0.0,9.99984331429e-06,0.0,0.0,0.0,0.0,0.0,0.0,293000000.0,0.0,0.0,0.0,0.0,0.0,0.0,2.32830643654e-10,0.0,0.0,0.0,0.0,0.0,0.0,2.32830643654e-10,0.0,0.0,0.0,0.0,0.0,0.0,2.88991648012e-10
1583763060246311458,45,1583763057160198904,odom,0.192429920782,0.000705153518445,0.0,0.00548075121212,-0.017826243489,-0.94855122153,0.316623720105,9.99984331429e-06,0.0,0.0,0.0,0.0,0.0,0.0,9.99984331429e-06,0.0,0.0,0.0,0.0,0.0,0.0,294000000.0,0.0,0.0,0.0,0.0,0.0,0.0,2.32830643654e-10,0.0,0.0,0.0,0.0,0.0,0.0,2.32830643654e-10,0.0,0.0,0.0,0.0,0.0,0.0,2.88991648012e-10
1583763060246423223,46,1583763057260198904,odom,0.213106241861,0.000770228968626,0.0,0.00584675793151,-0.0180705282465,-0.943534339241,0.331274735941,9.99984331429e-06,0.0,0.0,0.0,0.0,0.0,0.0,9.99984331429e-06,0.0,0.0,0.0,0.0,0.0,0.0,295000000.0,0.0,0.0,0.0,0.0,0.0,0.0,2.32830643654e-10,0.0,0.0,0.0,0.0,0.0,0.0,2.32830643654e-10,0.0,0.0,0.0,0.0,0.0,0.0,2.88991648012e-10
1583763060246495956,47,1583763057360198904,odom,0.233787687228,0.000830766563383,0.0,0.00590729874909,-0.0186807083125,-0.945457258171,0.325746178751,9.99984331429e-06,0.0,0.0,0.0,0.0,0.0,0.0,9.99984331429e-06,0.0,0.0,0.0,0.0,0.0,0.0,296000000.0,0.0,0.0,0.0,0.0,0.0,0.0,2.32830643654e-10,0.0,0.0,0.0,0.0,0.0,0.0,2.32830643654e-10,0.0,0.0,0.0,0.0,0.0,0.0,2.88991648012e-10
1583763060246544671,48,1583763057459198904,odom,0.254272285791,0.000886857698551,0.0,0.00596798486343,-0.0191078328486,-0.946413093322,0.322958599186,9.80100594461e-06,0.0,0.0,0.0,0.0,0.0,0.0,9.80100594461e-06,0.0,0.0,0.0,0.0,0.0,0.0,297000000.0,0.0,0.0,0.0,0.0,0.0,0.0,2.32830643654e-10,0.0,0.0,0.0,0.0,0.0,0.0,2.32830643654e-10,0.0,0.0,0.0,0.0,0.0,0.0,2.8324071435e-10
1583763060246605386,49,1583763057559198904,odom,0.275009706959,0.000942399259873,0.0,0.00572336226479,-0.0197177970797,-0.952682743077,0.303966430783,9.99984331429e-06,0.0,0.0,0.0,0.0,0.0,0.0,9.99984331429e-06,0.0,0.0,0.0,0.0,0.0,0.0,298000000.0,0.0,0.0,0.0,0.0,0.0,0.0,2.32830643654e-10,0.0,0.0,0.0,0.0,0.0,0.0,2.32830643654e-10,0.0,0.0,0.0,0.0,0.0,0.0,2.88991648012e-10
1583763060246650160,50,1583763057659198904,odom,0.295704995974,0.000999809137927,0.0,0.00529597125769,-0.0203288667707,-0.960829657783,0.27713961955,9.99984331429e-06,0.0,0.0,0.0,0.0,0.0,0.0,9.99984331429e-06,0.0,0.0,0.0,0.0,0.0,0.0,299000000.0,0.0,0.0,0.0,0.0,0.0,0.0,2.32830643654e-10,0.0,0.0,0.0,0.0,0.0,0.0,2.32830643654e-10,0.0,0.0,0.0,0.0,0.0,0.0,2.88991648012e-10
1583763060246660087,51,1583763057759198904,odom,0.316379127436,0.00106525466056,0.0,0.00529572489088,-0.020633920113,-0.961770100804,0.273858126043,9.99984331429e-06,0.0,0.0,0.0,0.0,0.0,0.0,9.99984331429e-06,0.0,0.0,0.0,0.0,0.0,0.0,300000000.0,0.0,0.0,0.0,0.0,0.0,0.0,2.32830643654e-10,0.0,0.0,0.0,0.0,0.0,0.0,2.32830643654e-10,0.0,0.0,0.0,0.0,0.0,0.0,2.88991648012e-10
1583763060246668459,52,1583763057859198904,odom,0.337080068718,0.00113035004418,0.0,0.0048070574321,-0.021121704455,-0.968756805963,0.248012602301,9.99984331429e-06,0.0,0.0,0.0,0.0,0.0,0.0,9.99984331429e-06,0.0,0.0,0.0,0.0,0.0,0.0,301000000.0,0.0,0.0,0.0,0.0,0.0,0.0,2.32830643654e-10,0.0,0.0,0.0,0.0,0.0,0.0,2.32830643654e-10,0.0,0.0,0.0,0.0,0.0,0.0,2.88991648012e-10
1583763060246686133,53,1583763057959198904,odom,0.357755596701,0.00119471967131,0.0,0.00511188297847,-0.0215489378688,-0.966438777341,0.256897040956,9.99984331429e-06,0.0,0.0,0.0,0.0,0.0,0.0,9.99984331429e-06,0.0,0.0,0.0,0.0,0.0,0.0,302000000.0,0.0,0.0,0.0,0.0,0.0,0.0,2.32830643654e-10,0.0,0.0,0.0,0.0,0.0,0.0,2.32830643654e-10,0.0,0.0,0.0,0.0,0.0,0.0,2.88991648012e-10
1583763060246695229,54,1583763058060198904,odom,0.378641338183,0.0012602817835,0.0,0.0050507499224,-0.021670910529,-0.967598544869,0.252493675102,1.02010089904e-05,0.0,0.0,0.0,0.0,0.0,0.0,1.02010089904e-05,0.0,0.0,0.0,0.0,0.0,0.0,303000000.0,0.0,0.0,0.0,0.0,0.0,0.0,4.65661287308e-10,0.0,0.0,0.0,0.0,0.0,0.0,4.65661287308e-10,0.0,0.0,0.0,0.0,0.0,0.0,2.94800380276e-10
1583763060246779226,55,1583763058160198904,odom,0.399353230787,0.00133195233255,0.0,0.00505040304099,-0.0220979429689,-0.968793414042,0.247869564306,9.99984331429e-06,0.0,0.0,0.0,0.0,0.0,0.0,9.99984331429e-06,0.0,0.0,0.0,0.0,0.0,0.0,304000000.0,0.0,0.0,0.0,0.0,0.0,0.0,2.32830643654e-10,0.0,0.0,0.0,0.0,0.0,0.0,2.32830643654e-10,0.0,0.0,0.0,0.0,0.0,0.0,2.88991648108e-10
1583763060246812550,56,1583763058259198904,odom,0.419835493774,0.00140806498327,0.0,0.00523355219399,-0.0220370523215,-0.966410752246,0.25700244735,9.80100594461e-06,0.0,0.0,0.0,0.0,0.0,0.0,9.80100594461e-06,0.0,0.0,0.0,0.0,0.0,0.0,305000000.0,0.0,0.0,0.0,0.0,0.0,0.0,2.32830643654e-10,0.0,0.0,0.0,0.0,0.0,0.0,2.32830643654e-10,0.0,0.0,0.0,0.0,0.0,0.0,2.8324071435e-10
1583763060246848624,57,1583763058359198904,odom,0.440535566858,0.00147507600862,0.0,0.00492814241668,-0.0223418978233,-0.970234174946,0.242168630848,9.99984331429e-06,0.0,0.0,0.0,0.0,0.0,0.0,9.99984331429e-06,0.0,0.0,0.0,0.0,0.0,0.0,306000000.0,0.0,0.0,0.0,0.0,0.0,0.0,2.32830643654e-10,0.0,0.0,0.0,0.0,0.0,0.0,2.32830643654e-10,0.0,0.0,0.0,0.0,0.0,0.0,2.88991648012e-10
1583763060247664492,58,1583763058460198904,odom,0.46142221898,0.00154145463095,0.0,0.00492839130526,-0.0220368846005,-0.969181301627,0.246348542877,1.02010089904e-05,0.0,0.0,0.0,0.0,0.0,0.0,1.02010089904e-05,0.0,0.0,0.0,0.0,0.0,0.0,307000000.0,0.0,0.0,0.0,0.0,0.0,0.0,4.65661287308e-10,0.0,0.0,0.0,0.0,0.0,0.0,4.65661287308e-10,0.0,0.0,0.0,0.0,0.0,0.0,2.94800380276e-10
1583763060247757573,59,1583763058559198904,odom,0.481898558725,0.00159200637132,0.0,0.00480627688972,-0.022097821643,-0.970387110198,0.241555079352,9.80100594461e-06,0.0,0.0,0.0,0.0,0.0,0.0,9.80100594461e-06,0.0,0.0,0.0,0.0,0.0,0.0,308000000.0,0.0,0.0,0.0,0.0,0.0,0.0,2.32830643654e-10,0.0,0.0,0.0,0.0,0.0,0.0,2.32830643654e-10,0.0,0.0,0.0,0.0,0.0,0.0,2.83240714252e-10
1583763060247816795,60,1583763058659198904,odom,0.502588793166,0.00163593649895,0.0,0.00480632634237,-0.02203681831,-0.970196263407,0.2423204706,9.99984331429e-06,0.0,0.0,0.0,0.0,0.0,0.0,9.99984331429e-06,0.0,0.0,0.0,0.0,0.0,0.0,309000000.0,0.0,0.0,0.0,0.0,0.0,0.0,2.32830643654e-10,0.0,0.0,0.0,0.0,0.0,0.0,2.32830643654e-10,0.0,0.0,0.0,0.0,0.0,0.0,2.88991648012e-10
1583763060247870441,61,1583763058759198904,odom,0.523288659489,0.00167760779929,0.0,0.004257268981,-0.0217314628529,-0.974995991125,0.222222450015,9.99984331429e-06,0.0,0.0,0.0,0.0,0.0,0.0,9.99984331429e-06,0.0,0.0,0.0,0.0,0.0,0.0,310000000.0,0.0,0.0,0.0,0.0,0.0,0.0,2.32830643654e-10,0.0,0.0,0.0,0.0,0.0,0.0,2.32830643654e-10,0.0,0.0,0.0,0.0,0.0,0.0,2.88991648012e-10
1583763060247878270,62,1583763058859198904,odom,0.54398042885,0.00171800821343,0.0,0.00370786665635,-0.0218531411142,-0.98012313284,0.19839013199,9.99984331429e-06,0.0,0.0,0.0,0.0,0.0,0.0,9.99984331429e-06,0.0,0.0,0.0,0.0,0.0,0.0,311000000.0,0.0,0.0,0.0,0.0,0.0,0.0,2.32830643654e-10,0.0,0.0,0.0,0.0,0.0,0.0,2.32830643654e-10,0.0,0.0,0.0,0.0,0.0,0.0,2.88991648012e-10
1583763060247960985,63,1583763058960198904,odom,0.564889464501,0.00175280763959,0.0,0.00315851048171,-0.0219138033657,-0.984702611756,0.174243411355,1.02010089904e-05,0.0,0.0,0.0,0.0,0.0,0.0,1.02010089904e-05,0.0,0.0,0.0,0.0,0.0,0.0,312000000.0,0.0,0.0,0.0,0.0,0.0,0.0,4.65661287308e-10,0.0,0.0,0.0,0.0,0.0,0.0,4.65661287308e-10,0.0,0.0,0.0,0.0,0.0,0.0,2.94800380276e-10
1583763060248057280,64,1583763059059198904,odom,0.585386892094,0.00179116450168,0.0,0.00376890103167,-0.0218531787573,-0.979593284521,0.200990041847,9.80100594461e-06,0.0,0.0,0.0,0.0,0.0,0.0,9.80100594461e-06,0.0,0.0,0.0,0.0,0.0,0.0,313000000.0,0.0,0.0,0.0,0.0,0.0,0.0,2.32830643654e-10,0.0,0.0,0.0,0.0,0.0,0.0,2.32830643654e-10,0.0,0.0,0.0,0.0,0.0,0.0,2.83240714252e-10
1583763060248080375,65,1583763059159198904,odom,0.606085250519,0.00182610415263,0.0,0.00291413886328,-0.0222186728,-0.986904515148,0.161305542312,9.99984331429e-06,0.0,0.0,0.0,0.0,0.0,0.0,9.99984331429e-06,0.0,0.0,0.0,0.0,0.0,0.0,314000000.0,0.0,0.0,0.0,0.0,0.0,0.0,2.32830643654e-10,0.0,0.0,0.0,0.0,0.0,0.0,2.32830643654e-10,0.0,0.0,0.0,0.0,0.0,0.0,2.88991648012e-10
1583763060248180846,66,1583763059261198904,odom,0.627190722776,0.00187342909048,0.0,0.00279193198201,-0.0224016127378,-0.987748918393,0.156051511408,1.04039208964e-05,0.0,0.0,0.0,0.0,0.0,0.0,1.04039208964e-05,0.0,0.0,0.0,0.0,0.0,0.0,315000000.0,0.0,0.0,0.0,0.0,0.0,0.0,4.65661287308e-10,0.0,0.0,0.0,0.0,0.0,0.0,4.65661287308e-10,0.0,0.0,0.0,0.0,0.0,0.0,3.00666910855e-10
1583763060248420590,67,1583763059364934999,odom,0.648660213031,0.00191032471907,0.0,0.00285268689013,-0.0227676726205,-0.987558825301,0.157250012942,1.0761199519e-05,0.0,0.0,0.0,0.0,0.0,0.0,1.0761199519e-05,0.0,0.0,0.0,0.0,0.0,0.0,316000000.0,0.0,0.0,0.0,0.0,0.0,0.0,4.65661287308e-10,0.0,0.0,0.0,0.0,0.0,0.0,4.65661287308e-10,0.0,0.0,0.0,0.0,0.0,0.0,3.10989039562e-10
1583763060248437451,68,1583763059464934999,odom,0.669338887625,0.00193828480133,0.0,0.00254728826118,-0.023072487511,-0.989689247437,0.143231258836,9.99995972961e-06,0.0,0.0,0.0,0.0,0.0,0.0,9.99995972961e-06,0.0,0.0,0.0,0.0,0.0,0.0,317000000.0,0.0,0.0,0.0,0.0,0.0,0.0,2.32830643654e-10,0.0,0.0,0.0,0.0,0.0,0.0,2.32830643654e-10,0.0,0.0,0.0,0.0,0.0,0.0,2.88991648108e-10
1583763060248525026,69,1583763059565934999,odom,0.6902480614,0.00196473913304,0.0,0.00224184613103,-0.0236227319663,-0.991719884302,0.128419901413,1.02010089904e-05,0.0,0.0,0.0,0.0,0.0,0.0,1.02010089904e-05,0.0,0.0,0.0,0.0,0.0,0.0,318000000.0,0.0,0.0,0.0,0.0,0.0,0.0,4.65661287308e-10,0.0,0.0,0.0,0.0,0.0,0.0,4.65661287308e-10,0.0,0.0,0.0,0.0,0.0,0.0,2.94800380276e-10
1583763060248595155,70,1583763059664934999,odom,0.710738934585,0.001989479636,0.0,0.00242449318347,-0.0242328623458,-0.991032394642,0.133621827447,9.80100594461e-06,0.0,0.0,0.0,0.0,0.0,0.0,9.80100594461e-06,0.0,0.0,0.0,0.0,0.0,0.0,319000000.0,0.0,0.0,0.0,0.0,0.0,0.0,2.32830643654e-10,0.0,0.0,0.0,0.0,0.0,0.0,2.32830643654e-10,0.0,0.0,0.0,0.0,0.0,0.0,2.83240714252e-10
1583763060248785116,71,1583763059763934999,odom,0.731230219372,0.00200902614201,0.0,0.00236304208563,-0.0247818127397,-0.991614607802,0.129230296733,9.80100594461e-06,0.0,0.0,0.0,0.0,0.0,0.0,9.80100594461e-06,0.0,0.0,0.0,0.0,0.0,0.0,320000000.0,0.0,0.0,0.0,0.0,0.0,0.0,2.32830643654e-10,0.0,0.0,0.0,0.0,0.0,0.0,2.32830643654e-10,0.0,0.0,0.0,0.0,0.0,0.0,2.8324071435e-10
1583763060248839758,72,1583763059864934999,odom,0.752125969427,0.00202649512454,0.0,0.00205708993536,-0.0258185296416,-0.993481665343,0.11399202002,1.02010089904e-05,0.0,0.0,0.0,0.0,0.0,0.0,1.02010089904e-05,0.0,0.0,0.0,0.0,0.0,0.0,321000000.0,0.0,0.0,0.0,0.0,0.0,0.0,4.65661287308e-10,0.0,0.0,0.0,0.0,0.0,0.0,4.65661287308e-10,0.0,0.0,0.0,0.0,0.0,0.0,2.94800380276e-10
1583763060249166610,73,1583763059963934999,odom,0.772596243125,0.00204953021845,0.0,0.00199567472437,-0.0264910084514,-0.993931228524,0.110003240698,9.80100594461e-06,0.0,0.0,0.0,0.0,0.0,0.0,9.80100594461e-06,0.0,0.0,0.0,0.0,0.0,0.0,322000000.0,0.0,0.0,0.0,0.0,0.0,0.0,2.32830643654e-10,0.0,0.0,0.0,0.0,0.0,0.0,2.32830643654e-10,0.0,0.0,0.0,0.0,0.0,0.0,2.83240714252e-10
1583763060335230868,74,1583763060063934999,odom,0.793276351376,0.00206829633604,0.0,0.00193431852915,-0.0269179138257,-0.994288272646,0.106727835534,9.99984331429e-06,0.0,0.0,0.0,0.0,0.0,0.0,9.99984331429e-06,0.0,0.0,0.0,0.0,0.0,0.0,323000000.0,0.0,0.0,0.0,0.0,0.0,0.0,2.32830643654e-10,0.0,0.0,0.0,0.0,0.0,0.0,2.32830643654e-10,0.0,0.0,0.0,0.0,0.0,0.0,2.88991648012e-10
1583763060434258892,75,1583763060163934999,odom,0.813963020842,0.00208381536111,0.0,0.00205583584239,-0.0276498654997,-0.994006947488,0.109316917017,9.99984331429e-06,0.0,0.0,0.0,0.0,0.0,0.0,9.99984331429e-06,0.0,0.0,0.0,0.0,0.0,0.0,324000000.0,0.0,0.0,0.0,0.0,0.0,0.0,2.32830643654e-10,0.0,0.0,0.0,0.0,0.0,0.0,2.32830643654e-10,0.0,0.0,0.0,0.0,0.0,0.0,2.88991648012e-10
1583763060534220557,76,1583763060264934999,odom,0.834855333032,0.0020882433308,0.0,0.00229978468503,-0.0278939679562,-0.993114057035,0.117151481934,1.02010089904e-05,0.0,0.0,0.0,0.0,0.0,0.0,1.02010089904e-05,0.0,0.0,0.0,0.0,0.0,0.0,325000000.0,0.0,0.0,0.0,0.0,0.0,0.0,4.65661287308e-10,0.0,0.0,0.0,0.0,0.0,0.0,4.65661287308e-10,0.0,0.0,0.0,0.0,0.0,0.0,2.94800380276e-10
1583763060634347196,77,1583763060363934999,odom,0.855338440772,0.00208695956164,0.0,0.00223870222233,-0.0281395858543,-0.993448409995,0.114281480028,9.80100594461e-06,0.0,0.0,0.0,0.0,0.0,0.0,9.80100594461e-06,0.0,0.0,0.0,0.0,0.0,0.0,326000000.0,0.0,0.0,0.0,0.0,0.0,0.0,2.32830643654e-10,0.0,0.0,0.0,0.0,0.0,0.0,2.32830643654e-10,0.0,0.0,0.0,0.0,0.0,0.0,2.83240714252e-10
1583763060734802204,78,1583763060464934999,odom,0.876229326027,0.00207235267902,0.0,0.00242181177052,-0.0281396960168,-0.992755545982,0.120151678817,1.02010089904e-05,0.0,0.0,0.0,0.0,0.0,0.0,1.02010089904e-05,0.0,0.0,0.0,0.0,0.0,0.0,327000000.0,0.0,0.0,0.0,0.0,0.0,0.0,4.65661287308e-10,0.0,0.0,0.0,0.0,0.0,0.0,4.65661287308e-10,0.0,0.0,0.0,0.0,0.0,0.0,2.94800380276e-10
1583763060834963721,79,1583763060563934999,odom,0.896723191702,0.00204266967397,0.0,0.0024828376327,-0.0279550661511,-0.992394814008,0.123095625961,9.80100594461e-06,0.0,0.0,0.0,0.0,0.0,0.0,9.80100594461e-06,0.0,0.0,0.0,0.0,0.0,0.0,328000000.0,0.0,0.0,0.0,0.0,0.0,0.0,2.32830643654e-10,0.0,0.0,0.0,0.0,0.0,0.0,2.32830643654e-10,0.0,0.0,0.0,0.0,0.0,0.0,2.83240714252e-10
1583763060934636543,80,1583763060663934999,odom,0.917421853248,0.0020236501374,0.0,0.00242203832674,-0.0276500933934,-0.992556828998,0.1217823518,9.99984331429e-06,0.0,0.0,0.0,0.0,0.0,0.0,9.99984331429e-06,0.0,0.0,0.0,0.0,0.0,0.0,329000000.0,0.0,0.0,0.0,0.0,0.0,0.0,2.32830643654e-10,0.0,0.0,0.0,0.0,0.0,0.0,2.32830643654e-10,0.0,0.0,0.0,0.0,0.0,0.0,2.88991648012e-10
1583763061034215090,81,1583763060764934999,odom,0.938313936892,0.00199782814854,0.0,0.00266650201775,-0.0272233244888,-0.991311196983,0.131537487948,1.02010089904e-05,0.0,0.0,0.0,0.0,0.0,0.0,1.02010089904e-05,0.0,0.0,0.0,0.0,0.0,0.0,330000000.0,0.0,0.0,0.0,0.0,0.0,0.0,4.65661287308e-10,0.0,0.0,0.0,0.0,0.0,0.0,4.65661287308e-10,0.0,0.0,0.0,0.0,0.0,0.0,2.94800380276e-10
1583763061134557563,82,1583763060863934999,odom,0.958797542351,0.00196738407033,0.0,0.00291101788165,-0.0267355481309,-0.989918667523,0.141636971478,9.80100594461e-06,0.0,0.0,0.0,0.0,0.0,0.0,9.80100594461e-06,0.0,0.0,0.0,0.0,0.0,0.0,331000000.0,0.0,0.0,0.0,0.0,0.0,0.0,2.32830643654e-10,0.0,0.0,0.0,0.0,0.0,0.0,2.32830643654e-10,0.0,0.0,0.0,0.0,0.0,0.0,2.83240714252e-10
1583763061234411026,83,1583763060963934999,odom,0.979486371928,0.00192873076451,0.0,0.00303365743375,-0.0260036971449,-0.988903925677,0.148556473371,9.99984331429e-06,0.0,0.0,0.0,0.0,0.0,0.0,9.99984331429e-06,0.0,0.0,0.0,0.0,0.0,0.0,332000000.0,0.0,0.0,0.0,0.0,0.0,0.0,2.32830643654e-10,0.0,0.0,0.0,0.0,0.0,0.0,2.32830643654e-10,0.0,0.0,0.0,0.0,0.0,0.0,2.88991648012e-10
1583763061334325349,84,1583763061064934999,odom,1.00037784283,0.00188160559447,0.0,0.00321733155645,-0.025026323335,-0.987155033799,0.159765262946,1.02010089904e-05,0.0,0.0,0.0,0.0,0.0,0.0,1.02010089904e-05,0.0,0.0,0.0,0.0,0.0,0.0,333000000.0,0.0,0.0,0.0,0.0,0.0,0.0,4.65661287308e-10,0.0,0.0,0.0,0.0,0.0,0.0,4.65661287308e-10,0.0,0.0,0.0,0.0,0.0,0.0,2.94800380276e-10
1583763061434076953,85,1583763061164934999,odom,1.02108527665,0.00183536962333,0.0,0.00364519147954,-0.0242336090994,-0.983679509253,0.179929494736,9.99984331429e-06,0.0,0.0,0.0,0.0,0.0,0.0,9.99984331429e-06,0.0,0.0,0.0,0.0,0.0,0.0,334000000.0,0.0,0.0,0.0,0.0,0.0,0.0,2.32830643654e-10,0.0,0.0,0.0,0.0,0.0,0.0,2.32830643654e-10,0.0,0.0,0.0,0.0,0.0,0.0,2.88991648108e-10
1583763061534497410,86,1583763061263934999,odom,1.04156596386,0.00178467897592,0.0,0.0038289683832,-0.0233796895942,-0.981636836184,0.190759329643,9.80100594461e-06,0.0,0.0,0.0,0.0,0.0,0.0,9.80100594461e-06,0.0,0.0,0.0,0.0,0.0,0.0,335000000.0,0.0,0.0,0.0,0.0,0.0,0.0,2.32830643654e-10,0.0,0.0,0.0,0.0,0.0,0.0,2.32830643654e-10,0.0,0.0,0.0,0.0,0.0,0.0,2.8324071435e-10
1583763061634124827,87,1583763061363934999,odom,1.06223899235,0.0017164553355,0.0,0.00413457107622,-0.0225244268562,-0.978068432158,0.208283801619,9.99984331429e-06,0.0,0.0,0.0,0.0,0.0,0.0,9.99984331429e-06,0.0,0.0,0.0,0.0,0.0,0.0,336000000.0,0.0,0.0,0.0,0.0,0.0,0.0,2.32830643654e-10,0.0,0.0,0.0,0.0,0.0,0.0,2.32830643654e-10,0.0,0.0,0.0,0.0,0.0,0.0,2.88991648012e-10
1583763061734653619,88,1583763061464934999,odom,1.08315187558,0.00164329237202,0.0,0.00468459770641,-0.0216096745742,-0.971516916257,0.23697021211,1.02010089904e-05,0.0,0.0,0.0,0.0,0.0,0.0,1.02010089904e-05,0.0,0.0,0.0,0.0,0.0,0.0,337000000.0,0.0,0.0,0.0,0.0,0.0,0.0,4.65661287308e-10,0.0,0.0,0.0,0.0,0.0,0.0,4.65661287308e-10,0.0,0.0,0.0,0.0,0.0,0.0,2.94800380276e-10
1583763061834373443,89,1583763061563934999,odom,1.10363486651,0.00155993255624,0.0,0.00474621522168,-0.0208776086305,-0.969573139412,0.244801812353,9.80100594461e-06,0.0,0.0,0.0,0.0,0.0,0.0,9.80100594461e-06,0.0,0.0,0.0,0.0,0.0,0.0,338000000.0,0.0,0.0,0.0,0.0,0.0,0.0,2.32830643654e-10,0.0,0.0,0.0,0.0,0.0,0.0,2.32830643654e-10,0.0,0.0,0.0,0.0,0.0,0.0,2.83240714252e-10
1583763061934496027,90,1583763061664934999,odom,1.12454554773,0.00146635017259,0.0,0.00492995345741,-0.0200845787757,-0.965449380721,0.260590662275,1.02010089904e-05,0.0,0.0,0.0,0.0,0.0,0.0,1.02010089904e-05,0.0,0.0,0.0,0.0,0.0,0.0,339000000.0,0.0,0.0,0.0,0.0,0.0,0.0,4.65661287308e-10,0.0,0.0,0.0,0.0,0.0,0.0,4.65661287308e-10,0.0,0.0,0.0,0.0,0.0,0.0,2.94800380276e-10
1583763062034652193,91,1583763061763934999,odom,1.14477814867,0.00137619977735,0.0,0.00517416706282,-0.0195954138766,-0.961535538203,0.27468055769,9.80100594461e-06,0.0,0.0,0.0,0.0,0.0,0.0,9.80100594461e-06,0.0,0.0,0.0,0.0,0.0,0.0,340000000.0,0.0,0.0,0.0,0.0,0.0,0.0,2.32830643654e-10,0.0,0.0,0.0,0.0,0.0,0.0,2.32830643654e-10,0.0,0.0,0.0,0.0,0.0,0.0,2.83240714252e-10
1583763062135357924,92,1583763061866934999,odom,1.16446627998,0.00127259392699,0.0,0.00499168039372,-0.0188020701556,-0.966660247844,0.256062424493,1.06091611087e-05,0.0,0.0,0.0,0.0,0.0,0.0,1.06091611087e-05,0.0,0.0,0.0,0.0,0.0,0.0,341000000.0,0.0,0.0,0.0,0.0,0.0,0.0,4.65661287308e-10,0.0,0.0,0.0,0.0,0.0,0.0,4.65661287308e-10,0.0,0.0,0.0,0.0,0.0,0.0,3.06591239552e-10
1583763062234761471,93,1583763061967217063,odom,1.18131596431,0.0011312187899,0.0,0.0043810320631,-0.0191676317932,-0.98210795399,0.188318790112,1.00566539913e-05,0.0,0.0,0.0,0.0,0.0,0.0,1.00566539913e-05,0.0,0.0,0.0,0.0,0.0,0.0,342000000.0,0.0,0.0,0.0,0.0,0.0,0.0,2.32830643654e-10,0.0,0.0,0.0,0.0,0.0,0.0,2.32830643654e-10,0.0,0.0,0.0,0.0,0.0,0.0,2.90624230204e-10
1583763062334618150,94,1583763062066217063,odom,1.19531243449,0.000967426014738,0.0,0.00474732362043,-0.0194130890898,-0.978291841754,0.207231928907,9.80100594461e-06,0.0,0.0,0.0,0.0,0.0,0.0,9.80100594461e-06,0.0,0.0,0.0,0.0,0.0,0.0,343000000.0,0.0,0.0,0.0,0.0,0.0,0.0,2.32830643654e-10,0.0,0.0,0.0,0.0,0.0,0.0,2.32830643654e-10,0.0,0.0,0.0,0.0,0.0,0.0,2.8324071435e-10
1583763062434707593,95,1583763062167217063,odom,1.2067443076,0.000834242798952,0.0,0.00523496479767,-0.0202065255793,-0.975029889294,0.222073670172,1.02010089904e-05,0.0,0.0,0.0,0.0,0.0,0.0,1.02010089904e-05,0.0,0.0,0.0,0.0,0.0,0.0,344000000.0,0.0,0.0,0.0,0.0,0.0,0.0,4.65661287308e-10,0.0,0.0,0.0,0.0,0.0,0.0,4.65661287308e-10,0.0,0.0,0.0,0.0,0.0,0.0,2.94800380276e-10
1583763062534431827,96,1583763062267217063,odom,1.21514966106,0.000733074066191,0.0,0.00511214199611,-0.021121516085,-0.980430113389,0.196867449724,9.99984331429e-06,0.0,0.0,0.0,0.0,0.0,0.0,9.99984331429e-06,0.0,0.0,0.0,0.0,0.0,0.0,345000000.0,0.0,0.0,0.0,0.0,0.0,0.0,2.32830643654e-10,0.0,0.0,0.0,0.0,0.0,0.0,2.32830643654e-10,0.0,0.0,0.0,0.0,0.0,0.0,2.88991648108e-10
1583763062634318459,97,1583763062366217063,odom,1.22058620209,0.00066053194063,0.0,0.0051726400277,-0.0217926566214,-0.97907123804,0.203517839127,9.80100594461e-06,0.0,0.0,0.0,0.0,0.0,0.0,9.80100594461e-06,0.0,0.0,0.0,0.0,0.0,0.0,346000000.0,0.0,0.0,0.0,0.0,0.0,0.0,2.32830643654e-10,0.0,0.0,0.0,0.0,0.0,0.0,2.32830643654e-10,0.0,0.0,0.0,0.0,0.0,0.0,2.8324071435e-10
1583763062734509914,98,1583763062467217063,odom,1.22344893558,0.000624230804983,0.0,0.00541659835989,-0.022404201606,-0.977467267622,0.21108704538,1.02010089904e-05,0.0,0.0,0.0,0.0,0.0,0.0,1.02010089904e-05,0.0,0.0,0.0,0.0,0.0,0.0,347000000.0,0.0,0.0,0.0,0.0,0.0,0.0,4.65661287308e-10,0.0,0.0,0.0,0.0,0.0,0.0,4.65661287308e-10,0.0,0.0,0.0,0.0,0.0,0.0,2.94800380276e-10
1583763062834960638,99,1583763062567217063,odom,1.22469054689,0.000608798250478,0.0,0.00541605011424,-0.0230752668833,-0.977731991317,0.209857459134,9.99984331429e-06,0.0,0.0,0.0,0.0,0.0,0.0,9.99984331429e-06,0.0,0.0,0.0,0.0,0.0,0.0,348000000.0,0.0,0.0,0.0,0.0,0.0,0.0,2.32830643654e-10,0.0,0.0,0.0,0.0,0.0,0.0,2.32830643654e-10,0.0,0.0,0.0,0.0,0.0,0.0,2.88991648108e-10
1583763062936117174,100,1583763062666217063,odom,1.22523227169,0.000602300165642,0.0,0.00541565083741,-0.0235632995562,-0.977822616053,0.209434790649,9.80100594461e-06,0.0,0.0,0.0,0.0,0.0,0.0,9.80100594461e-06,0.0,0.0,0.0,0.0,0.0,0.0,349000000.0,0.0,0.0,0.0,0.0,0.0,0.0,2.32830643654e-10,0.0,0.0,0.0,0.0,0.0,0.0,2.32830643654e-10,0.0,0.0,0.0,0.0,0.0,0.0,2.8324071435e-10
1583763063035708396,101,1583763062766217063,odom,1.22547917462,0.000599420195056,0.0,0.00547658101396,-0.0236853278186,-0.977658261745,0.21020067374,9.99984331429e-06,0.0,0.0,0.0,0.0,0.0,0.0,9.99984331429e-06,0.0,0.0,0.0,0.0,0.0,0.0,350000000.0,0.0,0.0,0.0,0.0,0.0,0.0,2.32830643654e-10,0.0,0.0,0.0,0.0,0.0,0.0,2.32830643654e-10,0.0,0.0,0.0,0.0,0.0,0.0,2.88991648012e-10
1583763063134593645,102,1583763062866217063,odom,1.22559140893,0.000598099686216,0.0,0.00547668209182,-0.0235633263157,-0.977516904291,0.210857064917,9.99984331429e-06,0.0,0.0,0.0,0.0,0.0,0.0,9.99984331429e-06,0.0,0.0,0.0,0.0,0.0,0.0,351000000.0,0.0,0.0,0.0,0.0,0.0,0.0,2.32830643654e-10,0.0,0.0,0.0,0.0,0.0,0.0,2.32830643654e-10,0.0,0.0,0.0,0.0,0.0,0.0,2.88991648012e-10
1583763063234413819,103,1583763062966217063,odom,1.22564322248,0.000597490918138,0.0,0.00547693445524,-0.0232583179596,-0.977156983993,0.212518772425,9.99984331429e-06,0.0,0.0,0.0,0.0,0.0,0.0,9.99984331429e-06,0.0,0.0,0.0,0.0,0.0,0.0,352000000.0,0.0,0.0,0.0,0.0,0.0,0.0,2.32830643654e-10,0.0,0.0,0.0,0.0,0.0,0.0,2.32830643654e-10,0.0,0.0,0.0,0.0,0.0,0.0,2.88991648012e-10
1583763063334581762,104,1583763063068217063,odom,1.22566713339,0.000597210222969,0.0,0.00547728691774,-0.0228312953691,-0.976636924769,0.214896061336,1.04039208964e-05,0.0,0.0,0.0,0.0,0.0,0.0,1.04039208964e-05,0.0,0.0,0.0,0.0,0.0,0.0,353000000.0,0.0,0.0,0.0,0.0,0.0,0.0,4.65661287308e-10,0.0,0.0,0.0,0.0,0.0,0.0,4.65661287308e-10,0.0,0.0,0.0,0.0,0.0,0.0,3.00666910855e-10
1583763063434652749,105,1583763063166217063,odom,1.22567673904,0.000597097528683,0.0,0.00553872372627,-0.0223432893817,-0.97542806467,0.220318157796,9.6041476354e-06,0.0,0.0,0.0,0.0,0.0,0.0,9.6041476354e-06,0.0,0.0,0.0,0.0,0.0,0.0,354000000.0,0.0,0.0,0.0,0.0,0.0,0.0,2.32830643654e-10,0.0,0.0,0.0,0.0,0.0,0.0,2.32830643654e-10,0.0,0.0,0.0,0.0,0.0,0.0,2.77547578902e-10
1583763063534673562,106,1583763063266217063,odom,1.22568071531,0.000597050893693,0.0,0.00559966788325,-0.0220369442376,-0.974402968259,0.224808486158,9.99995972961e-06,0.0,0.0,0.0,0.0,0.0,0.0,9.99995972961e-06,0.0,0.0,0.0,0.0,0.0,0.0,355000000.0,0.0,0.0,0.0,0.0,0.0,0.0,2.32830643654e-10,0.0,0.0,0.0,0.0,0.0,0.0,2.32830643654e-10,0.0,0.0,0.0,0.0,0.0,0.0,2.88991648012e-10
1583763063634422807,107,1583763063367217063,odom,1.22568231696,0.000597032112191,0.0,0.00559991851378,-0.0217319230621,-0.973962868976,0.226707586675,1.02010089904e-05,0.0,0.0,0.0,0.0,0.0,0.0,1.02010089904e-05,0.0,0.0,0.0,0.0,0.0,0.0,356000000.0,0.0,0.0,0.0,0.0,0.0,0.0,4.65661287308e-10,0.0,0.0,0.0,0.0,0.0,0.0,4.65661287308e-10,0.0,0.0,0.0,0.0,0.0,0.0,2.94800380276e-10
1583763063734578851,108,1583763063466217063,odom,1.22568294262,0.000597024777833,0.0,0.00566115068178,-0.0214879369927,-0.972956985218,0.230986373874,9.80100594461e-06,0.0,0.0,0.0,0.0,0.0,0.0,9.80100594461e-06,0.0,0.0,0.0,0.0,0.0,0.0,357000000.0,0.0,0.0,0.0,0.0,0.0,0.0,2.32830643654e-10,0.0,0.0,0.0,0.0,0.0,0.0,2.32830643654e-10,0.0,0.0,0.0,0.0,0.0,0.0,2.83240714252e-10
1583763063835397525,109,1583763063566217063,odom,1.22568319719,0.000597021793643,0.0,0.0057224831825,-0.0211219332543,-0.971709414435,0.236179622105,9.99984331429e-06,0.0,0.0,0.0,0.0,0.0,0.0,9.99984331429e-06,0.0,0.0,0.0,0.0,0.0,0.0,358000000.0,0.0,0.0,0.0,0.0,0.0,0.0,2.32830643654e-10,0.0,0.0,0.0,0.0,0.0,0.0,2.32830643654e-10,0.0,0.0,0.0,0.0,0.0,0.0,2.88991648012e-10
1583763063935038968,110,1583763063666217063,odom,1.22568329903,0.000597031307282,0.0,0.00572278294779,-0.020755885859,-0.971092484641,0.238703553123,9.99984331429e-06,0.0,0.0,0.0,0.0,0.0,0.0,9.99984331429e-06,0.0,0.0,0.0,0.0,0.0,0.0,359000000.0,0.0,0.0,0.0,0.0,0.0,0.0,2.32830643654e-10,0.0,0.0,0.0,0.0,0.0,0.0,2.32830643654e-10,0.0,0.0,0.0,0.0,0.0,0.0,2.88991648012e-10
1583763064033914383,111,1583763063766217063,odom,1.22568333975,0.00059702440574,0.0,0.00578411719843,-0.0203898725492,-0.969386347977,0.245540441384,9.99984331429e-06,0.0,0.0,0.0,0.0,0.0,0.0,9.99984331429e-06,0.0,0.0,0.0,0.0,0.0,0.0,360000000.0,0.0,0.0,0.0,0.0,0.0,0.0,2.32830643654e-10,0.0,0.0,0.0,0.0,0.0,0.0,2.32830643654e-10,0.0,0.0,0.0,0.0,0.0,0.0,2.88991648012e-10
1583763064135454444,112,1583763063866217063,odom,1.22568335604,0.000597021647563,0.0,0.00584534998242,-0.0201458663094,-0.968174556803,0.250275902872,9.99984331429e-06,0.0,0.0,0.0,0.0,0.0,0.0,9.99984331429e-06,0.0,0.0,0.0,0.0,0.0,0.0,361000000.0,0.0,0.0,0.0,0.0,0.0,0.0,2.32830643654e-10,0.0,0.0,0.0,0.0,0.0,0.0,2.32830643654e-10,0.0,0.0,0.0,0.0,0.0,0.0,2.88991648012e-10
1583763064234019381,113,1583763063966217063,odom,1.22568336255,0.000597020544201,0.0,0.00578446366121,-0.0199627903555,-0.968929718803,0.247336208472,9.99984331429e-06,0.0,0.0,0.0,0.0,0.0,0.0,9.99984331429e-06,0.0,0.0,0.0,0.0,0.0,0.0,362000000.0,0.0,0.0,0.0,0.0,0.0,0.0,2.32830643654e-10,0.0,0.0,0.0,0.0,0.0,0.0,2.32830643654e-10,0.0,0.0,0.0,0.0,0.0,0.0,2.88991648012e-10
1583763064335930265,114,1583763064067217063,odom,1.22568336518,0.000597020106142,0.0,0.00572357859346,-0.0197797190679,-0.96933426187,0.245745984228,1.02010089904e-05,0.0,0.0,0.0,0.0,0.0,0.0,1.02010089904e-05,0.0,0.0,0.0,0.0,0.0,0.0,363000000.0,0.0,0.0,0.0,0.0,0.0,0.0,4.65661287308e-10,0.0,0.0,0.0,0.0,0.0,0.0,4.65661287308e-10,0.0,0.0,0.0,0.0,0.0,0.0,2.94800380276e-10
1583763064434390767,115,1583763064167217063,odom,1.22568336621,0.000597019927244,0.0,0.00560170776003,-0.0195355966602,-0.970391646719,0.241536854284,9.99984331429e-06,0.0,0.0,0.0,0.0,0.0,0.0,9.99984331429e-06,0.0,0.0,0.0,0.0,0.0,0.0,364000000.0,0.0,0.0,0.0,0.0,0.0,0.0,2.32830643654e-10,0.0,0.0,0.0,0.0,0.0,0.0,2.32830643654e-10,0.0,0.0,0.0,0.0,0.0,0.0,2.88991648108e-10
1583763064534936208,116,1583763064267217063,odom,1.22568336662,0.000597019855681,0.0,0.00554087193049,-0.0192915110045,-0.970326833982,0.241797095215,9.99984331429e-06,0.0,0.0,0.0,0.0,0.0,0.0,9.99984331429e-06,0.0,0.0,0.0,0.0,0.0,0.0,365000000.0,0.0,0.0,0.0,0.0,0.0,0.0,2.32830643654e-10,0.0,0.0,0.0,0.0,0.0,0.0,2.32830643654e-10,0.0,0.0,0.0,0.0,0.0,0.0,2.88991648012e-10
1583763064634200241,117,1583763064366217063,odom,1.22568336678,0.00059701982684,0.0,0.00560176175595,-0.0190463269578,-0.969089026401,0.246711286545,9.80100594461e-06,0.0,0.0,0.0,0.0,0.0,0.0,9.80100594461e-06,0.0,0.0,0.0,0.0,0.0,0.0,366000000.0,0.0,0.0,0.0,0.0,0.0,0.0,2.32830643654e-10,0.0,0.0,0.0,0.0,0.0,0.0,2.32830643654e-10,0.0,0.0,0.0,0.0,0.0,0.0,2.8324071435e-10
1583763064734332077,118,1583763064473635990,odom,1.22568336685,0.000597019816245,0.0,0.00560195634759,-0.0188022741801,-0.969020664697,0.246979657847,1.15387374535e-05,0.0,0.0,0.0,0.0,0.0,0.0,1.15387374535e-05,0.0,0.0,0.0,0.0,0.0,0.0,367000000.0,0.0,0.0,0.0,0.0,0.0,0.0,4.65661287308e-10,0.0,0.0,0.0,0.0,0.0,0.0,4.65661287308e-10,0.0,0.0,0.0,0.0,0.0,0.0,3.33462430925e-10
1583763064835727863,119,1583763064573635990,odom,1.22568336688,0.000597019811301,0.0,0.00566308620897,-0.0186802859908,-0.967964090447,0.251088668809,9.99984331429e-06,0.0,0.0,0.0,0.0,0.0,0.0,9.99984331429e-06,0.0,0.0,0.0,0.0,0.0,0.0,368000000.0,0.0,0.0,0.0,0.0,0.0,0.0,2.32830643654e-10,0.0,0.0,0.0,0.0,0.0,0.0,2.32830643654e-10,0.0,0.0,0.0,0.0,0.0,0.0,2.88991648108e-10
1583763064935067148,120,1583763064673635990,odom,1.22568336689,0.000597019809323,0.0,0.00560220146499,-0.018497211615,-0.968418799129,0.24932915893,9.99984331429e-06,0.0,0.0,0.0,0.0,0.0,0.0,9.99984331429e-06,0.0,0.0,0.0,0.0,0.0,0.0,369000000.0,0.0,0.0,0.0,0.0,0.0,0.0,2.32830643654e-10,0.0,0.0,0.0,0.0,0.0,0.0,2.32830643654e-10,0.0,0.0,0.0,0.0,0.0,0.0,2.88991648012e-10
1583763065034195042,121,1583763064772635990,odom,1.22568336689,0.000597019808526,0.0,0.00566338234986,-0.0183142141813,-0.966757448211,0.255695202005,9.80100594461e-06,0.0,0.0,0.0,0.0,0.0,0.0,9.80100594461e-06,0.0,0.0,0.0,0.0,0.0,0.0,370000000.0,0.0,0.0,0.0,0.0,0.0,0.0,2.32830643654e-10,0.0,0.0,0.0,0.0,0.0,0.0,2.32830643654e-10,0.0,0.0,0.0,0.0,0.0,0.0,2.8324071435e-10
1583763065134805805,122,1583763064873635990,odom,1.22568336689,0.000597019808216,0.0,0.00566343131703,-0.0182532004302,-0.966623869273,0.256199717705,1.02010089904e-05,0.0,0.0,0.0,0.0,0.0,0.0,1.02010089904e-05,0.0,0.0,0.0,0.0,0.0,0.0,371000000.0,0.0,0.0,0.0,0.0,0.0,0.0,4.65661287308e-10,0.0,0.0,0.0,0.0,0.0,0.0,4.65661287308e-10,0.0,0.0,0.0,0.0,0.0,0.0,2.94800380276e-10
1583763065234289656,123,1583763064974635990,odom,1.22568336689,0.00059701980809,0.0,0.00560244794115,-0.0181921500952,-0.967349431629,0.253446398924,1.02010089904e-05,0.0,0.0,0.0,0.0,0.0,0.0,1.02010089904e-05,0.0,0.0,0.0,0.0,0.0,0.0,372000000.0,0.0,0.0,0.0,0.0,0.0,0.0,4.65661287308e-10,0.0,0.0,0.0,0.0,0.0,0.0,4.65661287308e-10,0.0,0.0,0.0,0.0,0.0,0.0,2.94800380276e-10
1583763065334833438,124,1583763065072635990,odom,1.22568336689,0.00059701980804,0.0,0.00554146434635,-0.0181310994473,-0.96807362675,0.250666019219,9.60403122008e-06,0.0,0.0,0.0,0.0,0.0,0.0,9.60403122008e-06,0.0,0.0,0.0,0.0,0.0,0.0,373000000.0,0.0,0.0,0.0,0.0,0.0,0.0,2.32830643654e-10,0.0,0.0,0.0,0.0,0.0,0.0,2.32830643654e-10,0.0,0.0,0.0,0.0,0.0,0.0,2.77547578902e-10
1583763065434241400,125,1583763065174635990,odom,1.22568336689,0.000597019808019,0.0,0.00554146248951,-0.0181310932575,-0.968521823129,0.248928660711,1.04040373117e-05,0.0,0.0,0.0,0.0,0.0,0.0,1.04040373117e-05,0.0,0.0,0.0,0.0,0.0,0.0,374000000.0,0.0,0.0,0.0,0.0,0.0,0.0,4.65661287308e-10,0.0,0.0,0.0,0.0,0.0,0.0,4.65661287308e-10,0.0,0.0,0.0,0.0,0.0,0.0,3.00666910855e-10
1583763065534182005,126,1583763065272635990,odom,1.22568336689,0.000597019808011,0.0,0.00554151125883,-0.0180700788756,-0.968399390299,0.249404532575,9.60403122008e-06,0.0,0.0,0.0,0.0,0.0,0.0,9.60403122008e-06,0.0,0.0,0.0,0.0,0.0,0.0,375000000.0,0.0,0.0,0.0,0.0,0.0,0.0,2.32830643654e-10,0.0,0.0,0.0,0.0,0.0,0.0,2.32830643654e-10,0.0,0.0,0.0,0.0,0.0,0.0,2.77547578902e-10
1583763065634112043,127,1583763065374635990,odom,1.22568336689,0.000597019808008,0.0,0.00560259257378,-0.0180091008022,-0.967415632258,0.25319359088,1.04040373117e-05,0.0,0.0,0.0,0.0,0.0,0.0,1.04040373117e-05,0.0,0.0,0.0,0.0,0.0,0.0,376000000.0,0.0,0.0,0.0,0.0,0.0,0.0,4.65661287308e-10,0.0,0.0,0.0,0.0,0.0,0.0,4.65661287308e-10,0.0,0.0,0.0,0.0,0.0,0.0,3.00666910855e-10
1583763065734606952,128,1583763065473635990,odom,1.22568336689,0.000597019808006,0.0,0.00554165744365,-0.0178870345218,-0.968027481753,0.250844163917,9.80088952929e-06,0.0,0.0,0.0,0.0,0.0,0.0,9.80088952929e-06,0.0,0.0,0.0,0.0,0.0,0.0,377000000.0,0.0,0.0,0.0,0.0,0.0,0.0,2.32830643654e-10,0.0,0.0,0.0,0.0,0.0,0.0,2.32830643654e-10,0.0,0.0,0.0,0.0,0.0,0.0,2.83240714252e-10
1583763065834273083,129,1583763065572635990,odom,1.22568336689,0.000597019808005,0.0,0.00554175479755,-0.0177650039524,-0.967775637328,0.251814050034,9.80088952929e-06,0.0,0.0,0.0,0.0,0.0,0.0,9.80088952929e-06,0.0,0.0,0.0,0.0,0.0,0.0,378000000.0,0.0,0.0,0.0,0.0,0.0,0.0,2.32830643654e-10,0.0,0.0,0.0,0.0,0.0,0.0,2.32830643654e-10,0.0,0.0,0.0,0.0,0.0,0.0,2.8324071435e-10
1583763065934787780,130,1583763065675635990,odom,1.22568336689,0.000597019808005,0.0,0.00548072143735,-0.0177649672924,-0.968645544603,0.248446792938,1.06090446934e-05,0.0,0.0,0.0,0.0,0.0,0.0,1.06090446934e-05,0.0,0.0,0.0,0.0,0.0,0.0,379000000.0,0.0,0.0,0.0,0.0,0.0,0.0,4.65661287308e-10,0.0,0.0,0.0,0.0,0.0,0.0,4.65661287308e-10,0.0,0.0,0.0,0.0,0.0,0.0,3.06591239552e-10
1583763066034411564,131,1583763065774635990,odom,1.22568336689,0.000597019808006,0.0,0.00541968848146,-0.0177649305665,-0.969504235495,0.245074554693,9.80112235993e-06,0.0,0.0,0.0,0.0,0.0,0.0,9.80112235993e-06,0.0,0.0,0.0,0.0,0.0,0.0,380000000.0,0.0,0.0,0.0,0.0,0.0,0.0,2.32830643654e-10,0.0,0.0,0.0,0.0,0.0,0.0,2.32830643654e-10,0.0,0.0,0.0,0.0,0.0,0.0,2.83240714252e-10
1583763066134293532,132,1583763065873635990,odom,1.22568336689,0.000597019808005,0.0,0.00554170613086,-0.0178260193367,-0.967901954379,0.251328085794,9.80088952929e-06,0.0,0.0,0.0,0.0,0.0,0.0,9.80088952929e-06,0.0,0.0,0.0,0.0,0.0,0.0,381000000.0,0.0,0.0,0.0,0.0,0.0,0.0,2.32830643654e-10,0.0,0.0,0.0,0.0,0.0,0.0,2.32830643654e-10,0.0,0.0,0.0,0.0,0.0,0.0,2.8324071435e-10
1583763066234228137,133,1583763065973635990,odom,1.22568336689,0.000597019808005,0.0,0.00554175479755,-0.0177650039524,-0.967775637328,0.251814050034,9.99995972961e-06,0.0,0.0,0.0,0.0,0.0,0.0,9.99995972961e-06,0.0,0.0,0.0,0.0,0.0,0.0,382000000.0,0.0,0.0,0.0,0.0,0.0,0.0,2.32830643654e-10,0.0,0.0,0.0,0.0,0.0,0.0,2.32830643654e-10,0.0,0.0,0.0,0.0,0.0,0.0,2.88991648012e-10
1583763066334483239,134,1583763066074635990,odom,1.22568336689,0.000597019808005,0.0,0.00554185206932,-0.0176429725892,-0.967520607935,0.252792154193,1.02010089904e-05,0.0,0.0,0.0,0.0,0.0,0.0,1.02010089904e-05,0.0,0.0,0.0,0.0,0.0,0.0,383000000.0,0.0,0.0,0.0,0.0,0.0,0.0,4.65661287308e-10,0.0,0.0,0.0,0.0,0.0,0.0,4.65661287308e-10,0.0,0.0,0.0,0.0,0.0,0.0,2.94800380276e-10
1583763066435560801,135,1583763066173635990,odom,1.22568336689,0.000597019808005,0.0,0.00560288503367,-0.0176430092244,-0.966629006036,0.256180336266,9.80100594461e-06,0.0,0.0,0.0,0.0,0.0,0.0,9.80100594461e-06,0.0,0.0,0.0,0.0,0.0,0.0,384000000.0,0.0,0.0,0.0,0.0,0.0,0.0,2.32830643654e-10,0.0,0.0,0.0,0.0,0.0,0.0,2.32830643654e-10,0.0,0.0,0.0,0.0,0.0,0.0,2.83240714252e-10
1583763066534383108,136,1583763066274635990,odom,1.22568336689,0.000597019808005,0.0,0.00560293370433,-0.0175819932677,-0.966494922587,0.256685731224,1.02010089904e-05,0.0,0.0,0.0,0.0,0.0,0.0,1.02010089904e-05,0.0,0.0,0.0,0.0,0.0,0.0,385000000.0,0.0,0.0,0.0,0.0,0.0,0.0,4.65661287308e-10,0.0,0.0,0.0,0.0,0.0,0.0,4.65661287308e-10,0.0,0.0,0.0,0.0,0.0,0.0,2.94800380276e-10
1583763066634206143,137,1583763066373635990,odom,1.22568336689,0.000597019808005,0.0,0.00560288503367,-0.0176430092244,-0.966629006036,0.256180336266,9.80100594461e-06,0.0,0.0,0.0,0.0,0.0,0.0,9.80100594461e-06,0.0,0.0,0.0,0.0,0.0,0.0,386000000.0,0.0,0.0,0.0,0.0,0.0,0.0,2.32830643654e-10,0.0,0.0,0.0,0.0,0.0,0.0,2.32830643654e-10,0.0,0.0,0.0,0.0,0.0,0.0,2.83240714252e-10
1583763066737648019,138,1583763066473635990,odom,1.22568336689,0.000597019808005,0.0,0.00560278763007,-0.0177650405459,-0.966894589952,0.255176119418,9.99984331429e-06,0.0,0.0,0.0,0.0,0.0,0.0,9.99984331429e-06,0.0,0.0,0.0,0.0,0.0,0.0,387000000.0,0.0,0.0,0.0,0.0,0.0,0.0,2.32830643654e-10,0.0,0.0,0.0,0.0,0.0,0.0,2.32830643654e-10,0.0,0.0,0.0,0.0,0.0,0.0,2.88991648012e-10
1583763066834461300,139,1583763066573635990,odom,1.22568336689,0.000597019808005,0.0,0.00554180530144,-0.0177039944141,-0.967172881521,0.254119297279,9.99984331429e-06,0.0,0.0,0.0,0.0,0.0,0.0,9.99984331429e-06,0.0,0.0,0.0,0.0,0.0,0.0,388000000.0,0.0,0.0,0.0,0.0,0.0,0.0,2.32830643654e-10,0.0,0.0,0.0,0.0,0.0,0.0,2.32830643654e-10,0.0,0.0,0.0,0.0,0.0,0.0,2.88991648012e-10
1583763066934898994,140,1583763066673635990,odom,1.22568336689,0.000597019808005,0.0,0.00554185206932,-0.0176429725892,-0.967520607935,0.252792154193,9.99984331429e-06,0.0,0.0,0.0,0.0,0.0,0.0,9.99984331429e-06,0.0,0.0,0.0,0.0,0.0,0.0,389000000.0,0.0,0.0,0.0,0.0,0.0,0.0,2.32830643654e-10,0.0,0.0,0.0,0.0,0.0,0.0,2.32830643654e-10,0.0,0.0,0.0,0.0,0.0,0.0,2.88991648012e-10
1583763067034440204,141,1583763066773635990,odom,1.22568336689,0.000597019808005,0.0,0.00554185392719,-0.0176429786128,-0.96704085393,0.254621261545,9.99984331429e-06,0.0,0.0,0.0,0.0,0.0,0.0,9.99984331429e-06,0.0,0.0,0.0,0.0,0.0,0.0,390000000.0,0.0,0.0,0.0,0.0,0.0,0.0,2.32830643654e-10,0.0,0.0,0.0,0.0,0.0,0.0,2.32830643654e-10,0.0,0.0,0.0,0.0,0.0,0.0,2.88991648012e-10
1583763067134323718,142,1583763066873635990,odom,1.22568336689,0.000597019808005,0.0,0.00554185206932,-0.0176429725892,-0.967520607935,0.252792154193,9.99984331429e-06,0.0,0.0,0.0,0.0,0.0,0.0,9.99984331429e-06,0.0,0.0,0.0,0.0,0.0,0.0,391000000.0,0.0,0.0,0.0,0.0,0.0,0.0,2.32830643654e-10,0.0,0.0,0.0,0.0,0.0,0.0,2.32830643654e-10,0.0,0.0,0.0,0.0,0.0,0.0,2.88991648012e-10
1583763067234684219,143,1583763066975635990,odom,1.22568336689,0.000597019808005,0.0,0.00554175291929,-0.0177649978211,-0.968250773912,0.249980876906,1.04039208964e-05,0.0,0.0,0.0,0.0,0.0,0.0,1.04039208964e-05,0.0,0.0,0.0,0.0,0.0,0.0,392000000.0,0.0,0.0,0.0,0.0,0.0,0.0,4.65661287308e-10,0.0,0.0,0.0,0.0,0.0,0.0,4.65661287308e-10,0.0,0.0,0.0,0.0,0.0,0.0,3.00666910855e-10
1583763067335003143,144,1583763067076732015,odom,1.22568336689,0.000597019808005,0.0,0.00560273699798,-0.0178260497569,-0.967501400235,0.252865657105,1.02204503492e-05,0.0,0.0,0.0,0.0,0.0,0.0,1.02204503492e-05,0.0,0.0,0.0,0.0,0.0,0.0,393000000.0,0.0,0.0,0.0,0.0,0.0,0.0,4.65661287308e-10,0.0,0.0,0.0,0.0,0.0,0.0,4.65661287308e-10,0.0,0.0,0.0,0.0,0.0,0.0,2.95361205227e-10
1583763067434404722,145,1583763067178732015,odom,1.22568336689,0.000597019808005,0.0,0.00560273889713,-0.0178260559094,-0.967026105285,0.25467726969,1.04040373117e-05,0.0,0.0,0.0,0.0,0.0,0.0,1.04040373117e-05,0.0,0.0,0.0,0.0,0.0,0.0,394000000.0,0.0,0.0,0.0,0.0,0.0,0.0,4.65661287308e-10,0.0,0.0,0.0,0.0,0.0,0.0,4.65661287308e-10,0.0,0.0,0.0,0.0,0.0,0.0,3.00666910758e-10
1583763067534367010,146,1583763067277732015,odom,1.22568336689,0.000597019808005,0.0,0.00554165744365,-0.0178870345218,-0.968027481753,0.250844163916,9.80088952929e-06,0.0,0.0,0.0,0.0,0.0,0.0,9.80088952929e-06,0.0,0.0,0.0,0.0,0.0,0.0,395000000.0,0.0,0.0,0.0,0.0,0.0,0.0,2.32830643654e-10,0.0,0.0,0.0,0.0,0.0,0.0,2.32830643654e-10,0.0,0.0,0.0,0.0,0.0,0.0,2.83240714252e-10
1583763067634296500,147,1583763067378732015,odom,1.22568336689,0.000597019808005,0.0,0.00554155812989,-0.0180090580766,-0.968735436426,0.248096058438,1.02010089904e-05,0.0,0.0,0.0,0.0,0.0,0.0,1.02010089904e-05,0.0,0.0,0.0,0.0,0.0,0.0,396000000.0,0.0,0.0,0.0,0.0,0.0,0.0,4.65661287308e-10,0.0,0.0,0.0,0.0,0.0,0.0,4.65661287308e-10,0.0,0.0,0.0,0.0,0.0,0.0,2.94800380276e-10
1583763067734843851,148,1583763067477732015,odom,1.22568336689,0.000597019808005,0.0,0.00560254185918,-0.0180701091285,-0.968003277013,0.250937553373,9.80100594461e-06,0.0,0.0,0.0,0.0,0.0,0.0,9.80100594461e-06,0.0,0.0,0.0,0.0,0.0,0.0,397000000.0,0.0,0.0,0.0,0.0,0.0,0.0,2.32830643654e-10,0.0,0.0,0.0,0.0,0.0,0.0,2.32830643654e-10,0.0,0.0,0.0,0.0,0.0,0.0,2.83240714252e-10
1583763067834526946,149,1583763067577732015,odom,1.22568336689,0.000597019808005,0.0,0.0055414118223,-0.0181921011583,-0.969091305176,0.246702335279,9.99984331429e-06,0.0,0.0,0.0,0.0,0.0,0.0,9.99984331429e-06,0.0,0.0,0.0,0.0,0.0,0.0,398000000.0,0.0,0.0,0.0,0.0,0.0,0.0,2.32830643654e-10,0.0,0.0,0.0,0.0,0.0,0.0,2.32830643654e-10,0.0,0.0,0.0,0.0,0.0,0.0,2.88991648012e-10
1583763067935453995,150,1583763067677732015,odom,1.22568336689,0.000597019808005,0.0,0.00548032833266,-0.0182530722511,-0.970477992658,0.241189688351,9.99984331429e-06,0.0,0.0,0.0,0.0,0.0,0.0,9.99984331429e-06,0.0,0.0,0.0,0.0,0.0,0.0,399000000.0,0.0,0.0,0.0,0.0,0.0,0.0,2.32830643654e-10,0.0,0.0,0.0,0.0,0.0,0.0,2.32830643654e-10,0.0,0.0,0.0,0.0,0.0,0.0,2.88991648012e-10
1583763068034420678,151,1583763067777732015,odom,1.22568336689,0.000597019808005,0.0,0.0055414099243,-0.0181920948122,-0.969542369917,0.244923647155,9.99984331429e-06,0.0,0.0,0.0,0.0,0.0,0.0,9.99984331429e-06,0.0,0.0,0.0,0.0,0.0,0.0,400000000.0,0.0,0.0,0.0,0.0,0.0,0.0,2.32830643654e-10,0.0,0.0,0.0,0.0,0.0,0.0,2.32830643654e-10,0.0,0.0,0.0,0.0,0.0,0.0,2.88991648012e-10
1583763068134348161,152,1583763067876732015,odom,1.22568336689,0.000597019808005,0.0,0.00560244030587,-0.0181921248456,-0.96916320839,0.246419714113,9.80100594461e-06,0.0,0.0,0.0,0.0,0.0,0.0,9.80100594461e-06,0.0,0.0,0.0,0.0,0.0,0.0,401000000.0,0.0,0.0,0.0,0.0,0.0,0.0,2.32830643654e-10,0.0,0.0,0.0,0.0,0.0,0.0,2.32830643654e-10,0.0,0.0,0.0,0.0,0.0,0.0,2.8324071435e-10
1583763068234498463,153,1583763067976732015,odom,1.22568336689,0.000597019808005,0.0,0.00560239336803,-0.0182531451726,-0.968822994439,0.247753921151,9.99984331429e-06,0.0,0.0,0.0,0.0,0.0,0.0,9.99984331429e-06,0.0,0.0,0.0,0.0,0.0,0.0,402000000.0,0.0,0.0,0.0,0.0,0.0,0.0,2.32830643654e-10,0.0,0.0,0.0,0.0,0.0,0.0,2.32830643654e-10,0.0,0.0,0.0,0.0,0.0,0.0,2.88991648012e-10
1583763068335332156,154,1583763068077732015,odom,1.22568336689,0.000597019808005,0.0,0.00560234446931,-0.0183141588818,-0.968940523975,0.247293875781,1.02010089904e-05,0.0,0.0,0.0,0.0,0.0,0.0,1.02010089904e-05,0.0,0.0,0.0,0.0,0.0,0.0,403000000.0,0.0,0.0,0.0,0.0,0.0,0.0,4.65661287308e-10,0.0,0.0,0.0,0.0,0.0,0.0,4.65661287308e-10,0.0,0.0,0.0,0.0,0.0,0.0,2.94800380276e-10
1583763068434384612,155,1583763068178732015,odom,1.22568336689,0.000597019808005,0.0,0.00560234446931,-0.0183141588818,-0.968940523975,0.247293875781,1.02010089904e-05,0.0,0.0,0.0,0.0,0.0,0.0,1.02010089904e-05,0.0,0.0,0.0,0.0,0.0,0.0,404000000.0,0.0,0.0,0.0,0.0,0.0,0.0,4.65661287308e-10,0.0,0.0,0.0,0.0,0.0,0.0,4.65661287308e-10,0.0,0.0,0.0,0.0,0.0,0.0,2.94800380276e-10
1583763068534972249,156,1583763068276732015,odom,1.22568336689,0.000597019808005,0.0,0.00560234252945,-0.0183141524248,-0.969391393803,0.245520519753,9.60403122008e-06,0.0,0.0,0.0,0.0,0.0,0.0,9.60403122008e-06,0.0,0.0,0.0,0.0,0.0,0.0,405000000.0,0.0,0.0,0.0,0.0,0.0,0.0,2.32830643654e-10,0.0,0.0,0.0,0.0,0.0,0.0,2.32830643654e-10,0.0,0.0,0.0,0.0,0.0,0.0,2.77547578902e-10
1583763068634082665,157,1583763068377732015,odom,1.22568336689,0.000597019808005,0.0,0.00566337463104,-0.0183141887622,-0.968556849209,0.248792342828,1.02010089904e-05,0.0,0.0,0.0,0.0,0.0,0.0,1.02010089904e-05,0.0,0.0,0.0,0.0,0.0,0.0,406000000.0,0.0,0.0,0.0,0.0,0.0,0.0,4.65661287308e-10,0.0,0.0,0.0,0.0,0.0,0.0,4.65661287308e-10,0.0,0.0,0.0,0.0,0.0,0.0,2.94800380276e-10
1583763068735312167,158,1583763068477732015,odom,1.22568336689,0.000597019808005,0.0,0.00566332366109,-0.0183751956772,-0.969129081313,0.246553896247,9.99984331429e-06,0.0,0.0,0.0,0.0,0.0,0.0,9.99984331429e-06,0.0,0.0,0.0,0.0,0.0,0.0,407000000.0,0.0,0.0,0.0,0.0,0.0,0.0,2.32830643654e-10,0.0,0.0,0.0,0.0,0.0,0.0,2.32830643654e-10,0.0,0.0,0.0,0.0,0.0,0.0,2.88991648108e-10
1583763068834411391,159,1583763068577732015,odom,1.22568336689,0.000597019808005,0.0,0.0057244046651,-0.018314218506,-0.96817400557,0.250278035269,9.99984331429e-06,0.0,0.0,0.0,0.0,0.0,0.0,9.99984331429e-06,0.0,0.0,0.0,0.0,0.0,0.0,408000000.0,0.0,0.0,0.0,0.0,0.0,0.0,2.32830643654e-10,0.0,0.0,0.0,0.0,0.0,0.0,2.32830643654e-10,0.0,0.0,0.0,0.0,0.0,0.0,2.88991648012e-10
1583763068934678569,160,1583763068677732015,odom,1.22568336689,0.000597019808005,0.0,0.00572440666925,-0.0183142250314,-0.967711751538,0.252059449207,9.99984331429e-06,0.0,0.0,0.0,0.0,0.0,0.0,9.99984331429e-06,0.0,0.0,0.0,0.0,0.0,0.0,409000000.0,0.0,0.0,0.0,0.0,0.0,0.0,2.32830643654e-10,0.0,0.0,0.0,0.0,0.0,0.0,2.32830643654e-10,0.0,0.0,0.0,0.0,0.0,0.0,2.88991648012e-10
