%time,field.transforms0.header.seq,field.transforms0.header.stamp,field.transforms0.header.frame_id,field.transforms0.child_frame_id,field.transforms0.transform.translation.x,field.transforms0.transform.translation.y,field.transforms0.transform.translation.z,field.transforms0.transform.rotation.x,field.transforms0.transform.rotation.y,field.transforms0.transform.rotation.z,field.transforms0.transform.rotation.w
1583763060236966222,0,1583763057659198904,odom,base_link,0.307115599675,0.000999809137927,0.0,0.00529597125769,-0.0203288667707,0.00162336047226,0.999778002641
1583763060236978843,0,1583763057796189991,odom,base_link,0.336524492711,0.00264121214897,0.0,0.0,0.0,0.00455912974604,0.999989607114
1583763060236998278,0,1583763057796189991,chassis,left_wheel,0.0,0.195,-0.09,-0.637025768732,-0.306267867424,-0.306511853892,0.637533251508,0,1583763057796189991,chassis,right_wheel,0.0,-0.225,-0.09,-0.646479528268,-0.285772735184,-0.286000394328,0.646994542326
1583763060237239137,0,1583763057739586658,vo,base_link,0.358313907149,0.041859561377,0.0,0.0,0.0,0.00149910207047,0.999998876346
1583763060237256355,0,1583763057759198904,odom,base_link,0.32858750028,0.00106525466056,0.0,0.00529572489088,-0.020633920113,0.00162335068797,0.999771754638
1583763060237614972,0,1583763057896181742,odom,base_link,0.358032495197,0.00283617724282,0.0,0.0,0.0,0.00450536085951,0.99998985081
1583763060237631036,0,1583763057896181742,chassis,left_wheel,0.0,0.195,-0.09,-0.680305091559,-0.191798902614,-0.191951698065,0.68084705255,0,1583763057896181742,chassis,right_wheel,0.0,-0.225,-0.09,-0.686017949814,-0.170238682964,-0.170374302594,0.686564461919
1583763060237651144,0,1583763057839550337,vo,base_link,0.380349679132,0.0452161691393,0.0,0.0,0.0,0.00130175903075,0.999999152711
1583763060237662481,0,1583763057859198904,odom,base_link,0.350087245237,0.00113035004418,0.0,0.0048070574321,-0.021121704455,0.00162333703719,0.999764037449
1583763060237678496,0,1583763057996177896,odom,base_link,0.37948241045,0.00302907449448,0.0,0.0,0.0,0.00448728082029,0.999989932105
1583763060237693470,0,1583763057996177896,chassis,left_wheel,0.0,0.195,-0.09,-0.703148790629,-0.0719973255207,-0.0720546817603,0.703708949916,0,1583763057996177896,chassis,right_wheel,0.0,-0.225,-0.09,-0.705064032528,-0.0498652853237,-0.0499050102056,0.705625717581
1583763060237732043,0,1583763057939995413,vo,base_link,0.400601033784,0.0514907029608,0.0,0.0,0.0,0.00146744419665,0.999998923303
1583763060237958421,0,1583763057959198904,odom,base_link,0.37156059625,0.00119471967131,0.0,0.00511188297847,-0.0215489378688,0.00162331912285,0.999753407978
1583763060238120598,0,1583763058096191668,odom,base_link,0.400976170349,0.00322308918068,0.0,0.0,0.0,0.00453900212554,0.999989698677
1583763060238135819,0,1583763058096191668,chassis,left_wheel,0.0,0.195,-0.09,-0.705052765478,0.0500243394416,0.0500641910331,0.705614441555,0,1583763058096191668,chassis,right_wheel,0.0,-0.225,-0.09,-0.703106344532,0.072410668572,0.072468354099,0.703666470005
1583763060238178892,0,1583763058040127063,vo,base_link,0.422123270829,0.0565827454013,0.0,0.0,0.0,0.00139857323247,0.999999021996
1583763060238199473,0,1583763058060198904,odom,base_link,0.393252272438,0.0012602817835,0.0,0.0050507499224,-0.021670910529,0.00174538199825,0.999750876571
1583763060238225782,0,1583763058196194789,odom,base_link,0.422498178567,0.0034203043517,0.0,0.0,0.0,0.00462412797132,0.999989308663
1583763060238236836,0,1583763058196194789,chassis,left_wheel,0.0,0.195,-0.09,-0.685920548442,0.170630706116,0.17076663805,0.686466982953,0,1583763058196194789,chassis,right_wheel,0.0,-0.225,-0.09,-0.680035256302,0.192753435329,0.192906991203,0.68057700233
1583763060238263621,0,1583763058140247643,vo,base_link,0.442883409806,0.0597214607815,0.0,0.0,0.0,0.00126242050936,0.999999203147
1583763060238286356,0,1583763058160198904,odom,base_link,0.414763391304,0.00133195233255,0.0,0.00505040304099,-0.0220979429689,0.00186743254779,0.99974131006
1583763060238308647,0,1583763058296212160,odom,base_link,0.443968868622,0.0036180774691,0.0,0.0,0.0,0.00458688594847,0.999989480183
1583763060238321591,0,1583763058296212160,chassis,left_wheel,0.0,0.195,-0.09,-0.646310797054,0.286154137234,0.28638210022,0.646825676693,0,1583763058296212160,chassis,right_wheel,0.0,-0.225,-0.09,-0.636785318294,0.30676749347,0.307011877963,0.637292609517
1583763060238363374,0,1583763058240721027,vo,base_link,0.464017199847,0.0617383225981,0.0,0.0,0.0,0.00133283974883,0.999999111769
1583763060238389836,0,1583763058259198904,odom,base_link,0.436036019651,0.00140806498327,0.0,0.00523355219399,-0.0220370523215,0.00168433653148,0.999742037361
1583763060238853566,0,1583763058396195841,odom,base_link,0.465481651767,0.00381647342195,0.0,0.0,0.0,0.0046350554543,0.999989258073
1583763060244330468,0,1583763058396195841,chassis,left_wheel,0.0,0.195,-0.09,-0.587391108518,0.393158393372,0.393471600659,0.587859050139,0,1583763058396195841,chassis,right_wheel,0.0,-0.225,-0.09,-0.574319826141,0.412017686448,0.412345917878,0.574777354603
1583763060244343060,0,1583763058340988760,vo,base_link,0.485640273649,0.06574984231,0.0,0.0,0.0,0.000855373704084,0.999999634168
1583763060244392558,0,1583763058359198904,odom,base_link,0.457534862908,0.00147507600862,0.0,0.00492814241668,-0.0223418978233,0.00162329591646,0.999736924358
1583763060244580344,0,1583763058496217361,odom,base_link,0.486940603648,0.00401433433178,0.0,0.0,0.0,0.00458508741106,0.999989488431
1583763060244598887,0,1583763058496217361,chassis,left_wheel,0.0,0.195,-0.09,-0.510971823754,0.488374479242,0.488763539856,0.511378886407,0,1583763058496217361,chassis,right_wheel,0.0,-0.225,-0.09,-0.495026748847,0.504529835164,0.504931765846,0.495421108952
1583763060244741239,0,1583763058441126898,vo,base_link,0.507256356455,0.0667466434585,0.0,0.0,0.0,0.00086408151643,0.999999626681
1583763060245896819,0,1583763058460198904,odom,base_link,0.479227484876,0.00154145463095,0.0,0.00492839130526,-0.0220368846005,0.0013181438202,0.999744141855
1583763060245907995,0,1583763058596176682,odom,base_link,0.508427236327,0.00421103560823,0.0,0.0,0.0,0.0045692132119,0.999989561091
1583763060245919325,0,1583763058596176682,chassis,left_wheel,0.0,0.195,-0.09,-0.419248482017,0.569062867328,0.569516207865,0.419582473818,0,1583763058596176682,chassis,right_wheel,0.0,-0.225,-0.09,-0.400824553768,0.582186837485,0.582650633155,0.401143868257
1583763060245933568,0,1583763058541322468,vo,base_link,0.527579642098,0.0700566602339,0.0,0.0,0.0,0.000575364112667,0.999999834478
1583763060245951534,0,1583763058559198904,odom,base_link,0.500493961417,0.00159200637132,0.0,0.00480627688972,-0.022097821643,0.00113504417227,0.999743615962
1583763060245957096,0,1583763058696199267,odom,base_link,0.529915399125,0.00440721437062,0.0,0.0,0.0,0.00456012151761,0.999989602592
1583763060245964641,0,1583763058696199267,chassis,left_wheel,0.0,0.195,-0.09,-0.315008877008,0.632748958159,0.63325303384,0.31525982695,0,1583763058696199267,chassis,right_wheel,0.0,-0.225,-0.09,-0.294641375387,0.642486028295,0.642997860955,0.29487609968
1583763060245968939,0,1583763058641482113,vo,base_link,0.547279908864,0.0780627326039,0.0,0.0,0.0,6.11522222485e-05,0.99999999813
1583763060245976116,0,1583763058659198904,odom,base_link,0.521982586378,0.00163593649895,0.0,0.00480632634237,-0.02203681831,0.00107401273445,0.999745029676
1583763060245984025,0,1583763058796192790,odom,base_link,0.551420265688,0.00460445132839,0.0,0.0,0.0,0.00461132512017,0.999989367784
1583763060245989074,0,1583763058796192790,chassis,left_wheel,0.0,0.195,-0.09,-0.201412679192,0.677521047131,0.678060790229,0.201573133401,0,1583763058796192790,chassis,right_wheel,0.0,-0.225,-0.09,-0.179428135684,0.683671983315,0.68421662652,0.179571076038
1583763060246014454,0,1583763058741636071,vo,base_link,0.568584769848,0.0776431551397,0.0,0.0,0.0,0.000493940858321,0.999999878011
1583763060246023459,0,1583763058759198904,odom,base_link,0.543481214895,0.00167760779929,0.0,0.004257268981,-0.0217314628529,0.00101298978416,0.999754266325
1583763060246086376,0,1583763058896199365,odom,base_link,0.572901100065,0.00480190337611,0.0,0.0,0.0,0.0045803938002,0.999989509941
1583763060246887806,0,1583763058896199365,chassis,left_wheel,0.0,0.195,-0.09,-0.0817399866941,0.702082909078,0.702642219237,0.0818051043666,0,1583763058896199365,chassis,right_wheel,0.0,-0.225,-0.09,-0.0591772734246,0.704343585869,0.704904696983,0.0592244166463
1583763060247451262,0,1583763058841956054,vo,base_link,0.58849142068,0.0782393870307,0.0,0.0,0.0,0.000332482386053,0.999999944728
1583763060247466703,0,1583763058859198904,odom,base_link,0.564971434006,0.00171800821343,0.0,0.00370786665635,-0.0218531411142,0.000890922545335,0.999753918825
1583763060247475931,0,1583763058996190633,odom,base_link,0.59441108501,0.00499985680159,0.0,0.0,0.0,0.00462217604507,0.999989317687
1583763060247484900,0,1583763058996190633,chassis,left_wheel,0.0,0.195,-0.09,0.040360491191,0.705671926178,0.706234095506,-0.0403926441355,0,1583763058996190633,chassis,right_wheel,0.0,-0.225,-0.09,0.0631815285993,0.70399568968,0.704556523645,-0.0632318617869
1583763060247492803,0,1583763058941972950,vo,base_link,0.609372053162,0.0802269195319,0.0,0.0,0.0,0.000541943381107,0.999999853149
1583763060247502041,0,1583763058960198904,odom,base_link,0.586687303234,0.00175280763959,0.0,0.00315851048171,-0.0219138033657,0.000951956363772,0.999754421252
1583763060247509766,0,1583763059096205829,odom,base_link,0.615911550789,0.00519871509567,0.0,0.0,0.0,0.00462654988046,0.999989297461
1583763060247519351,0,1583763059096205829,chassis,left_wheel,0.0,0.195,-0.09,0.161293005338,0.688176142476,0.688724373893,-0.161421498448,0,1583763059096205829,chassis,right_wheel,0.0,-0.225,-0.09,0.183505254355,0.682588937992,0.683132718395,-0.18365144272
1583763060247532885,0,1583763059042422378,vo,base_link,0.629405453585,0.0790351653013,0.0,0.0,0.0,0.000239125812238,0.999999971409
1583763060247540417,0,1583763059059198904,odom,base_link,0.607975681356,0.00179116450168,0.0,0.00376890103167,-0.0218531787573,0.000890923335996,0.999753689775
1583763060247551198,0,1583763059196174851,odom,base_link,0.637400454729,0.00539801055111,0.0,0.0,0.0,0.00464749350794,0.999989200344
1583763060247557723,0,1583763059196174851,chassis,left_wheel,0.0,0.195,-0.09,0.277307001466,0.650155876373,0.650673819172,-0.277527916434,0,1583763059196174851,chassis,right_wheel,0.0,-0.225,-0.09,0.298320487166,0.640786020121,0.641296498479,-0.298558142401
1583763060247676706,0,1583763059142460317,vo,base_link,0.649563134284,0.083819175754,0.0,0.0,0.0,-0.000221071788414,0.999999975564
1583763060248223335,0,1583763059159198904,odom,base_link,0.629472743789,0.00182610415263,0.0,0.00291413886328,-0.0222186728,0.00113505009446,0.999748243327
1583763060248253928,0,1583763059296200645,odom,base_link,0.658891590667,0.00559770643872,0.0,0.0,0.0,0.00464421740234,0.999989215564
1583763060248261853,0,1583763059296200645,chassis,left_wheel,0.0,0.195,-0.09,0.385108949112,0.592699699645,0.593171870323,-0.385415743857,0,1583763059296200645,chassis,right_wheel,0.0,-0.225,-0.09,0.404182010979,0.579860964927,0.580322907703,-0.404504000166
1583763060248272569,0,1583763059242817705,vo,base_link,0.670414971439,0.0820363018056,0.0,0.0,0.0,6.89700280289e-05,0.999999997622
1583763060248283801,0,1583763059261198904,odom,base_link,0.651392629679,0.00187342909048,0.0,0.00279193198201,-0.0224016127378,0.000890915391876,0.999744756992
1583763060248291906,0,1583763059396192496,odom,base_link,0.680388094766,0.00579732412853,0.0,0.0,0.0,0.00464153595345,0.999989228014
1583763060248378639,0,1583763059396192496,chassis,left_wheel,0.0,0.195,-0.09,0.481429466756,0.517520536002,0.517932815648,-0.481812994668,0,1583763059396192496,chassis,right_wheel,0.0,-0.225,-0.09,0.497997044789,0.501598225701,0.501997820933,-0.498393771163
1583763060248476112,0,1583763059343088337,vo,base_link,0.691109135867,0.0814583880149,0.0,0.0,0.0,-0.000321471926243,0.999999948328
1583763060248641391,0,1583763059364934999,odom,base_link,0.673690580217,0.00191032471907,0.0,0.00285268689013,-0.0227676726205,0.00070781134876,0.999736462406
1583763060248649536,0,1583763059496215143,odom,base_link,0.701858405304,0.00599807519652,0.0,0.0,0.0,0.00470832819242,0.999988915761
1583763060248657393,0,1583763059496215143,chassis,left_wheel,0.0,0.195,-0.09,-0.563169577824,-0.427132137937,-0.427472410205,0.563618223507,0,1583763059496215143,chassis,right_wheel,0.0,-0.225,-0.09,-0.57694698709,-0.408330761432,-0.408656055696,0.577406608464
1583763060248668004,0,1583763059443183469,vo,base_link,0.711249941003,0.0849575309286,0.0,0.0,0.0,-0.000156568063125,0.999999987743
1583763060248831439,0,1583763059464934999,odom,base_link,0.695167199263,0.00193828480133,0.0,0.00254728826118,-0.023072487511,0.000646776281874,0.999730340303
1583763060248973673,0,1583763059596188740,odom,base_link,0.723368331128,0.00619998428122,0.0,0.0,0.0,0.00467814832368,0.999989057404
1583763060249119361,0,1583763059596188740,chassis,left_wheel,0.0,0.195,-0.09,-0.628381810794,-0.323632718537,-0.323890538611,0.628882407413,0,1583763059596188740,chassis,right_wheel,0.0,-0.225,-0.09,-0.638647113542,-0.302872417049,-0.303113698553,0.639155887953
1583763060249128041,0,1583763059543381532,vo,base_link,0.731468668138,0.0798155744433,0.0,0.0,0.0,-0.000698793588674,0.999999755844
1583763060251462810,0,1583763059565934999,odom,base_link,0.716883211945,0.00196473913304,0.0,0.00224184613103,-0.0236227319663,0.000646801804005,0.999718221454
1583763060251475831,0,1583763059696218862,odom,base_link,0.744861613282,0.00640074050454,0.0,0.0,0.0,0.00466196335548,0.99998913299
1583763060251485669,0,1583763059696218862,chassis,left_wheel,0.0,0.195,-0.09,-0.674733342113,-0.210562944712,-0.210730688425,0.675270864403,0,1583763059696218862,chassis,right_wheel,0.0,-0.225,-0.09,-0.681248099727,-0.188422034971,-0.18857214026,0.68179081196
1583763060251572944,0,1583763059643713887,vo,base_link,0.751285695503,0.0844574483998,0.0,0.0,0.0,-0.000717864439965,0.999999742335
1583763060251581471,0,1583763059664934999,odom,base_link,0.73816478274,0.001989479636,0.0,0.00242449318347,-0.0242328623458,0.000524723853311,0.999703263414
1583763060251589387,0,1583763059796188510,odom,base_link,0.766355395745,0.00660095538454,0.0,0.0,0.0,0.00465274735473,0.999989175912
1583763060251616538,0,1583763059796188510,chassis,left_wheel,0.0,0.195,-0.09,-0.700915043305,-0.0912136980587,-0.0912863629069,0.701473423091,0,1583763059796188510,chassis,right_wheel,0.0,-0.225,-0.09,-0.703514926199,-0.0683270463308,-0.0683814786644,0.704075377166
1583763060251639779,0,1583763059744161537,vo,base_link,0.771349151452,0.0860888713537,0.0,0.0,0.0,-0.00089409300332,0.999999600299
1583763060251690454,0,1583763059763934999,odom,base_link,0.759446781018,0.00200902614201,0.0,0.00236304208563,-0.0247818127397,0.000463683463903,0.999689983338
1583763060251754253,0,1583763059896223115,odom,base_link,0.78784251913,0.00680099301279,0.0,0.0,0.0,0.00465660149047,0.999989157973
1583763060251762470,0,1583763059896223115,chassis,left_wheel,0.0,0.195,-0.09,-0.70615419245,0.0307911209522,0.030815650515,0.706716745973,0,1583763059896223115,chassis,right_wheel,0.0,-0.225,-0.09,-0.704774505315,0.0538027257952,0.0538455874156,0.705335959718
1583763060251779171,0,1583763059844536237,vo,base_link,0.791794551625,0.0855235564704,0.0,0.0,0.0,-0.000954749806164,0.999999544226
1583763060251800914,0,1583763059864934999,odom,base_link,0.781148851989,0.00202649512454,0.0,0.00205708993536,-0.0258185296416,0.000585734484346,0.999664358084
1583763060252008859,0,1583763059996188189,odom,base_link,0.809306391103,0.00700216606433,0.0,0.0,0.0,0.00471572541164,0.999988880905
1583763060252017373,0,1583763059996188189,chassis,left_wheel,0.0,0.195,-0.09,-0.690373096115,0.15161406533,0.15173484777,0.690923077721,0,1583763059996188189,chassis,right_wheel,0.0,-0.225,-0.09,-0.684989580204,0.174330466807,0.174469346133,0.685535273064
1583763060252031229,0,1583763059944542849,vo,base_link,0.811385291016,0.086225062628,0.0,0.0,0.0,-0.00113951471167,0.999999350753
1583763060252043626,0,1583763059963934999,odom,base_link,0.802409028407,0.00204953021845,0.0,0.00199567472437,-0.0264910084514,0.000463686879876,0.999646952053
1583763060252055300,0,1583763060096170089,odom,base_link,0.830782419543,0.00720528977035,0.0,0.0,0.0,0.00474211698752,0.9999887561
1583763060252065772,0,1583763060096170089,chassis,left_wheel,0.0,0.195,-0.09,-0.65401842003,0.268070406622,0.268283963312,0.6545394399,0,1583763060096170089,chassis,right_wheel,0.0,-0.225,-0.09,-0.644755311823,0.289641890135,0.289872631618,0.645268952294
1583763060252073157,0,1583763060044768257,vo,base_link,0.830567666656,0.0896609016805,0.0,0.0,0.0,-0.00208227273382,0.999997832068
1583763060252087202,0,1583763060063934999,odom,base_link,0.823887136431,0.00206829633604,0.0,0.00193431852915,-0.0269179138257,0.000402649205061,0.999635694741
1583763060252095843,0,1583763060196189860,odom,base_link,0.852272555472,0.00740914947979,0.0,0.0,0.0,0.00474376207822,0.999988748297
1583763060252106583,0,1583763060196189860,chassis,left_wheel,0.0,0.195,-0.09,-0.598104314319,0.376660411827,0.376960476096,0.598580790551,0,1583763060196189860,chassis,right_wheel,0.0,-0.225,-0.09,-0.58526130698,0.396321888364,0.396637615831,0.585727551907
1583763060252121429,0,1583763060144891805,vo,base_link,0.850498221727,0.0888186448696,0.0,0.0,0.0,-0.0019605693998,0.999998078082
1583763060255457012,0,1583763060163934999,odom,base_link,0.845372058854,0.00208381536111,0.0,0.00205583584239,-0.0276498654997,0.000158512370353,0.999615542772
1583763060297255354,0,1583763060296196658,chassis,left_wheel,0.0,0.195,-0.09,-0.524351932581,0.473979838647,0.474357431856,0.524769654418,0,1583763060296196658,chassis,right_wheel,0.0,-0.225,-0.09,-0.508326151989,0.491127641096,0.491518895,0.508731106984
1583763060297337563,0,1583763060296196658,odom,base_link,0.873755216822,0.0076129141265,0.0,0.0,0.0,0.00474099259951,0.999988761431
1583763060314361238,0,1583763060244996890,vo,base_link,0.870809360896,0.0946607534696,0.0,0.0,0.0,-0.00209118110564,0.999997813478
1583763060339201784,0,1583763060264934999,odom,base_link,0.867070559299,0.0020882433308,0.0,0.00229978468503,-0.0278939679562,3.64477207571e-05,0.999608241369
1583763060398225935,0,1583763060396180526,odom,base_link,0.895242047541,0.0078164140399,0.0,0.0,0.0,0.00472960226267,0.999988815369
1583763060398391701,0,1583763060396180526,chassis,left_wheel,0.0,0.195,-0.09,-0.434914893881,0.557181183929,0.557625058994,0.435261366236,0,1583763060396180526,chassis,right_wheel,0.0,-0.225,-0.09,-0.416221615662,0.571280494416,0.571735601612,0.416553196128
1583763060420303002,0,1583763060345158162,vo,base_link,0.889885090652,0.0939448314309,0.0,0.0,0.0,-0.00296527584904,0.99999560356
1583763060444007363,0,1583763060363934999,odom,base_link,0.888344064997,0.00208695956164,0.0,0.00223870222233,-0.0281395858543,-0.000268732243422,0.999601460435
1583763060497353073,0,1583763060496239664,odom,base_link,0.916731740137,0.00801967200122,0.0,0.0,0.0,0.00472847364301,0.999988820706
1583763060497905397,0,1583763060496239664,chassis,left_wheel,0.0,0.195,-0.09,-0.332496448529,0.62373708272,0.624233979144,0.33276132984,0,1583763060496239664,chassis,right_wheel,0.0,-0.225,-0.09,-0.311659950336,0.634405163914,0.634910559002,0.311908232375
1583763060518313669,0,1583763060445289112,vo,base_link,0.909514045286,0.0926079574635,0.0,0.0,0.0,-0.00270502149621,0.999996341423
1583763060539534224,0,1583763060464934999,odom,base_link,0.910041083446,0.00207235267902,0.0,0.00242181177052,-0.0281396960168,-0.000634942671539,0.999600864937
1583763060598010017,0,1583763060596218570,odom,base_link,0.93823598302,0.00822430147776,0.0,0.0,0.0,0.00478697544875,0.999988542367
1583763060598573894,0,1583763060596218570,chassis,left_wheel,0.0,0.195,-0.09,-0.220210436949,0.67164663336,0.672181696641,0.220385866279,0,1583763060596218570,chassis,right_wheel,0.0,-0.225,-0.09,-0.197570988847,0.678651266123,0.679191909604,0.197728382596
1583763060614795549,0,1583763060545319049,vo,base_link,0.928780761575,0.0932325249493,0.0,0.0,0.0,-0.00311204571155,0.999995157574
1583763060657415083,0,1583763060563934999,odom,base_link,0.931325762204,0.00204266967397,0.0,0.0024828376327,-0.0279550661511,-0.000390773300748,0.999606020935
1583763060697240210,0,1583763060696180515,chassis,left_wheel,0.0,0.195,-0.09,-0.101256747519,0.699534779497,0.700092059704,0.101337413103,0,1583763060696180515,chassis,right_wheel,0.0,-0.225,-0.09,-0.0779073400616,0.702518528588,0.703078185781,0.0779694044791
1583763060697388752,0,1583763060696180515,odom,base_link,0.95971831423,0.00842928914061,0.0,0.0,0.0,0.00475485043426,0.999988695635
1583763060720833919,0,1583763060645394029,vo,base_link,0.948377544403,0.091969200355,0.0,0.0,0.0,-0.00315419962152,0.9999950255
1583763060744285753,0,1583763060663934999,odom,base_link,0.952823139454,0.0020236501374,0.0,0.00242203832674,-0.0276500933934,-0.000512841262876,0.999614597262
1583763060797204971,0,1583763060796185810,odom,base_link,0.981198155102,0.0086331690775,0.0,0.0,0.0,0.00473651640302,0.999988782643
1583763060798329454,0,1583763060796185810,chassis,left_wheel,0.0,0.195,-0.09,0.0206740691464,0.706522766448,0.707085613593,-0.0206905390202,0,1583763060796185810,chassis,right_wheel,0.0,-0.225,-0.09,0.0440979568387,0.70544823116,0.706010222283,-0.0441330872129
1583763060821446080,0,1583763060745642001,vo,base_link,0.966684698387,0.0981266614658,0.0,0.0,0.0,-0.00404305009182,0.99999182684
1583763060838790095,0,1583763060764934999,odom,base_link,0.974521402534,0.00199782814854,0.0,0.00266650201775,-0.0272233244888,-0.000634913159051,0.999625618547
1583763060896957532,0,1583763060896178970,odom,base_link,1.00268892745,0.00883668950048,0.0,0.0,0.0,0.00473329580828,0.999988797893
1583763060897771372,0,1583763060896178970,chassis,left_wheel,0.0,0.195,-0.09,0.142011914172,0.692412054255,0.692963660186,-0.142125047116,0,1583763060896178970,chassis,right_wheel,0.0,-0.225,-0.09,0.164885477995,0.687324243564,0.68787179632,-0.165016833027
1583763060921200785,0,1583763060845771138,vo,base_link,0.986673330905,0.101442626238,0.0,0.0,0.0,-0.00409577033955,0.999991612297
1583763060939764878,0,1583763060863934999,odom,base_link,0.995795425157,0.00196738407033,0.0,0.00291101788165,-0.0267355481309,-0.000818021977078,0.999637968107
1583763060998089320,0,1583763060996190700,odom,base_link,1.02417482995,0.00903984596681,0.0,0.0,0.0,0.00472172502464,0.999988852594
1583763060998705770,0,1583763060996190700,chassis,left_wheel,0.0,0.195,-0.09,0.25910161341,0.657623137194,0.658147028741,-0.259308025164,0,1583763060996190700,chassis,right_wheel,0.0,-0.225,-0.09,0.280705101268,0.648695986396,0.649212766182,-0.280928723312
1583763061019896542,0,1583763060945901450,vo,base_link,1.00709288005,0.102898235024,0.0,0.0,0.0,-0.00487376864999,0.999988123119
1583763061051881749,0,1583763060963934999,odom,base_link,1.01728259104,0.00192873076451,0.0,0.00303365743375,-0.0260036971449,-0.00100114195445,0.999656742273
1583763061096596873,0,1583763061096193855,odom,base_link,1.04565669903,0.0092426457289,0.0,0.0,0.0,0.00471846771717,0.999988867969
1583763061097417094,0,1583763061096193855,chassis,left_wheel,0.0,0.195,-0.09,0.368416254906,0.60321745645,0.603698006036,-0.368709751517,0,1583763061096193855,chassis,right_wheel,0.0,-0.225,-0.09,0.388147492423,0.590714280148,0.591184869153,-0.388456707806
1583763061124469772,0,1583763061046109339,vo,base_link,1.02766850545,0.10442290916,0.0,0.0,0.0,-0.00445117752206,0.99999009346
1583763061139165133,0,1583763061064934999,odom,base_link,1.03898021774,0.00188160559447,0.0,0.00321733155645,-0.025026323335,-0.00100109941254,0.999681114015
1583763061198337314,0,1583763061196189513,odom,base_link,1.06717242393,0.0094471862906,0.0,0.0,0.0,0.00478777159959,0.999988538556
1583763061198652575,0,1583763061196189513,chassis,left_wheel,0.0,0.195,-0.09,0.466746068302,0.530801228681,0.531224088312,-0.467117898771,0,1583763061196189513,chassis,right_wheel,0.0,-0.225,-0.09,0.484280704149,0.514853412374,0.515263567272,-0.484666503482
1583763061216918472,0,1583763061146261241,vo,base_link,1.04703454372,0.0965187007849,0.0,0.0,0.0,-0.00557925995717,0.999984435808
1583763061241908698,0,1583763061164934999,odom,base_link,1.06048670577,0.00183536962333,0.0,0.00364519147954,-0.0242336090994,-0.00112318309942,0.999699046328
1583763061297042329,0,1583763061296191953,odom,base_link,1.08864324631,0.0096519555902,0.0,0.0,0.0,0.00474899936794,0.999988723439
1583763061297283937,0,1583763061296191953,chassis,left_wheel,0.0,0.195,-0.09,-0.551151284021,-0.442531466415,-0.442884006466,0.551590355401,0,1583763061296191953,chassis,right_wheel,0.0,-0.225,-0.09,-0.565563780635,-0.423956892477,-0.424294635205,0.566014333645
1583763061322222051,0,1583763061246649989,vo,base_link,1.06791799078,0.104112095578,0.0,0.0,0.0,-0.00558000821798,0.999984431633
1583763061358776710,0,1583763061263934999,odom,base_link,1.08175769753,0.00178467897592,0.0,0.0038289683832,-0.0233796895942,-0.00148941352818,0.99971821568
1583763061397946237,0,1583763061396164960,odom,base_link,1.11010714034,0.00985693568646,0.0,0.0,0.0,0.0048006697592,0.999988476719
1583763061398544401,0,1583763061396164960,chassis,left_wheel,0.0,0.195,-0.09,-0.618974595021,-0.341280364749,-0.341552243714,0.619467697438,0,1583763061396164960,chassis,right_wheel,0.0,-0.225,-0.09,-0.630098195662,-0.320278161085,-0.320533308771,0.630600159629
1583763061417369616,0,1583763061347031301,vo,base_link,1.08761782486,0.108389497857,0.0,0.0,0.0,-0.00605354428532,0.999981677133
1583763061453501642,0,1583763061363934999,odom,base_link,1.1032284526,0.0017164553355,0.0,0.00413457107622,-0.0225244268562,-0.00161140733853,0.999736444711
1583763061496912293,0,1583763061496183654,odom,base_link,1.13163116688,0.0100639439314,0.0,0.0,0.0,0.0048165393929,0.999988400407
1583763061497243141,0,1583763061496183654,chassis,left_wheel,0.0,0.195,-0.09,-0.668537516418,-0.229476416624,-0.229659227642,0.66907010284,0,1583763061496183654,chassis,right_wheel,0.0,-0.225,-0.09,-0.675897358062,-0.206796029967,-0.20696077279,0.676435807658
1583763061517861425,0,1583763061447420729,vo,base_link,1.10825459188,0.106308667519,0.0,0.0,0.0,-0.00650662844079,0.999978831669
1583763061551821636,0,1583763061464934999,odom,base_link,1.12494831788,0.00164329237202,0.0,0.00468459770641,-0.0216096745742,-0.00185556729524,0.999753786379
1583763061597801035,0,1583763061596197196,odom,base_link,1.15310650379,0.0102695918469,0.0,0.0,0.0,0.00475913548199,0.999988675251
1583763061599696910,0,1583763061596197196,chassis,left_wheel,0.0,0.195,-0.09,-0.698071379396,-0.110897186224,-0.110985531806,0.698627493794,0,1583763061596197196,chassis,right_wheel,0.0,-0.225,-0.09,-0.701379578002,-0.0875701102333,-0.0876398724389,0.701938327857
1583763061619037703,0,1583763061547698135,vo,base_link,1.12751785776,0.106462884771,0.0,0.0,0.0,-0.00663502862573,0.999977987955
1583763061657360123,0,1583763061563934999,odom,base_link,1.14622170226,0.00155993255624,0.0,0.00474621522168,-0.0208776086305,-0.00203869856543,0.999768694552
1583763061697007988,0,1583763061696174830,odom,base_link,1.17461722864,0.0104754276882,0.0,0.0,0.0,0.00480952272339,0.999988434179
1583763061697286918,0,1583763061696174830,chassis,left_wheel,0.0,0.195,-0.09,-0.706740646934,0.0109313592789,0.010940067681,0.707303667652,0,1583763061696174830,chassis,right_wheel,0.0,-0.225,-0.09,-0.705971489419,0.0347288463947,0.0347565129229,0.706533897393
1583763061719119146,0,1583763061647891821,vo,base_link,1.14813546432,0.104654699127,0.0,0.0,0.0,-0.00635452495109,0.999979809803
1583763061776090017,0,1583763061664934999,odom,base_link,1.16793928056,0.00146635017259,0.0,0.00492995345741,-0.0200845787757,-0.00203872941847,0.999784051101
1583763061798126345,0,1583763061796188573,odom,base_link,1.19571096561,0.0106740037636,0.0,0.0,0.0,0.00460414710343,0.999989400859
1583763061798298821,0,1583763061796188573,chassis,left_wheel,0.0,0.195,-0.09,-0.694631634199,0.130723867041,0.13082800743,0.695185008345,0,1583763061796188573,chassis,right_wheel,0.0,-0.225,-0.09,-0.690055506676,0.15305304424,0.153174973035,0.690605235276
1583763061817937106,0,1583763061748097902,vo,base_link,1.16594899429,0.108515571335,0.0,0.0,0.0,-0.00740741524253,0.999972564723
1583763061873381327,0,1583763061763934999,odom,base_link,1.18895261295,0.00137619977735,0.0,0.00517416706282,-0.0195954138766,-0.00228274591697,0.999791996778
1583763061896768824,0,1583763061896195060,odom,base_link,1.2149991989,0.0108419305458,0.0,0.0,0.0,0.00410178264679,0.999991587654
1583763061897554582,0,1583763061896195060,chassis,left_wheel,0.0,0.195,-0.09,-0.665636290287,0.237760732035,0.237950142703,0.666166565465,0,1583763061896195060,chassis,right_wheel,0.0,-0.225,-0.09,-0.658531654905,0.256783753639,0.256988318884,0.659056270217
1583763061922033560,0,1583763061848258023,vo,base_link,1.18226395478,0.111846542745,0.0,0.0,0.0,-0.00936259117684,0.999956169983
1583763061945157677,0,1583763061866934999,odom,base_link,1.20940046582,0.00127259392699,0.0,0.00499168039372,-0.0188020701556,-0.00368653484361,0.999803968159
1583763061997180926,0,1583763061996193036,odom,base_link,1.23169300974,0.0109699430558,0.0,0.0,0.0,0.00356630967539,0.999993640697
1583763061998407477,0,1583763061996193036,chassis,left_wheel,0.0,0.195,-0.09,-0.627163116354,0.325988131885,0.326247828384,0.627662742107,0,1583763061996193036,chassis,right_wheel,0.0,-0.225,-0.09,-0.618825306792,0.341550986411,0.341823080966,0.619318290279
1583763062022264558,0,1583763061948473717,vo,base_link,1.19439242293,0.109484524655,0.0,0.0,0.0,-0.00880506212992,0.999961234689
1583763062041811658,0,1583763061967217063,odom,base_link,1.22690034232,0.0011312187899,0.0,0.0043810320631,-0.0191676317932,-0.00527333740755,0.999792778711
1583763062097868421,0,1583763062096202499,odom,base_link,1.24554654925,0.0110603856233,0.0,0.0,0.0,0.00296206654604,0.999995613071
1583763062097953942,0,1583763062096202499,chassis,left_wheel,0.0,0.195,-0.09,-0.58614761836,0.395009881061,0.395324563325,0.586614569361,0,1583763062096202499,chassis,right_wheel,0.0,-0.225,-0.09,-0.57782673565,0.407084880845,0.407409182586,0.57828705787
1583763062118893568,0,1583763062048702651,vo,base_link,1.20434057984,0.108901484651,0.0,0.0,0.0,-0.00874263587486,0.999961782429
1583763062163620715,0,1583763062066217063,odom,base_link,1.24143690542,0.000967426014738,0.0,0.00474732362043,-0.0194130890898,-0.00521261447629,0.99978668902
1583763062198727583,0,1583763062196218278,odom,base_link,1.25641909556,0.0111186508755,0.0,0.0,0.0,0.00239680898597,0.999997127649
1583763062199060784,0,1583763062196218278,chassis,left_wheel,0.0,0.195,-0.09,-0.54848893942,0.445827006785,0.446182172209,0.54892588986,0,1583763062196218278,chassis,right_wheel,0.0,-0.225,-0.09,-0.540927499518,0.45497173199,0.455334182505,0.541358426182
1583763062221772001,0,1583763062148916283,vo,base_link,1.21146509114,0.109815783285,0.0,0.0,0.0,-0.00925980371056,0.999957127099
1583763062246361784,0,1583763062167217063,odom,base_link,1.2533099093,0.000834242798952,0.0,0.00523496479767,-0.0202065255793,-0.00539563318378,0.999767562291
1583763062297446038,0,1583763062296198983,odom,base_link,1.26427341532,0.0111514621976,0.0,0.0,0.0,0.0017806509089,0.99999841464
1583763062297479953,0,1583763062296198983,chassis,left_wheel,0.0,0.195,-0.09,-0.518183608753,0.480715700039,0.481098659332,0.518596416632,0,1583763062296198983,chassis,right_wheel,0.0,-0.225,-0.09,-0.512147898167,0.487141013514,0.487529091495,0.512555897734
1583763062321050270,0,1583763062249091332,vo,base_link,1.21531170299,0.104523625246,0.0,0.0,0.0,-0.00868810033426,0.999962257744
1583763062364112250,0,1583763062267217063,odom,base_link,1.26203960682,0.000733074066191,0.0,0.00511214199611,-0.021121516085,-0.00600586020002,0.999745806296
1583763062398359729,0,1583763062396188551,odom,base_link,1.26908594846,0.0111655906444,0.0,0.0,0.0,0.00115510039974,0.999999332871
1583763062398744114,0,1583763062396188551,chassis,left_wheel,0.0,0.195,-0.09,-0.498076378523,0.501519449076,0.501918981552,0.498473168098,0,1583763062396188551,chassis,right_wheel,0.0,-0.225,-0.09,-0.494002511259,0.505532744255,0.505935473899,0.494396055411
1583763062427792493,0,1583763062349317189,vo,base_link,1.21560212729,0.106127573072,0.0,0.0,0.0,-0.00831480039939,0.99996543145
1583763062439258284,0,1583763062366217063,odom,base_link,1.26768593198,0.00066053194063,0.0,0.0051726400277,-0.0217926566214,-0.00570064083367,0.999732877626
1583763062497398036,0,1583763062496194551,odom,base_link,1.27124117419,0.0111697969394,0.0,0.0,0.0,0.00079656940337,0.999999682739
1583763062497539819,0,1583763062496194551,chassis,left_wheel,0.0,0.195,-0.09,-0.488658861368,0.510699866704,0.511106712705,0.489048148533,0,1583763062496194551,chassis,right_wheel,0.0,-0.225,-0.09,-0.485801878954,0.513418319745,0.513827331385,0.486188890121
1583763062522274031,0,1583763062449523274,vo,base_link,1.2159755791,0.107161086169,0.0,0.0,0.0,-0.00807693290128,0.999967381045
1583763062562175823,0,1583763062467217063,odom,base_link,1.27065913204,0.000624230804983,0.0,0.00541659835989,-0.022404201606,-0.00570092288311,0.999718066102
1583763062598475336,0,1583763062596186816,odom,base_link,1.27217751626,0.0111711447522,0.0,0.0,0.0,0.000642874315124,0.999999793356
1583763062598572108,0,1583763062596186816,chassis,left_wheel,0.0,0.195,-0.09,-0.484518225178,0.514629892364,0.515039869197,0.48490421373,0,1583763062596186816,chassis,right_wheel,0.0,-0.225,-0.09,-0.482196012794,0.516806387238,0.517218097962,0.48258015137
1583763062621724579,0,1583763062549589733,vo,base_link,1.21549039104,0.111608919985,0.0,0.0,0.0,-0.00794972926848,0.999968400403
1583763062639760426,0,1583763062567217063,odom,base_link,1.27194865439,0.000608798250478,0.0,0.00541605011424,-0.0230752668833,-0.00557877821136,0.999703493889
1583763062697397206,0,1583763062696165504,odom,base_link,1.27259350257,0.0111716548878,0.0,0.0,0.0,0.000583452807143,0.999999829791
1583763062697990529,0,1583763062696165504,chassis,left_wheel,0.0,0.195,-0.09,-0.482684542193,0.516350142222,0.516761489481,0.483069069953,0,1583763062696165504,chassis,right_wheel,0.0,-0.225,-0.09,-0.480570370276,0.518318392359,0.518731307613,0.480953213793
1583763062717973673,0,1583763062649849839,vo,base_link,1.21541811405,0.111821055105,0.0,0.0,0.0,-0.0081168144626,0.999967058119
1583763062763181372,0,1583763062666217063,odom,base_link,1.27251128315,0.000602300165642,0.0,0.00541565083741,-0.0235632995562,-0.00545665455208,0.99969278609
1583763062798276949,0,1583763062796145898,odom,base_link,1.27278166549,0.011171869339,0.0,0.0,0.0,0.00055625665036,0.999999845289
1583763062798361869,0,1583763062796145898,chassis,left_wheel,0.0,0.195,-0.09,-0.481852529659,0.517126654028,0.51753861989,0.482236394601,0,1583763062796145898,chassis,right_wheel,0.0,-0.225,-0.09,-0.479834063964,0.519000103761,0.519413562096,0.480216320908
1583763062821276058,0,1583763062749898045,vo,base_link,1.21504991218,0.112411428142,0.0,0.0,0.0,-0.00832481998238,0.999965348086
1583763062844345502,0,1583763062766217063,odom,base_link,1.27276771353,0.000599420195056,0.0,0.00547658101396,-0.0236853278186,-0.00551766911564,0.99968923553
1583763062896958844,0,1583763062896171039,odom,base_link,1.27286766575,0.0111719640799,0.0,0.0,0.0,0.000545378187532,0.999999851281
1583763062897975471,0,1583763062896171039,chassis,left_wheel,0.0,0.195,-0.09,-0.481474652433,0.517478497823,0.51789074398,0.481858216341,0,1583763062896171039,chassis,right_wheel,0.0,-0.225,-0.09,-0.479494389631,0.519313938728,0.519727647077,0.479876375975
1583763062920405233,0,1583763062850255632,vo,base_link,1.21456615194,0.113415368,0.0,0.0,0.0,-0.00817419442665,0.999966590715
1583763062965309990,0,1583763062866217063,odom,base_link,1.27288427871,0.000598099686216,0.0,0.00547668209182,-0.0235633263157,-0.0055176855006,0.999692117981
1583763062997662533,0,1583763062996179151,odom,base_link,1.2729077316,0.0111720076351,0.0,0.0,0.0,0.000541712312988,0.999999853274
1583763062998518814,0,1583763062996179151,chassis,left_wheel,0.0,0.195,-0.09,-0.48130106101,0.517639957224,0.518052332007,0.481684486628,0,1583763062996179151,chassis,right_wheel,0.0,-0.225,-0.09,-0.47933352098,0.519462426273,0.519876252914,0.479715379169
1583763063026888365,0,1583763062950337860,vo,base_link,1.21408490103,0.115842690843,0.0,0.0,0.0,-0.00816930102576,0.999966630704
1583763063039657988,0,1583763062966217063,odom,base_link,1.27293809163,0.000597490918138,0.0,0.00547693445524,-0.0232583179596,-0.00551772513374,0.999699259049
1583763063097438772,0,1583763063096197717,odom,base_link,1.27292554712,0.0111720269108,0.0,0.0,0.0,0.000540245963169,0.999999854067
1583763063097475941,0,1583763063096197717,chassis,left_wheel,0.0,0.195,-0.09,-0.481224151955,0.517711456528,0.518123888269,0.481607516303,0,1583763063096197717,chassis,right_wheel,0.0,-0.225,-0.09,-0.479261677142,0.519528710918,0.519942590364,0.479643478097
1583763063121473260,0,1583763063050400414,vo,base_link,1.21446010818,0.113958542069,0.0,0.0,0.0,-0.00767295445208,0.999970562452
1583763063139262674,0,1583763063068217063,odom,base_link,1.2729629252,0.000597210222969,0.0,0.00547728691774,-0.0228312953691,-0.00551777958479,0.999709100383
1583763063197627641,0,1583763063196132630,odom,base_link,1.27293267333,0.0111720346064,0.0,0.0,0.0,0.000539659423241,0.999999854384
1583763063198133601,0,1583763063196132630,chassis,left_wheel,0.0,0.195,-0.09,-0.481193385359,0.517740053049,0.518152507573,0.481576725197,0,1583763063196132630,chassis,right_wheel,0.0,-0.225,-0.09,-0.47923293704,0.519555221993,0.51996912256,0.479614715099
1583763063221626783,0,1583763063150606246,vo,base_link,1.21436316003,0.114020467501,0.0,0.0,0.0,-0.00800342626764,0.999967972071
1583763063239263358,0,1583763063166217063,odom,base_link,1.27297290152,0.000597097528683,0.0,0.00553872372627,-0.0223432893817,-0.00551783863594,0.999719787448
1583763063297452244,0,1583763063296183389,odom,base_link,1.27293552381,0.0111720376823,0.0,0.0,0.0,0.000539424807269,0.99999985451
1583763063297825213,0,1583763063296183389,chassis,left_wheel,0.0,0.195,-0.09,-0.481181078244,0.517751491146,0.518163954781,0.481564408278,0,1583763063296183389,chassis,right_wheel,0.0,-0.225,-0.09,-0.479221440589,0.519565825978,0.519979734993,0.479603209489
1583763063339372871,0,1583763063250702521,vo,base_link,1.21435013667,0.111515949878,0.0,0.0,0.0,-0.0080044343166,0.999967964002
1583763063340801837,0,1583763063266217063,odom,base_link,1.27297703123,0.000597050893693,0.0,0.00559966788325,-0.0220369442376,-0.00551753151347,0.999726249357
1583763063398184917,0,1583763063396198146,chassis,left_wheel,0.0,0.195,-0.09,-0.481176155323,0.517756066303,0.518168533583,0.481559481435,0,1583763063396198146,chassis,right_wheel,0.0,-0.225,-0.09,-0.479216841943,0.519570067501,0.519983979894,0.47959860718
1583763063398202868,0,1583763063396198146,odom,base_link,1.27293666401,0.0111720389123,0.0,0.0,0.0,0.000539330960881,0.999999854561
1583763063419495187,0,1583763063350884220,vo,base_link,1.2137892058,0.110189975004,0.0,0.0,0.0,-0.0079405359634,0.999968473447
1583763063445217105,0,1583763063367217063,odom,base_link,1.27297869468,0.000597032112191,0.0,0.00559991851378,-0.0217319230621,-0.00551756841078,0.999732924771
1583763063497119823,0,1583763063496162491,odom,base_link,1.27293712008,0.0111720394042,0.0,0.0,0.0,0.000539293422325,0.999999854581
1583763063497557072,0,1583763063496162491,chassis,left_wheel,0.0,0.195,-0.09,-0.481174186142,0.517757896353,0.518170365091,0.481557510685,0,1583763063496162491,chassis,right_wheel,0.0,-0.225,-0.09,-0.479215002474,0.519571764099,0.519985677844,0.479596766245
1583763063520916502,0,1583763063451163768,vo,base_link,1.21405874794,0.111195798935,0.0,0.0,0.0,-0.00776165959817,0.999969877866
1583763063539918996,0,1583763063466217063,odom,base_link,1.27297934448,0.000597024777833,0.0,0.00566115068178,-0.0214879369927,-0.0055175956185,0.999737853677
1583763063597369431,0,1583763063596169921,odom,base_link,1.27293730252,0.011172039601,0.0,0.0,0.0,0.000539278406903,0.999999854589
1583763063597885933,0,1583763063596169921,chassis,left_wheel,0.0,0.195,-0.09,-0.481173398467,0.51775862837,0.518171097691,0.481556722383,0,1583763063596169921,chassis,right_wheel,0.0,-0.225,-0.09,-0.479214266684,0.519572442736,0.519986357022,0.47959602987
1583763063620794113,0,1583763063551369024,vo,base_link,1.21348814899,0.110162698307,0.0,0.0,0.0,-0.00785789214399,0.999969126289
1583763063640761063,0,1583763063566217063,odom,base_link,1.27297960888,0.000597021793643,0.0,0.0057224831825,-0.0211219332543,-0.00551763676277,0.999745303968
1583763063697095306,0,1583763063696211604,odom,base_link,1.27293737549,0.0111720396797,0.0,0.0,0.0,0.000539272400734,0.999999854593
1583763063697264202,0,1583763063696211604,chassis,left_wheel,0.0,0.195,-0.09,-0.481173083397,0.517758921177,0.518171390732,0.481556407062,0,1583763063696211604,chassis,right_wheel,0.0,-0.225,-0.09,-0.479213972368,0.519572714191,0.519986628692,0.479595735319
1583763063720100131,0,1583763063651610292,vo,base_link,1.21391657586,0.110398967375,0.0,0.0,0.0,-0.00811231250076,0.999967094652
1583763063746036499,0,1583763063666217063,odom,base_link,1.27297971464,0.000597031307282,0.0,0.00572278294779,-0.020755885859,-0.00551767912714,0.999752968575
1583763063798317894,0,1583763063796197848,odom,base_link,1.27293740468,0.0111720397112,0.0,0.0,0.0,0.000539269998266,0.999999854594
1583763063798336576,0,1583763063796197848,chassis,left_wheel,0.0,0.195,-0.09,-0.481172957369,0.5177590383,0.518171507947,0.481556280934,0,1583763063796197848,chassis,right_wheel,0.0,-0.225,-0.09,-0.479213854642,0.519572822773,0.519986737361,0.479595617499
1583763063818381226,0,1583763063751922877,vo,base_link,1.21328683078,0.111719775214,0.0,0.0,0.0,-0.00828521649087,0.999965677005
1583763063839961212,0,1583763063766217063,odom,base_link,1.27297975693,0.00059702440574,0.0,0.00578411719843,-0.0203898725492,-0.00545668705774,0.999760482142
1583763063896783421,0,1583763063896192827,odom,base_link,1.27293741635,0.0111720397238,0.0,0.0,0.0,0.000539269037279,0.999999854594
1583763063897238535,0,1583763063896192827,chassis,left_wheel,0.0,0.195,-0.09,-0.481172906958,0.517759085149,0.518171554834,0.481556230482,0,1583763063896192827,chassis,right_wheel,0.0,-0.225,-0.09,-0.479213807551,0.519572866205,0.519986780828,0.479595570371
1583763063931398514,0,1583763063852122307,vo,base_link,1.21348228551,0.112741384327,0.0,0.0,0.0,-0.00836083074181,0.999965047644
1583763063940413208,0,1583763063866217063,odom,base_link,1.27297977385,0.000597021647563,0.0,0.00584534998242,-0.0201458663094,-0.00545671211899,0.999765072528
1583763063997681150,0,1583763063996182318,odom,base_link,1.27293742102,0.0111720397288,0.0,0.0,0.0,0.000539268652885,0.999999854595
1583763063998288008,0,1583763063996182318,chassis,left_wheel,0.0,0.195,-0.09,-0.481172886793,0.517759103889,0.518171573588,0.481556210302,0,1583763063996182318,chassis,right_wheel,0.0,-0.225,-0.09,-0.479213788715,0.519572883578,0.519986798215,0.47959555152
1583763064024887973,0,1583763063952366118,vo,base_link,1.21322229461,0.109602310211,0.0,0.0,0.0,-0.00795318289287,0.999968372941
1583763064046517679,0,1583763063966217063,odom,base_link,1.27297978062,0.000597020544201,0.0,0.00578446366121,-0.0199627903555,-0.00551776640351,0.999768763883
1583763064097248529,0,1583763064096193950,odom,base_link,1.27293742289,0.0111720397308,0.0,0.0,0.0,0.000539268499127,0.999999854595
1583763064097529968,0,1583763064096193950,chassis,left_wheel,0.0,0.195,-0.09,-0.481172878728,0.517759111384,0.51817158109,0.48155620223,0,1583763064096193950,chassis,right_wheel,0.0,-0.225,-0.09,-0.479213781181,0.519572890528,0.51998680517,0.479595543979
1583763064122023684,0,1583763064052577011,vo,base_link,1.21288801345,0.108627700175,0.0,0.0,0.0,-0.00823715092709,0.999966074097
1583763064139025857,0,1583763064067217063,odom,base_link,1.27297978334,0.000597020106142,0.0,0.00572357859346,-0.0197797190679,-0.00551778848542,0.999772752865
1583763064197731397,0,1583763064196183525,odom,base_link,1.27293742364,0.0111720397316,0.0,0.0,0.0,0.000539268437623,0.999999854595
1583763064198989625,0,1583763064196183525,chassis,left_wheel,0.0,0.195,-0.09,-0.481172875501,0.517759114383,0.518171584091,0.481556199001,0,1583763064196183525,chassis,right_wheel,0.0,-0.225,-0.09,-0.479213778167,0.519572893307,0.519986807952,0.479595540963
1583763064228504211,0,1583763064153012888,vo,base_link,1.21311903096,0.107731893174,0.0,0.0,0.0,-0.00788302629224,0.999968928466
1583763064239156318,0,1583763064167217063,odom,base_link,1.27297978442,0.000597019927244,0.0,0.00560170776003,-0.0195355966602,-0.00551781889586,0.999778242916
1583763064297368473,0,1583763064296188535,odom,base_link,1.27293742394,0.011172039732,0.0,0.0,0.0,0.000539268413022,0.999999854595
1583763064297521081,0,1583763064296188535,chassis,left_wheel,0.0,0.195,-0.09,-0.481172874211,0.517759115582,0.518171585291,0.481556197709,0,1583763064296188535,chassis,right_wheel,0.0,-0.225,-0.09,-0.479213776961,0.519572894419,0.519986809064,0.479595539757
1583763064338554564,0,1583763064253274425,vo,base_link,1.21225705385,0.11408056705,0.0,0.0,0.0,-0.00787862830349,0.999968963126
1583763064345792610,0,1583763064267217063,odom,base_link,1.27297978484,0.000597019855681,0.0,0.00554087193049,-0.0192915110045,-0.00545681386872,0.99978365636
1583763064398307909,0,1583763064396192895,odom,base_link,1.27293742406,0.0111720397321,0.0,0.0,0.0,0.000539268403181,0.999999854595
1583763064398387269,0,1583763064396192895,chassis,left_wheel,0.0,0.195,-0.09,-0.481172873695,0.517759116062,0.518171585771,0.481556197193,0,1583763064396192895,chassis,right_wheel,0.0,-0.225,-0.09,-0.479213776479,0.519572894864,0.51998680951,0.479595539274
1583763064422087887,0,1583763064353390310,vo,base_link,1.21229372639,0.112731493575,0.0,0.0,0.0,-0.0077678184865,0.999969830043
1583763064439866095,0,1583763064366217063,odom,base_link,1.27297978501,0.00059701982684,0.0,0.00560176175595,-0.0190463269578,-0.00545649862714,0.999788019691
1583763064497188320,0,1583763064496210179,chassis,left_wheel,0.0,0.195,-0.09,-0.481172873488,0.517759116254,0.518171585963,0.481556196986,0,1583763064496210179,chassis,right_wheel,0.0,-0.225,-0.09,-0.479213776286,0.519572895042,0.519986809688,0.479595539081
1583763064497206259,0,1583763064496210179,odom,base_link,1.2729374241,0.0111720397321,0.0,0.0,0.0,0.000539268399245,0.999999854595
1583763064529332023,0,1583763064453664202,vo,base_link,1.21246637763,0.110696875941,0.0,0.0,0.0,-0.00800393613113,0.99996796799
1583763064569941051,0,1583763064473635990,odom,base_link,1.27297978509,0.000597019816245,0.0,0.00560195634759,-0.0188022741801,-0.00551755382606,0.999792303016
1583763064597557684,0,1583763064596186544,odom,base_link,1.27293742412,0.0111720397322,0.0,0.0,0.0,0.000539268397671,0.999999854595
1583763064598185390,0,1583763064596186544,chassis,left_wheel,0.0,0.195,-0.09,-0.481172873406,0.51775911633,0.51817158604,0.481556196903,0,1583763064596186544,chassis,right_wheel,0.0,-0.225,-0.09,-0.479213776209,0.519572895113,0.519986809759,0.479595539004
1583763064623327574,0,1583763064553873187,vo,base_link,1.2123294794,0.11064168719,0.0,0.0,0.0,-0.00792494373119,0.99996859714
1583763064647269443,0,1583763064573635990,odom,base_link,1.27297978511,0.000597019811301,0.0,0.00566308620897,-0.0186802859908,-0.00551756453232,0.999794245258
1583763064696729901,0,1583763064696207999,odom,base_link,1.27293742413,0.0111720397322,0.0,0.0,0.0,0.000539268397041,0.999999854595
1583763064697156728,0,1583763064696207999,chassis,left_wheel,0.0,0.195,-0.09,-0.481172873373,0.517759116361,0.518171586071,0.48155619687,0,1583763064696207999,chassis,right_wheel,0.0,-0.225,-0.09,-0.479213776178,0.519572895141,0.519986809787,0.479595538973
1583763064725465425,0,1583763064654141782,vo,base_link,1.21247814206,0.112240741896,0.0,0.0,0.0,-0.0078053174698,0.999969538046
1583763064766524444,0,1583763064673635990,odom,base_link,1.27297978512,0.000597019809323,0.0,0.00560220146499,-0.018497211615,-0.00551758527288,0.999797991973
1583763064797956594,0,1583763064796192008,odom,base_link,1.27293742413,0.0111720397322,0.0,0.0,0.0,0.000539268396789,0.999999854595
1583763064798744136,0,1583763064796192008,chassis,left_wheel,0.0,0.195,-0.09,-0.481172873359,0.517759116373,0.518171586083,0.481556196857,0,1583763064796192008,chassis,right_wheel,0.0,-0.225,-0.09,-0.479213776166,0.519572895153,0.519986809799,0.47959553896
1583763064841909776,0,1583763064754272312,vo,base_link,1.21215482619,0.108926225748,0.0,0.0,0.0,-0.00830447141018,0.999965517283
1583763064847798232,0,1583763064772635990,odom,base_link,1.27297978513,0.000597019808526,0.0,0.00566338234986,-0.0183142141813,-0.00545657147547,0.999801351013
1583763064897043029,0,1583763064896193463,odom,base_link,1.27293742414,0.0111720397322,0.0,0.0,0.0,0.000539268396688,0.999999854595
1583763064897286586,0,1583763064896193463,chassis,left_wheel,0.0,0.195,-0.09,-0.481172873354,0.517759116378,0.518171586088,0.481556196852,0,1583763064896193463,chassis,right_wheel,0.0,-0.225,-0.09,-0.479213776161,0.519572895157,0.519986809803,0.479595538955
1583763064924736456,0,1583763064854587031,vo,base_link,1.21223348325,0.112079863798,0.0,0.0,0.0,-0.00821447934749,0.999966260595
1583763064944207920,0,1583763064873635990,odom,base_link,1.27297978513,0.000597019808216,0.0,0.00566343131703,-0.0182532004302,-0.00545657757364,0.999802466481
1583763064997786072,0,1583763064996188792,odom,base_link,1.27293742414,0.0111720397322,0.0,0.0,0.0,0.000539268396648,0.999999854595
1583763064998684886,0,1583763064996188792,chassis,left_wheel,0.0,0.195,-0.09,-0.481172873352,0.51775911638,0.51817158609,0.48155619685,0,1583763064996188792,chassis,right_wheel,0.0,-0.225,-0.09,-0.479213776159,0.519572895159,0.519986809805,0.479595538954
1583763065025433743,0,1583763064954829763,vo,base_link,1.21181655341,0.11448960967,0.0,0.0,0.0,-0.00818635425317,0.999966491241
1583763065063854309,0,1583763064974635990,odom,base_link,1.27297978513,0.00059701980809,0.0,0.00560244794115,-0.0181921500952,-0.00545658556373,0.99980392274
1583763065096843446,0,1583763065096190316,odom,base_link,1.27293742414,0.0111720397322,0.0,0.0,0.0,0.000539268396632,0.999999854595
1583763065097363813,0,1583763065096190316,chassis,left_wheel,0.0,0.195,-0.09,-0.481172873351,0.517759116381,0.518171586091,0.481556196849,0,1583763065096190316,chassis,right_wheel,0.0,-0.225,-0.09,-0.479213776158,0.51957289516,0.519986809806,0.479595538953
1583763065131872704,0,1583763065054952213,vo,base_link,1.2120218497,0.114452820571,0.0,0.0,0.0,-0.00841933869225,0.99996455674
1583763065139290319,0,1583763065072635990,odom,base_link,1.27297978513,0.00059701980804,0.0,0.00554146434635,-0.0181310994473,-0.00545659351298,0.999805371556
1583763065198290866,0,1583763065196187322,odom,base_link,1.27293742414,0.0111720397322,0.0,0.0,0.0,0.000539268396625,0.999999854595
1583763065198442276,0,1583763065196187322,chassis,left_wheel,0.0,0.195,-0.09,-0.481172873351,0.517759116381,0.518171586091,0.481556196848,0,1583763065196187322,chassis,right_wheel,0.0,-0.225,-0.09,-0.479213776158,0.51957289516,0.519986809806,0.479595538952
1583763065222303261,0,1583763065155158476,vo,base_link,1.21105423792,0.114227565774,0.0,0.0,0.0,-0.0078094942001,0.999969505435
1583763065245415224,0,1583763065174635990,odom,base_link,1.27297978513,0.000597019808019,0.0,0.00554146248951,-0.0181310932575,-0.00551762424406,0.999805036731
1583763065297579318,0,1583763065296196494,chassis,left_wheel,0.0,0.195,-0.09,-0.481172873351,0.517759116382,0.518171586091,0.481556196848,0,1583763065296196494,chassis,right_wheel,0.0,-0.225,-0.09,-0.479213776158,0.51957289516,0.519986809806,0.479595538952
1583763065297633414,0,1583763065296196494,odom,base_link,1.27293742414,0.0111720397322,0.0,0.0,0.0,0.000539268396623,0.999999854595
1583763065324858224,0,1583763065255340911,vo,base_link,1.21153544986,0.110615674107,0.0,0.0,0.0,-0.00777300796241,0.999969789717
1583763065338542907,0,1583763065272635990,odom,base_link,1.27297978513,0.000597019808011,0.0,0.00554151125883,-0.0180700788756,-0.00551763034851,0.999806141038
1583763065399656746,0,1583763065396251042,odom,base_link,1.27293742414,0.0111720397322,0.0,0.0,0.0,0.000539268396622,0.999999854595
1583763065400199185,0,1583763065396251042,chassis,left_wheel,0.0,0.195,-0.09,-0.481172873351,0.517759116382,0.518171586091,0.481556196848,0,1583763065396251042,chassis,right_wheel,0.0,-0.225,-0.09,-0.479213776158,0.51957289516,0.519986809806,0.479595538952
1583763065430607327,0,1583763065355304305,vo,base_link,1.21184098445,0.111227627648,0.0,0.0,0.0,-0.00818502276921,0.99996650214
1583763065455964053,0,1583763065374635990,odom,base_link,1.27297978513,0.000597019808008,0.0,0.00560259257378,-0.0180091008022,-0.00551763452003,0.999806900833
1583763065497275782,0,1583763065496211942,odom,base_link,1.27293742414,0.0111720397322,0.0,0.0,0.0,0.000539268396621,0.999999854595
1583763065497846090,0,1583763065496211942,chassis,left_wheel,0.0,0.195,-0.09,-0.481172873351,0.517759116382,0.518171586091,0.481556196848,0,1583763065496211942,chassis,right_wheel,0.0,-0.225,-0.09,-0.479213776158,0.51957289516,0.519986809806,0.479595538952
1583763065525624882,0,1583763065455604058,vo,base_link,1.21165196226,0.110544721408,0.0,0.0,0.0,-0.00780152439521,0.999969567645
1583763065544282282,0,1583763065473635990,odom,base_link,1.27297978513,0.000597019808006,0.0,0.00554165744365,-0.0178870345218,-0.00551764853866,0.999809431634
1583763065597812083,0,1583763065596189519,odom,base_link,1.27293742414,0.0111720397322,0.0,0.0,0.0,0.000539268396621,0.999999854595
1583763065598103355,0,1583763065596189519,chassis,left_wheel,0.0,0.195,-0.09,-0.481172873351,0.517759116382,0.518171586091,0.481556196848,0,1583763065596189519,chassis,right_wheel,0.0,-0.225,-0.09,-0.479213776158,0.51957289516,0.519986809806,0.479595538952
1583763065638153895,0,1583763065555619462,vo,base_link,1.2115201467,0.110630983624,0.0,0.0,0.0,-0.00807234389047,0.999967418101
1583763065643061884,0,1583763065572635990,odom,base_link,1.27297978513,0.000597019808005,0.0,0.00554175479755,-0.0177650039524,-0.00551766056275,0.999811606759
1583763065696924630,0,1583763065696215924,odom,base_link,1.27293742414,0.0111720397322,0.0,0.0,0.0,0.000539268396621,0.999999854595
1583763065697601585,0,1583763065696215924,chassis,left_wheel,0.0,0.195,-0.09,-0.481172873351,0.517759116382,0.518171586091,0.481556196848,0,1583763065696215924,chassis,right_wheel,0.0,-0.225,-0.09,-0.479213776158,0.51957289516,0.519986809806,0.479595538952
1583763065739375076,0,1583763065655829850,vo,base_link,1.2110706078,0.109511933967,0.0,0.0,0.0,-0.0077565147746,0.999969917787
1583763065754253253,0,1583763065675635990,odom,base_link,1.27297978513,0.000597019808005,0.0,0.00548072143735,-0.0177649672924,-0.0055176624542,0.999811943833
1583763065798001814,0,1583763065796192226,chassis,left_wheel,0.0,0.195,-0.09,-0.48117287335,0.517759116382,0.518171586091,0.481556196848,0,1583763065796192226,chassis,right_wheel,0.0,-0.225,-0.09,-0.479213776158,0.51957289516,0.519986809806,0.479595538952
1583763065798074969,0,1583763065796192226,odom,base_link,1.27293742414,0.0111720397322,0.0,0.0,0.0,0.000539268396621,0.999999854595
1583763065839090942,0,1583763065756026572,vo,base_link,1.21110914233,0.110051217835,0.0,0.0,0.0,-0.00760263424184,0.999971099559
1583763065847735475,0,1583763065774635990,odom,base_link,1.27297978513,0.000597019808006,0.0,0.00541968848146,-0.0177649305665,-0.00551766432509,0.99981227718
1583763065897334431,0,1583763065896221405,odom,base_link,1.27293742414,0.0111720397322,0.0,0.0,0.0,0.000539268396621,0.999999854595
1583763065897858512,0,1583763065896221405,chassis,left_wheel,0.0,0.195,-0.09,-0.48117287335,0.517759116382,0.518171586091,0.481556196848,0,1583763065896221405,chassis,right_wheel,0.0,-0.225,-0.09,-0.479213776158,0.51957289516,0.519986809806,0.479595538952
1583763065943161983,0,1583763065873635990,odom,base_link,1.27297978513,0.000597019808005,0.0,0.00554170613086,-0.0178260193367,-0.00551765456097,0.999810521057
1583763065943273434,0,1583763065856024389,vo,base_link,1.21064683753,0.108755227585,0.0,0.0,0.0,-0.00770864787813,0.999970287933
1583763065997007870,0,1583763065996179736,odom,base_link,1.27293742414,0.0111720397322,0.0,0.0,0.0,0.000539268396621,0.999999854595
1583763065998496753,0,1583763065996179736,chassis,left_wheel,0.0,0.195,-0.09,-0.48117287335,0.517759116382,0.518171586091,0.481556196848,0,1583763065996179736,chassis,right_wheel,0.0,-0.225,-0.09,-0.479213776158,0.51957289516,0.519986809806,0.479595538952
1583763066039801659,0,1583763065973635990,odom,base_link,1.27297978513,0.000597019808005,0.0,0.00554175479755,-0.0177650039524,-0.00551766056275,0.999811606759
1583763066039933071,0,1583763065956333326,vo,base_link,1.21088084929,0.110308603737,0.0,0.0,0.0,-0.00823053058345,0.99996612861
1583763066097209328,0,1583763066096217499,odom,base_link,1.27293742414,0.0111720397322,0.0,0.0,0.0,0.000539268396621,0.999999854595
1583763066097538275,0,1583763066096217499,chassis,left_wheel,0.0,0.195,-0.09,-0.48117287335,0.517759116382,0.518171586091,0.481556196848,0,1583763066096217499,chassis,right_wheel,0.0,-0.225,-0.09,-0.479213776158,0.51957289516,0.519986809806,0.479595538952
1583763066126288639,0,1583763066056393178,vo,base_link,1.21027227559,0.109948762366,0.0,0.0,0.0,-0.00770537111706,0.999970313187
1583763066174940531,0,1583763066074635990,odom,base_link,1.27297978513,0.000597019808005,0.0,0.00554185206932,-0.0176429725892,-0.00551767250469,0.999813767001
1583763066197539348,0,1583763066196178138,odom,base_link,1.27293742414,0.0111720397322,0.0,0.0,0.0,0.000539268396621,0.999999854595
1583763066198261632,0,1583763066196178138,chassis,left_wheel,0.0,0.195,-0.09,-0.48117287335,0.517759116382,0.518171586091,0.481556196848,0,1583763066196178138,chassis,right_wheel,0.0,-0.225,-0.09,-0.479213776158,0.51957289516,0.519986809806,0.479595538952
1583763066241060677,0,1583763066173635990,odom,base_link,1.27297978513,0.000597019808005,0.0,0.00560288503367,-0.0176430092244,-0.0055176705929,0.999813426203
1583763066244327652,0,1583763066156434916,vo,base_link,1.20992922151,0.109882862922,0.0,0.0,0.0,-0.00750550922556,0.999971833269
1583763066297929928,0,1583763066296197844,odom,base_link,1.27293742414,0.0111720397322,0.0,0.0,0.0,0.000539268396621,0.999999854595
1583763066297995819,0,1583763066296197844,chassis,left_wheel,0.0,0.195,-0.09,-0.48117287335,0.517759116382,0.518171586091,0.481556196848,0,1583763066296197844,chassis,right_wheel,0.0,-0.225,-0.09,-0.479213776158,0.51957289516,0.519986809806,0.479595538952
1583763066330416621,0,1583763066256585575,vo,base_link,1.21028120134,0.112796603439,0.0,0.0,0.0,-0.0078527689733,0.999969166534
1583763066369184784,0,1583763066274635990,odom,base_link,1.27297978513,0.000597019808005,0.0,0.00560293370433,-0.0175819932677,-0.00551767653317,0.999814500741
1583763066397362844,0,1583763066396168688,odom,base_link,1.27293742414,0.0111720397322,0.0,0.0,0.0,0.000539268396621,0.999999854595
1583763066397467651,0,1583763066396168688,chassis,left_wheel,0.0,0.195,-0.09,-0.48117287335,0.517759116382,0.518171586091,0.481556196848,0,1583763066396168688,chassis,right_wheel,0.0,-0.225,-0.09,-0.479213776158,0.51957289516,0.519986809806,0.479595538952
1583763066438660822,0,1583763066356648931,vo,base_link,1.21026066269,0.11003251425,0.0,0.0,0.0,-0.00768511719019,0.999970469051
1583763066447586176,0,1583763066373635990,odom,base_link,1.27297978513,0.000597019808005,0.0,0.00560288503367,-0.0176430092244,-0.0055176705929,0.999813426203
1583763066496827789,0,1583763066496214800,odom,base_link,1.27293742414,0.0111720397322,0.0,0.0,0.0,0.000539268396621,0.999999854595
1583763066497204829,0,1583763066496214800,chassis,left_wheel,0.0,0.195,-0.09,-0.48117287335,0.517759116382,0.518171586091,0.481556196848,0,1583763066496214800,chassis,right_wheel,0.0,-0.225,-0.09,-0.479213776158,0.51957289516,0.519986809806,0.479595538952
