%time,field.header.seq,field.header.stamp,field.header.frame_id,field.pose.pose.position.x,field.pose.pose.position.y,field.pose.pose.position.z,field.pose.pose.orientation.x,field.pose.pose.orientation.y,field.pose.pose.orientation.z,field.pose.pose.orientation.w,field.pose.covariance0,field.pose.covariance1,field.pose.covariance2,field.pose.covariance3,field.pose.covariance4,field.pose.covariance5,field.pose.covariance6,field.pose.covariance7,field.pose.covariance8,field.pose.covariance9,field.pose.covariance10,field.pose.covariance11,field.pose.covariance12,field.pose.covariance13,field.pose.covariance14,field.pose.covariance15,field.pose.covariance16,field.pose.covariance17,field.pose.covariance18,field.pose.covariance19,field.pose.covariance20,field.pose.covariance21,field.pose.covariance22,field.pose.covariance23,field.pose.covariance24,field.pose.covariance25,field.pose.covariance26,field.pose.covariance27,field.pose.covariance28,field.pose.covariance29,field.pose.covariance30,field.pose.covariance31,field.pose.covariance32,field.pose.covariance33,field.pose.covariance34,field.pose.covariance35
1583763060237564828,229,1583763050743227987,odom,0.0,0.0,0.0,0.00388860045974,-0.025148739469,3.63179040696e-05,0.999676156748,9.99984331429e-06,0.0,0.0,0.0,0.0,0.0,0.0,9.99984331429e-06,0.0,0.0,0.0,0.0,0.0,0.0,230000000.0,0.0,0.0,0.0,0.0,0.0,0.0,2.32830643654e-10,0.0,0.0,0.0,0.0,0.0,0.0,2.32830643654e-10,0.0,0.0,0.0,0.0,0.0,0.0,2.88991648012e-10
1583763060237628699,230,1583763050843227987,odom,0.0,0.0,0.0,0.00388860042259,-0.0251487395227,9.73501554551e-05,0.999676152667,9.99984331429e-06,0.0,0.0,0.0,0.0,0.0,0.0,9.99984331429e-06,0.0,0.0,0.0,0.0,0.0,0.0,231000000.0,0.0,0.0,0.0,0.0,0.0,0.0,2.32830643654e-10,0.0,0.0,0.0,0.0,0.0,0.0,2.32830643654e-10,0.0,0.0,0.0,0.0,0.0,0.0,2.88991648012e-10
1583763060237646770,231,1583763050943227987,odom,0.0,0.0,0.0,0.00382756736888,-0.0251487028123,9.73501340775e-05,0.999676389137,9.99984331429e-06,0.0,0.0,0.0,0.0,0.0,0.0,9.99984331429e-06,0.0,0.0,0.0,0.0,0.0,0.0,232000000.0,0.0,0.0,0.0,0.0,0.0,0.0,2.32830643654e-10,0.0,0.0,0.0,0.0,0.0,0.0,2.32830643654e-10,0.0,0.0,0.0,0.0,0.0,0.0,2.88991648012e-10
1583763060237688920,232,1583763051043227987,odom,0.0,0.0,0.0,0.00382756736888,-0.0251487028123,9.73501340775e-05,0.999676389137,9.99984331429e-06,0.0,0.0,0.0,0.0,0.0,0.0,9.99984331429e-06,0.0,0.0,0.0,0.0,0.0,0.0,233000000.0,0.0,0.0,0.0,0.0,0.0,0.0,2.32830643654e-10,0.0,0.0,0.0,0.0,0.0,0.0,2.32830643654e-10,0.0,0.0,0.0,0.0,0.0,0.0,2.88991648012e-10
1583763060237707994,233,1583763051143227987,odom,0.0,0.0,0.0,0.00382761589547,-0.0250877072969,9.7350276579e-05,0.999677921544,9.99984331429e-06,0.0,0.0,0.0,0.0,0.0,0.0,9.99984331429e-06,0.0,0.0,0.0,0.0,0.0,0.0,234000000.0,0.0,0.0,0.0,0.0,0.0,0.0,2.32830643654e-10,0.0,0.0,0.0,0.0,0.0,0.0,2.32830643654e-10,0.0,0.0,0.0,0.0,0.0,0.0,2.88991648012e-10
1583763060237901904,234,1583763051243227987,odom,0.0,0.0,0.0,0.00382761593263,-0.0250877072434,3.63179171956e-05,0.999677925625,9.99984331429e-06,0.0,0.0,0.0,0.0,0.0,0.0,9.99984331429e-06,0.0,0.0,0.0,0.0,0.0,0.0,235000000.0,0.0,0.0,0.0,0.0,0.0,0.0,2.32830643654e-10,0.0,0.0,0.0,0.0,0.0,0.0,2.32830643654e-10,0.0,0.0,0.0,0.0,0.0,0.0,2.88991648012e-10
1583763060237919215,235,1583763051343227987,odom,0.0,0.0,0.0,0.00376663116166,-0.0250266746154,3.63179302671e-05,0.999679687064,9.99984331429e-06,0.0,0.0,0.0,0.0,0.0,0.0,9.99984331429e-06,0.0,0.0,0.0,0.0,0.0,0.0,236000000.0,0.0,0.0,0.0,0.0,0.0,0.0,2.32830643654e-10,0.0,0.0,0.0,0.0,0.0,0.0,2.32830643654e-10,0.0,0.0,0.0,0.0,0.0,0.0,2.88991648012e-10
1583763060238830178,236,1583763051444227987,odom,0.0,0.0,0.0,0.00382766444501,-0.0250267114479,3.63179659996e-05,0.999679454315,1.02010089904e-05,0.0,0.0,0.0,0.0,0.0,0.0,1.02010089904e-05,0.0,0.0,0.0,0.0,0.0,0.0,237000000.0,0.0,0.0,0.0,0.0,0.0,0.0,4.65661287308e-10,0.0,0.0,0.0,0.0,0.0,0.0,4.65661287308e-10,0.0,0.0,0.0,0.0,0.0,0.0,2.94800380276e-10
1583763060239457642,237,1583763051544227987,odom,0.0,0.0,0.0,0.00382766444501,-0.0250267114479,3.63179659995e-05,0.999679454315,9.99984331429e-06,0.0,0.0,0.0,0.0,0.0,0.0,9.99984331429e-06,0.0,0.0,0.0,0.0,0.0,0.0,238000000.0,0.0,0.0,0.0,0.0,0.0,0.0,2.32830643654e-10,0.0,0.0,0.0,0.0,0.0,0.0,2.32830643654e-10,0.0,0.0,0.0,0.0,0.0,0.0,2.88991648108e-10
1583763060239826433,238,1583763051647227987,odom,0.0,0.0,0.0,0.00376663116166,-0.0250266746154,3.63179302672e-05,0.999679687064,1.06091611087e-05,0.0,0.0,0.0,0.0,0.0,0.0,1.06091611087e-05,0.0,0.0,0.0,0.0,0.0,0.0,239000000.0,0.0,0.0,0.0,0.0,0.0,0.0,4.65661287308e-10,0.0,0.0,0.0,0.0,0.0,0.0,4.65661287308e-10,0.0,0.0,0.0,0.0,0.0,0.0,3.06591239552e-10
1583763060239987924,239,1583763051749411989,odom,0.0,0.0,0.0,0.00370559762673,-0.0250266375432,-2.47145862103e-05,0.999679916448,1.04415230453e-05,0.0,0.0,0.0,0.0,0.0,0.0,1.04415230453e-05,0.0,0.0,0.0,0.0,0.0,0.0,240000000.0,0.0,0.0,0.0,0.0,0.0,0.0,4.65661287308e-10,0.0,0.0,0.0,0.0,0.0,0.0,4.65661287308e-10,0.0,0.0,0.0,0.0,0.0,0.0,3.0175265996e-10
1583763060241680095,240,1583763051849411989,odom,0.0,0.0,0.0,0.00370559762673,-0.0250266375432,-2.47145862102e-05,0.999679916448,9.99995972961e-06,0.0,0.0,0.0,0.0,0.0,0.0,9.99995972961e-06,0.0,0.0,0.0,0.0,0.0,0.0,241000000.0,0.0,0.0,0.0,0.0,0.0,0.0,2.32830643654e-10,0.0,0.0,0.0,0.0,0.0,0.0,2.32830643654e-10,0.0,0.0,0.0,0.0,0.0,0.0,2.88991648108e-10
1583763060241745949,241,1583763051949411989,odom,0.0,0.0,0.0,0.00376663116166,-0.0250266746154,3.6317930248e-05,0.999679687064,9.99995972961e-06,0.0,0.0,0.0,0.0,0.0,0.0,9.99995972961e-06,0.0,0.0,0.0,0.0,0.0,0.0,242000000.0,0.0,0.0,0.0,0.0,0.0,0.0,2.32830643654e-10,0.0,0.0,0.0,0.0,0.0,0.0,2.32830643654e-10,0.0,0.0,0.0,0.0,0.0,0.0,2.88991648012e-10
1583763060241894256,242,1583763052050411989,odom,0.0,0.0,0.0,0.00376653430964,-0.0251486659547,3.63178322877e-05,0.999676625965,1.02010089904e-05,0.0,0.0,0.0,0.0,0.0,0.0,1.02010089904e-05,0.0,0.0,0.0,0.0,0.0,0.0,243000000.0,0.0,0.0,0.0,0.0,0.0,0.0,4.65661287308e-10,0.0,0.0,0.0,0.0,0.0,0.0,4.65661287308e-10,0.0,0.0,0.0,0.0,0.0,0.0,2.94800380276e-10
1583763060242029481,243,1583763052149411989,odom,0.0,0.0,0.0,0.00382756740615,-0.0251487027587,3.63178682364e-05,0.999676393218,9.80100594461e-06,0.0,0.0,0.0,0.0,0.0,0.0,9.80100594461e-06,0.0,0.0,0.0,0.0,0.0,0.0,244000000.0,0.0,0.0,0.0,0.0,0.0,0.0,2.32830643654e-10,0.0,0.0,0.0,0.0,0.0,0.0,2.32830643654e-10,0.0,0.0,0.0,0.0,0.0,0.0,2.83240714252e-10
1583763060242892384,244,1583763052250411989,odom,0.0,0.0,0.0,0.00382751886556,-0.0252096979932,3.63178191612e-05,0.999674857095,1.02010089904e-05,0.0,0.0,0.0,0.0,0.0,0.0,1.02010089904e-05,0.0,0.0,0.0,0.0,0.0,0.0,245000000.0,0.0,0.0,0.0,0.0,0.0,0.0,4.65661287308e-10,0.0,0.0,0.0,0.0,0.0,0.0,4.65661287308e-10,0.0,0.0,0.0,0.0,0.0,0.0,2.94800380276e-10
1583763060243262395,245,1583763052349411989,odom,0.0,0.0,0.0,0.00376643736454,-0.0252706562244,9.73498260202e-05,0.999673545917,9.80100594461e-06,0.0,0.0,0.0,0.0,0.0,0.0,9.80100594461e-06,0.0,0.0,0.0,0.0,0.0,0.0,246000000.0,0.0,0.0,0.0,0.0,0.0,0.0,2.32830643654e-10,0.0,0.0,0.0,0.0,0.0,0.0,2.32830643654e-10,0.0,0.0,0.0,0.0,0.0,0.0,2.83240714252e-10
1583763060243504668,246,1583763052449411989,odom,0.0,0.0,0.0,0.00376648582533,-0.0252096612571,9.7349969354e-05,0.999675085759,9.99984331429e-06,0.0,0.0,0.0,0.0,0.0,0.0,9.99984331429e-06,0.0,0.0,0.0,0.0,0.0,0.0,247000000.0,0.0,0.0,0.0,0.0,0.0,0.0,2.32830643654e-10,0.0,0.0,0.0,0.0,0.0,0.0,2.32830643654e-10,0.0,0.0,0.0,0.0,0.0,0.0,2.88991648012e-10
1583763060243550388,247,1583763052550411989,odom,0.0,0.0,0.0,0.00376643740214,-0.0252706561707,3.63177337653e-05,0.999673549999,1.02010089904e-05,0.0,0.0,0.0,0.0,0.0,0.0,1.02010089904e-05,0.0,0.0,0.0,0.0,0.0,0.0,248000000.0,0.0,0.0,0.0,0.0,0.0,0.0,4.65661287308e-10,0.0,0.0,0.0,0.0,0.0,0.0,4.65661287308e-10,0.0,0.0,0.0,0.0,0.0,0.0,2.94800380276e-10
1583763060243760938,248,1583763052649411989,odom,0.0,0.0,0.0,0.00376638895126,-0.0253316507075,-2.47143133589e-05,0.999672006798,9.80100594461e-06,0.0,0.0,0.0,0.0,0.0,0.0,9.80100594461e-06,0.0,0.0,0.0,0.0,0.0,0.0,249000000.0,0.0,0.0,0.0,0.0,0.0,0.0,2.32830643654e-10,0.0,0.0,0.0,0.0,0.0,0.0,2.32830643654e-10,0.0,0.0,0.0,0.0,0.0,0.0,2.83240714252e-10
1583763060244048414,249,1583763052749411989,odom,0.0,0.0,0.0,0.00376638892758,-0.0253316508557,3.63176843045e-05,0.99967200644,9.99984331429e-06,0.0,0.0,0.0,0.0,0.0,0.0,9.99984331429e-06,0.0,0.0,0.0,0.0,0.0,0.0,250000000.0,0.0,0.0,0.0,0.0,0.0,0.0,2.32830643654e-10,0.0,0.0,0.0,0.0,0.0,0.0,2.32830643654e-10,0.0,0.0,0.0,0.0,0.0,0.0,2.88991648012e-10
1583763060244171339,250,1583763052849411989,odom,0.0,0.0,0.0,0.00376638892758,-0.0253316508557,3.63176843045e-05,0.99967200644,9.99984331429e-06,0.0,0.0,0.0,0.0,0.0,0.0,9.99984331429e-06,0.0,0.0,0.0,0.0,0.0,0.0,251000000.0,0.0,0.0,0.0,0.0,0.0,0.0,2.32830643654e-10,0.0,0.0,0.0,0.0,0.0,0.0,2.32830643654e-10,0.0,0.0,0.0,0.0,0.0,0.0,2.88991648012e-10
1583763060244195259,251,1583763052949411989,odom,0.0,0.0,0.0,0.00376638892758,-0.0253316508557,3.63176843046e-05,0.99967200644,9.99984331429e-06,0.0,0.0,0.0,0.0,0.0,0.0,9.99984331429e-06,0.0,0.0,0.0,0.0,0.0,0.0,252000000.0,0.0,0.0,0.0,0.0,0.0,0.0,2.32830643654e-10,0.0,0.0,0.0,0.0,0.0,0.0,2.32830643654e-10,0.0,0.0,0.0,0.0,0.0,0.0,2.88991648012e-10
1583763060244313118,252,1583763053048411989,odom,0.0,0.0,0.0,0.00376643740214,-0.0252706561707,3.63177337577e-05,0.999673549999,9.80100594461e-06,0.0,0.0,0.0,0.0,0.0,0.0,9.80100594461e-06,0.0,0.0,0.0,0.0,0.0,0.0,253000000.0,0.0,0.0,0.0,0.0,0.0,0.0,2.32830643654e-10,0.0,0.0,0.0,0.0,0.0,0.0,2.32830643654e-10,0.0,0.0,0.0,0.0,0.0,0.0,2.8324071435e-10
1583763060244355714,253,1583763053150411989,odom,0.0,0.0,0.0,0.00376648582533,-0.0252096612571,9.73499693711e-05,0.999675085759,1.04039208964e-05,0.0,0.0,0.0,0.0,0.0,0.0,1.04039208964e-05,0.0,0.0,0.0,0.0,0.0,0.0,254000000.0,0.0,0.0,0.0,0.0,0.0,0.0,4.65661287308e-10,0.0,0.0,0.0,0.0,0.0,0.0,4.65661287308e-10,0.0,0.0,0.0,0.0,0.0,0.0,3.00666910855e-10
1583763060244395967,254,1583763053249411989,odom,0.0,0.0,0.0,0.00376648582533,-0.0252096612571,9.73499693711e-05,0.999675085759,9.80100594461e-06,0.0,0.0,0.0,0.0,0.0,0.0,9.80100594461e-06,0.0,0.0,0.0,0.0,0.0,0.0,255000000.0,0.0,0.0,0.0,0.0,0.0,0.0,2.32830643654e-10,0.0,0.0,0.0,0.0,0.0,0.0,2.32830643654e-10,0.0,0.0,0.0,0.0,0.0,0.0,2.83240714252e-10
1583763060244428152,255,1583763053349411989,odom,0.0,0.0,0.0,0.00370545254744,-0.0252096243732,9.73499471606e-05,0.999675314781,9.99984331429e-06,0.0,0.0,0.0,0.0,0.0,0.0,9.99984331429e-06,0.0,0.0,0.0,0.0,0.0,0.0,256000000.0,0.0,0.0,0.0,0.0,0.0,0.0,2.32830643654e-10,0.0,0.0,0.0,0.0,0.0,0.0,2.32830643654e-10,0.0,0.0,0.0,0.0,0.0,0.0,2.88991648012e-10
1583763060244446424,256,1583763053449411989,odom,0.0,0.0,0.0,0.00364446766903,-0.0251485920784,0.000158382375178,0.999677068401,9.99984331429e-06,0.0,0.0,0.0,0.0,0.0,0.0,9.99984331429e-06,0.0,0.0,0.0,0.0,0.0,0.0,257000000.0,0.0,0.0,0.0,0.0,0.0,0.0,2.32830643654e-10,0.0,0.0,0.0,0.0,0.0,0.0,2.32830643654e-10,0.0,0.0,0.0,0.0,0.0,0.0,2.88991648012e-10
1583763060244711990,257,1583763053549411989,odom,0.0,0.0,0.0,0.00364451591511,-0.025087596521,0.000158382611566,0.999678600811,9.99984331429e-06,0.0,0.0,0.0,0.0,0.0,0.0,9.99984331429e-06,0.0,0.0,0.0,0.0,0.0,0.0,258000000.0,0.0,0.0,0.0,0.0,0.0,0.0,2.32830643654e-10,0.0,0.0,0.0,0.0,0.0,0.0,2.32830643654e-10,0.0,0.0,0.0,0.0,0.0,0.0,2.88991648012e-10
1583763060245485532,258,1583763053648411989,odom,0.0,0.0,0.0,0.00370559745,-0.0250266375693,0.000219415335389,0.999679892674,9.80100594461e-06,0.0,0.0,0.0,0.0,0.0,0.0,9.80100594461e-06,0.0,0.0,0.0,0.0,0.0,0.0,259000000.0,0.0,0.0,0.0,0.0,0.0,0.0,2.32830643654e-10,0.0,0.0,0.0,0.0,0.0,0.0,2.32830643654e-10,0.0,0.0,0.0,0.0,0.0,0.0,2.8324071435e-10
1583763060245565031,259,1583763053749411989,odom,0.0,0.0,0.0,0.00376663100806,-0.0250266744955,0.000219415329312,0.999679663648,1.02010089904e-05,0.0,0.0,0.0,0.0,0.0,0.0,1.02010089904e-05,0.0,0.0,0.0,0.0,0.0,0.0,260000000.0,0.0,0.0,0.0,0.0,0.0,0.0,4.65661287308e-10,0.0,0.0,0.0,0.0,0.0,0.0,4.65661287308e-10,0.0,0.0,0.0,0.0,0.0,0.0,2.94800380276e-10
1583763060245650196,260,1583763053849411989,odom,0.0,0.0,0.0,0.003766582654,-0.0250876704384,0.000158382628189,0.999678146486,9.99984331429e-06,0.0,0.0,0.0,0.0,0.0,0.0,9.99984331429e-06,0.0,0.0,0.0,0.0,0.0,0.0,261000000.0,0.0,0.0,0.0,0.0,0.0,0.0,2.32830643654e-10,0.0,0.0,0.0,0.0,0.0,0.0,2.32830643654e-10,0.0,0.0,0.0,0.0,0.0,0.0,2.88991648108e-10
1583763060245693955,261,1583763053948411989,odom,0.0,0.0,0.0,0.00376653422084,-0.025148665968,0.000158382392017,0.999676614078,9.80100594461e-06,0.0,0.0,0.0,0.0,0.0,0.0,9.80100594461e-06,0.0,0.0,0.0,0.0,0.0,0.0,262000000.0,0.0,0.0,0.0,0.0,0.0,0.0,2.32830643654e-10,0.0,0.0,0.0,0.0,0.0,0.0,2.32830643654e-10,0.0,0.0,0.0,0.0,0.0,0.0,2.8324071435e-10
1583763060245749843,262,1583763054049411989,odom,0.0,0.0,0.0,0.00376648577381,-0.0252096612168,0.000158382155256,0.999675077954,1.02010089904e-05,0.0,0.0,0.0,0.0,0.0,0.0,1.02010089904e-05,0.0,0.0,0.0,0.0,0.0,0.0,263000000.0,0.0,0.0,0.0,0.0,0.0,0.0,4.65661287308e-10,0.0,0.0,0.0,0.0,0.0,0.0,4.65661287308e-10,0.0,0.0,0.0,0.0,0.0,0.0,2.94800380276e-10
1583763060245776834,263,1583763054149411989,odom,0.0,0.0,0.0,0.00382751877655,-0.0252096980067,0.000158382162895,0.999674845208,9.99984331429e-06,0.0,0.0,0.0,0.0,0.0,0.0,9.99984331429e-06,0.0,0.0,0.0,0.0,0.0,0.0,264000000.0,0.0,0.0,0.0,0.0,0.0,0.0,2.32830643654e-10,0.0,0.0,0.0,0.0,0.0,0.0,2.32830643654e-10,0.0,0.0,0.0,0.0,0.0,0.0,2.88991648108e-10
1583763060245794368,264,1583763054254393013,odom,0.0,0.0,0.0,0.00382751877655,-0.0252096980067,0.000158382162895,0.999674845208,1.10210385174e-05,0.0,0.0,0.0,0.0,0.0,0.0,1.10210385174e-05,0.0,0.0,0.0,0.0,0.0,0.0,265000000.0,0.0,0.0,0.0,0.0,0.0,0.0,4.65661287308e-10,0.0,0.0,0.0,0.0,0.0,0.0,4.65661287308e-10,0.0,0.0,0.0,0.0,0.0,0.0,3.18498140388e-10
1583763060245915067,265,1583763054353393013,odom,0.0,0.0,0.0,0.00382756731735,-0.0251487027722,0.000158382399548,0.999676381332,9.80088952929e-06,0.0,0.0,0.0,0.0,0.0,0.0,9.80088952929e-06,0.0,0.0,0.0,0.0,0.0,0.0,266000000.0,0.0,0.0,0.0,0.0,0.0,0.0,2.32830643654e-10,0.0,0.0,0.0,0.0,0.0,0.0,2.32830643654e-10,0.0,0.0,0.0,0.0,0.0,0.0,2.83240714252e-10
1583763060246084738,266,1583763054453393013,odom,0.0,0.0,0.0,0.00388864899118,-0.0250877439818,0.000158382642445,0.999677677267,9.99995972961e-06,0.0,0.0,0.0,0.0,0.0,0.0,9.99995972961e-06,0.0,0.0,0.0,0.0,0.0,0.0,267000000.0,0.0,0.0,0.0,0.0,0.0,0.0,2.32830643654e-10,0.0,0.0,0.0,0.0,0.0,0.0,2.32830643654e-10,0.0,0.0,0.0,0.0,0.0,0.0,2.88991648012e-10
1583763060246107526,267,1583763054553393013,odom,0.0,0.0,0.0,0.00394968209473,-0.0250877806133,0.000158382648688,0.999677437072,9.99995972961e-06,0.0,0.0,0.0,0.0,0.0,0.0,9.99995972961e-06,0.0,0.0,0.0,0.0,0.0,0.0,268000000.0,0.0,0.0,0.0,0.0,0.0,0.0,2.32830643654e-10,0.0,0.0,0.0,0.0,0.0,0.0,2.32830643654e-10,0.0,0.0,0.0,0.0,0.0,0.0,2.88991648012e-10
1583763060246116887,268,1583763054654393013,odom,0.0,0.0,0.0,0.00401071520578,-0.025087817191,9.73503392815e-05,0.999677200958,1.02010089904e-05,0.0,0.0,0.0,0.0,0.0,0.0,1.02010089904e-05,0.0,0.0,0.0,0.0,0.0,0.0,269000000.0,0.0,0.0,0.0,0.0,0.0,0.0,4.65661287308e-10,0.0,0.0,0.0,0.0,0.0,0.0,4.65661287308e-10,0.0,0.0,0.0,0.0,0.0,0.0,2.94800380276e-10
1583763060246164672,269,1583763054753393013,odom,0.0,0.0,0.0,0.00394968214638,-0.0250877806531,9.7350318737e-05,0.999677444877,9.80100594461e-06,0.0,0.0,0.0,0.0,0.0,0.0,9.80100594461e-06,0.0,0.0,0.0,0.0,0.0,0.0,270000000.0,0.0,0.0,0.0,0.0,0.0,0.0,2.32830643654e-10,0.0,0.0,0.0,0.0,0.0,0.0,2.32830643654e-10,0.0,0.0,0.0,0.0,0.0,0.0,2.83240714252e-10
1583763060246194712,270,1583763054853393013,odom,0.0,0.0,0.0,0.00394968209473,-0.0250877806133,0.000158382648658,0.999677437072,9.99984331429e-06,0.0,0.0,0.0,0.0,0.0,0.0,9.99984331429e-06,0.0,0.0,0.0,0.0,0.0,0.0,271000000.0,0.0,0.0,0.0,0.0,0.0,0.0,2.32830643654e-10,0.0,0.0,0.0,0.0,0.0,0.0,2.32830643654e-10,0.0,0.0,0.0,0.0,0.0,0.0,2.88991648012e-10
1583763060246438241,271,1583763054953393013,odom,0.0,0.0,0.0,0.00388860037094,-0.0251487394827,0.000158382406459,0.999676144861,9.99984331429e-06,0.0,0.0,0.0,0.0,0.0,0.0,9.99984331429e-06,0.0,0.0,0.0,0.0,0.0,0.0,272000000.0,0.0,0.0,0.0,0.0,0.0,0.0,2.32830643654e-10,0.0,0.0,0.0,0.0,0.0,0.0,2.32830643654e-10,0.0,0.0,0.0,0.0,0.0,0.0,2.88991648012e-10
1583763060246510799,272,1583763055052393013,odom,0.0,0.0,0.0,0.00388855178813,-0.0252097347428,9.73500126518e-05,0.999674616544,9.80100594461e-06,0.0,0.0,0.0,0.0,0.0,0.0,9.80100594461e-06,0.0,0.0,0.0,0.0,0.0,0.0,273000000.0,0.0,0.0,0.0,0.0,0.0,0.0,2.32830643654e-10,0.0,0.0,0.0,0.0,0.0,0.0,2.32830643654e-10,0.0,0.0,0.0,0.0,0.0,0.0,2.8324071435e-10
1583763060246543271,273,1583763055152393013,odom,0.0,0.0,0.0,0.00382751877655,-0.0252096980067,0.000158382162836,0.999674845208,9.99984331429e-06,0.0,0.0,0.0,0.0,0.0,0.0,9.99984331429e-06,0.0,0.0,0.0,0.0,0.0,0.0,274000000.0,0.0,0.0,0.0,0.0,0.0,0.0,2.32830643654e-10,0.0,0.0,0.0,0.0,0.0,0.0,2.32830643654e-10,0.0,0.0,0.0,0.0,0.0,0.0,2.88991648012e-10
1583763060246574157,274,1583763055253393013,odom,0.0,0.0,0.0,0.00388855173638,-0.0252097347027,0.000158382169885,0.999674608739,1.02010089904e-05,0.0,0.0,0.0,0.0,0.0,0.0,1.02010089904e-05,0.0,0.0,0.0,0.0,0.0,0.0,275000000.0,0.0,0.0,0.0,0.0,0.0,0.0,4.65661287308e-10,0.0,0.0,0.0,0.0,0.0,0.0,4.65661287308e-10,0.0,0.0,0.0,0.0,0.0,0.0,2.94800380276e-10
1583763060247535983,275,1583763055352393013,odom,0.0,0.0,0.0,0.00382756731734,-0.0251487027722,0.000158382399488,0.999676381332,9.80100594461e-06,0.0,0.0,0.0,0.0,0.0,0.0,9.80100594461e-06,0.0,0.0,0.0,0.0,0.0,0.0,276000000.0,0.0,0.0,0.0,0.0,0.0,0.0,2.32830643654e-10,0.0,0.0,0.0,0.0,0.0,0.0,2.32830643654e-10,0.0,0.0,0.0,0.0,0.0,0.0,2.83240714252e-10
1583763060247544111,276,1583763055452393013,odom,0.0,0.0,0.0,0.00382761584404,-0.0250877072569,0.000158382635552,0.999677913738,9.99984331429e-06,0.0,0.0,0.0,0.0,0.0,0.0,9.99984331429e-06,0.0,0.0,0.0,0.0,0.0,0.0,277000000.0,0.0,0.0,0.0,0.0,0.0,0.0,2.32830643654e-10,0.0,0.0,0.0,0.0,0.0,0.0,2.32830643654e-10,0.0,0.0,0.0,0.0,0.0,0.0,2.88991648012e-10
1583763060247565565,277,1583763055553393013,odom,0.0,0.0,0.0,0.00388864899118,-0.0250877439818,0.000158382642385,0.999677677267,1.02010089904e-05,0.0,0.0,0.0,0.0,0.0,0.0,1.02010089904e-05,0.0,0.0,0.0,0.0,0.0,0.0,278000000.0,0.0,0.0,0.0,0.0,0.0,0.0,4.65661287308e-10,0.0,0.0,0.0,0.0,0.0,0.0,4.65661287308e-10,0.0,0.0,0.0,0.0,0.0,0.0,2.94800380276e-10
1583763060247583035,278,1583763055653393013,odom,0.000118019123646,1.64580810821e-08,0.0,0.00388860042223,-0.0251487394748,0.000158384445235,0.999676144861,9.99984331429e-06,0.0,0.0,0.0,0.0,0.0,0.0,9.99984331429e-06,0.0,0.0,0.0,0.0,0.0,0.0,279000000.0,0.0,0.0,0.0,0.0,0.0,0.0,2.32830643654e-10,0.0,0.0,0.0,0.0,0.0,0.0,2.32830643654e-10,0.0,0.0,0.0,0.0,0.0,0.0,2.88991648108e-10
1583763060247593169,279,1583763055753393013,odom,0.00104013675545,2.67031301246e-07,0.0,0.0038275666194,-0.0251486990443,0.00064664948986,0.999676184829,9.99984331429e-06,0.0,0.0,0.0,0.0,0.0,0.0,9.99984331429e-06,0.0,0.0,0.0,0.0,0.0,0.0,280000000.0,0.0,0.0,0.0,0.0,0.0,0.0,2.32830643654e-10,0.0,0.0,0.0,0.0,0.0,0.0,2.32830643654e-10,0.0,0.0,0.0,0.0,0.0,0.0,2.88991648012e-10
1583763060247603661,280,1583763055853393013,odom,0.00346652895522,3.75945088428e-06,0.0,0.00382785724918,-0.0247827188899,0.000829764169489,0.999685188369,9.99984331429e-06,0.0,0.0,0.0,0.0,0.0,0.0,9.99984331429e-06,0.0,0.0,0.0,0.0,0.0,0.0,281000000.0,0.0,0.0,0.0,0.0,0.0,0.0,2.32830643654e-10,0.0,0.0,0.0,0.0,0.0,0.0,2.32830643654e-10,0.0,0.0,0.0,0.0,0.0,0.0,2.88991648012e-10
1583763060247612206,281,1583763055953393013,odom,0.0077044585357,1.16232941176e-05,0.0,0.00395045802748,-0.0241118032491,0.00101288951989,0.999700949725,9.99984331429e-06,0.0,0.0,0.0,0.0,0.0,0.0,9.99984331429e-06,0.0,0.0,0.0,0.0,0.0,0.0,282000000.0,0.0,0.0,0.0,0.0,0.0,0.0,2.32830643654e-10,0.0,0.0,0.0,0.0,0.0,0.0,2.32830643654e-10,0.0,0.0,0.0,0.0,0.0,0.0,2.88991648012e-10
1583763060247622809,282,1583763056053393013,odom,0.0138947575295,2.53231981156e-05,0.0,0.00401212099713,-0.0233188083712,0.00137912845256,0.999719077574,9.99984331429e-06,0.0,0.0,0.0,0.0,0.0,0.0,9.99984331429e-06,0.0,0.0,0.0,0.0,0.0,0.0,283000000.0,0.0,0.0,0.0,0.0,0.0,0.0,2.32830643654e-10,0.0,0.0,0.0,0.0,0.0,0.0,2.32830643654e-10,0.0,0.0,0.0,0.0,0.0,0.0,2.88991648012e-10
1583763060247629790,283,1583763056153393013,odom,0.0220856102122,4.9701546744e-05,0.0,0.00401245466905,-0.022585365108,0.00156218124136,0.999735645598,9.99984331429e-06,0.0,0.0,0.0,0.0,0.0,0.0,9.99984331429e-06,0.0,0.0,0.0,0.0,0.0,0.0,284000000.0,0.0,0.0,0.0,0.0,0.0,0.0,2.32830643654e-10,0.0,0.0,0.0,0.0,0.0,0.0,2.32830643654e-10,0.0,0.0,0.0,0.0,0.0,0.0,2.88991648012e-10
1583763060247645417,284,1583763056252393013,odom,0.032191694228,8.35933150218e-05,0.0,0.00425726259683,-0.0217314406081,0.00180635392111,0.999753148177,9.80100594461e-06,0.0,0.0,0.0,0.0,0.0,0.0,9.80100594461e-06,0.0,0.0,0.0,0.0,0.0,0.0,285000000.0,0.0,0.0,0.0,0.0,0.0,0.0,2.32830643654e-10,0.0,0.0,0.0,0.0,0.0,0.0,2.32830643654e-10,0.0,0.0,0.0,0.0,0.0,0.0,2.8324071435e-10
1583763060247719073,285,1583763056353393013,odom,0.0445452396599,0.00013150182725,0.0,0.00437995861792,-0.0209384127294,0.00186742968308,0.999769429189,1.02010089904e-05,0.0,0.0,0.0,0.0,0.0,0.0,1.02010089904e-05,0.0,0.0,0.0,0.0,0.0,0.0,286000000.0,0.0,0.0,0.0,0.0,0.0,0.0,4.65661287308e-10,0.0,0.0,0.0,0.0,0.0,0.0,4.65661287308e-10,0.0,0.0,0.0,0.0,0.0,0.0,2.94800380276e-10
1583763060247763301,286,1583763056453393013,odom,0.0588119815647,0.000187724588506,0.0,0.00438050953349,-0.0199000089655,0.00186737243779,0.999790634933,9.99984331429e-06,0.0,0.0,0.0,0.0,0.0,0.0,9.99984331429e-06,0.0,0.0,0.0,0.0,0.0,0.0,287000000.0,0.0,0.0,0.0,0.0,0.0,0.0,2.32830643654e-10,0.0,0.0,0.0,0.0,0.0,0.0,2.32830643654e-10,0.0,0.0,0.0,0.0,0.0,0.0,2.88991648108e-10
1583763060247800683,287,1583763056553393013,odom,0.0751184264359,0.000252301486997,0.0,0.00474723385083,-0.0192291126236,0.00192843788887,0.999801973456,9.99984331429e-06,0.0,0.0,0.0,0.0,0.0,0.0,9.99984331429e-06,0.0,0.0,0.0,0.0,0.0,0.0,288000000.0,0.0,0.0,0.0,0.0,0.0,0.0,2.32830643654e-10,0.0,0.0,0.0,0.0,0.0,0.0,2.32830643654e-10,0.0,0.0,0.0,0.0,0.0,0.0,2.88991648012e-10
1583763060247817557,288,1583763056653393013,odom,0.093464035674,0.000327259804328,0.0,0.00486982985548,-0.0185580418722,0.00205053881918,0.999813822234,9.99984331429e-06,0.0,0.0,0.0,0.0,0.0,0.0,9.99984331429e-06,0.0,0.0,0.0,0.0,0.0,0.0,289000000.0,0.0,0.0,0.0,0.0,0.0,0.0,2.32830643654e-10,0.0,0.0,0.0,0.0,0.0,0.0,2.32830643654e-10,0.0,0.0,0.0,0.0,0.0,0.0,2.88991648012e-10
1583763060247831236,289,1583763056755393013,odom,0.113897755747,0.000415419248511,0.0,0.00529764668884,-0.0178261241089,0.00192850409473,0.999825207279,1.04039208964e-05,0.0,0.0,0.0,0.0,0.0,0.0,1.04039208964e-05,0.0,0.0,0.0,0.0,0.0,0.0,290000000.0,0.0,0.0,0.0,0.0,0.0,0.0,4.65661287308e-10,0.0,0.0,0.0,0.0,0.0,0.0,4.65661287308e-10,0.0,0.0,0.0,0.0,0.0,0.0,3.00666910855e-10
1583763060247850593,290,1583763056860198904,odom,0.135802550198,0.000501229584705,0.0,0.00529798697639,-0.0173990111911,0.00174541922057,0.999833065694,1.0984367691e-05,0.0,0.0,0.0,0.0,0.0,0.0,1.0984367691e-05,0.0,0.0,0.0,0.0,0.0,0.0,291000000.0,0.0,0.0,0.0,0.0,0.0,0.0,4.65661287308e-10,0.0,0.0,0.0,0.0,0.0,0.0,4.65661287308e-10,0.0,0.0,0.0,0.0,0.0,0.0,3.17436367451e-10
1583763060247863943,291,1583763056960198904,odom,0.157039718425,0.000571833317338,0.0,0.00572537391188,-0.0172162187195,0.0016233542633,0.999834079549,9.99984331429e-06,0.0,0.0,0.0,0.0,0.0,0.0,9.99984331429e-06,0.0,0.0,0.0,0.0,0.0,0.0,292000000.0,0.0,0.0,0.0,0.0,0.0,0.0,2.32830643654e-10,0.0,0.0,0.0,0.0,0.0,0.0,2.32830643654e-10,0.0,0.0,0.0,0.0,0.0,0.0,2.88991648108e-10
1583763060247957640,292,1583763057060198904,odom,0.178427413438,0.000639255876401,0.0,0.00596936315502,-0.0173994177776,0.00162334905774,0.999829481313,9.99984331429e-06,0.0,0.0,0.0,0.0,0.0,0.0,9.99984331429e-06,0.0,0.0,0.0,0.0,0.0,0.0,293000000.0,0.0,0.0,0.0,0.0,0.0,0.0,2.32830643654e-10,0.0,0.0,0.0,0.0,0.0,0.0,2.32830643654e-10,0.0,0.0,0.0,0.0,0.0,0.0,2.88991648012e-10
1583763060248009168,293,1583763057160198904,odom,0.199855367076,0.000705153518445,0.0,0.00548075121212,-0.017826243489,0.00162334107366,0.999824760232,9.99984331429e-06,0.0,0.0,0.0,0.0,0.0,0.0,9.99984331429e-06,0.0,0.0,0.0,0.0,0.0,0.0,294000000.0,0.0,0.0,0.0,0.0,0.0,0.0,2.32830643654e-10,0.0,0.0,0.0,0.0,0.0,0.0,2.32830643654e-10,0.0,0.0,0.0,0.0,0.0,0.0,2.88991648012e-10
1583763060248026524,294,1583763057260198904,odom,0.221329541789,0.000770228968626,0.0,0.00584675793151,-0.0180705282465,0.00150126457317,0.999818492345,9.99984331429e-06,0.0,0.0,0.0,0.0,0.0,0.0,9.99984331429e-06,0.0,0.0,0.0,0.0,0.0,0.0,295000000.0,0.0,0.0,0.0,0.0,0.0,0.0,2.32830643654e-10,0.0,0.0,0.0,0.0,0.0,0.0,2.32830643654e-10,0.0,0.0,0.0,0.0,0.0,0.0,2.88991648012e-10
1583763060248047739,295,1583763057360198904,odom,0.242809038526,0.000830766563383,0.0,0.00590729874909,-0.0186807083125,0.00144021425866,0.999807011748,9.99984331429e-06,0.0,0.0,0.0,0.0,0.0,0.0,9.99984331429e-06,0.0,0.0,0.0,0.0,0.0,0.0,296000000.0,0.0,0.0,0.0,0.0,0.0,0.0,2.32830643654e-10,0.0,0.0,0.0,0.0,0.0,0.0,2.32830643654e-10,0.0,0.0,0.0,0.0,0.0,0.0,2.88991648012e-10
1583763060248067665,296,1583763057459198904,odom,0.264084092575,0.000886857698551,0.0,0.00596798486343,-0.0191078328486,0.00137917064353,0.999798665617,9.80100594461e-06,0.0,0.0,0.0,0.0,0.0,0.0,9.80100594461e-06,0.0,0.0,0.0,0.0,0.0,0.0,297000000.0,0.0,0.0,0.0,0.0,0.0,0.0,2.32830643654e-10,0.0,0.0,0.0,0.0,0.0,0.0,2.32830643654e-10,0.0,0.0,0.0,0.0,0.0,0.0,2.8324071435e-10
1583763060248113655,297,1583763057559198904,odom,0.285621725096,0.000942399259873,0.0,0.00572336226479,-0.0197177970797,0.00144018857492,0.999788166293,9.99984331429e-06,0.0,0.0,0.0,0.0,0.0,0.0,9.99984331429e-06,0.0,0.0,0.0,0.0,0.0,0.0,298000000.0,0.0,0.0,0.0,0.0,0.0,0.0,2.32830643654e-10,0.0,0.0,0.0,0.0,0.0,0.0,2.32830643654e-10,0.0,0.0,0.0,0.0,0.0,0.0,2.88991648012e-10
1583763060248155611,298,1583763057659198904,odom,0.307115599675,0.000999809137927,0.0,0.00529597125769,-0.0203288667707,0.00162336047226,0.999778002641,9.99984331429e-06,0.0,0.0,0.0,0.0,0.0,0.0,9.99984331429e-06,0.0,0.0,0.0,0.0,0.0,0.0,299000000.0,0.0,0.0,0.0,0.0,0.0,0.0,2.32830643654e-10,0.0,0.0,0.0,0.0,0.0,0.0,2.32830643654e-10,0.0,0.0,0.0,0.0,0.0,0.0,2.88991648012e-10
1583763060248361055,299,1583763057759198904,odom,0.32858750028,0.00106525466056,0.0,0.00529572489088,-0.020633920113,0.00162335068797,0.999771754638,9.99984331429e-06,0.0,0.0,0.0,0.0,0.0,0.0,9.99984331429e-06,0.0,0.0,0.0,0.0,0.0,0.0,300000000.0,0.0,0.0,0.0,0.0,0.0,0.0,2.32830643654e-10,0.0,0.0,0.0,0.0,0.0,0.0,2.32830643654e-10,0.0,0.0,0.0,0.0,0.0,0.0,2.88991648012e-10
1583763060248427271,300,1583763057859198904,odom,0.350087245237,0.00113035004418,0.0,0.0048070574321,-0.021121704455,0.00162333703719,0.999764037449,9.99984331429e-06,0.0,0.0,0.0,0.0,0.0,0.0,9.99984331429e-06,0.0,0.0,0.0,0.0,0.0,0.0,301000000.0,0.0,0.0,0.0,0.0,0.0,0.0,2.32830643654e-10,0.0,0.0,0.0,0.0,0.0,0.0,2.32830643654e-10,0.0,0.0,0.0,0.0,0.0,0.0,2.88991648012e-10
1583763060248435851,301,1583763057959198904,odom,0.37156059625,0.00119471967131,0.0,0.00511188297847,-0.0215489378688,0.00162331912285,0.999753407978,9.99984331429e-06,0.0,0.0,0.0,0.0,0.0,0.0,9.99984331429e-06,0.0,0.0,0.0,0.0,0.0,0.0,302000000.0,0.0,0.0,0.0,0.0,0.0,0.0,2.32830643654e-10,0.0,0.0,0.0,0.0,0.0,0.0,2.32830643654e-10,0.0,0.0,0.0,0.0,0.0,0.0,2.88991648012e-10
1583763060248453490,302,1583763058060198904,odom,0.393252272438,0.0012602817835,0.0,0.0050507499224,-0.021670910529,0.00174538199825,0.999750876571,1.02010089904e-05,0.0,0.0,0.0,0.0,0.0,0.0,1.02010089904e-05,0.0,0.0,0.0,0.0,0.0,0.0,303000000.0,0.0,0.0,0.0,0.0,0.0,0.0,4.65661287308e-10,0.0,0.0,0.0,0.0,0.0,0.0,4.65661287308e-10,0.0,0.0,0.0,0.0,0.0,0.0,2.94800380276e-10
1583763060248480170,303,1583763058160198904,odom,0.414763391304,0.00133195233255,0.0,0.00505040304099,-0.0220979429689,0.00186743254779,0.99974131006,9.99984331429e-06,0.0,0.0,0.0,0.0,0.0,0.0,9.99984331429e-06,0.0,0.0,0.0,0.0,0.0,0.0,304000000.0,0.0,0.0,0.0,0.0,0.0,0.0,2.32830643654e-10,0.0,0.0,0.0,0.0,0.0,0.0,2.32830643654e-10,0.0,0.0,0.0,0.0,0.0,0.0,2.88991648108e-10
1583763060248506634,304,1583763058259198904,odom,0.436036019651,0.00140806498327,0.0,0.00523355219399,-0.0220370523215,0.00168433653148,0.999742037361,9.80100594461e-06,0.0,0.0,0.0,0.0,0.0,0.0,9.80100594461e-06,0.0,0.0,0.0,0.0,0.0,0.0,305000000.0,0.0,0.0,0.0,0.0,0.0,0.0,2.32830643654e-10,0.0,0.0,0.0,0.0,0.0,0.0,2.32830643654e-10,0.0,0.0,0.0,0.0,0.0,0.0,2.8324071435e-10
1583763060248514423,305,1583763058359198904,odom,0.457534862908,0.00147507600862,0.0,0.00492814241668,-0.0223418978233,0.00162329591646,0.999736924358,9.99984331429e-06,0.0,0.0,0.0,0.0,0.0,0.0,9.99984331429e-06,0.0,0.0,0.0,0.0,0.0,0.0,306000000.0,0.0,0.0,0.0,0.0,0.0,0.0,2.32830643654e-10,0.0,0.0,0.0,0.0,0.0,0.0,2.32830643654e-10,0.0,0.0,0.0,0.0,0.0,0.0,2.88991648012e-10
1583763060248530958,306,1583763058460198904,odom,0.479227484876,0.00154145463095,0.0,0.00492839130526,-0.0220368846005,0.0013181438202,0.999744141855,1.02010089904e-05,0.0,0.0,0.0,0.0,0.0,0.0,1.02010089904e-05,0.0,0.0,0.0,0.0,0.0,0.0,307000000.0,0.0,0.0,0.0,0.0,0.0,0.0,4.65661287308e-10,0.0,0.0,0.0,0.0,0.0,0.0,4.65661287308e-10,0.0,0.0,0.0,0.0,0.0,0.0,2.94800380276e-10
1583763060248569638,307,1583763058559198904,odom,0.500493961417,0.00159200637132,0.0,0.00480627688972,-0.022097821643,0.00113504417227,0.999743615962,9.80100594461e-06,0.0,0.0,0.0,0.0,0.0,0.0,9.80100594461e-06,0.0,0.0,0.0,0.0,0.0,0.0,308000000.0,0.0,0.0,0.0,0.0,0.0,0.0,2.32830643654e-10,0.0,0.0,0.0,0.0,0.0,0.0,2.32830643654e-10,0.0,0.0,0.0,0.0,0.0,0.0,2.83240714252e-10
1583763060248737118,308,1583763058659198904,odom,0.521982586378,0.00163593649895,0.0,0.00480632634237,-0.02203681831,0.00107401273445,0.999745029676,9.99984331429e-06,0.0,0.0,0.0,0.0,0.0,0.0,9.99984331429e-06,0.0,0.0,0.0,0.0,0.0,0.0,309000000.0,0.0,0.0,0.0,0.0,0.0,0.0,2.32830643654e-10,0.0,0.0,0.0,0.0,0.0,0.0,2.32830643654e-10,0.0,0.0,0.0,0.0,0.0,0.0,2.88991648012e-10
1583763060248782185,309,1583763058759198904,odom,0.543481214895,0.00167760779929,0.0,0.004257268981,-0.0217314628529,0.00101298978416,0.999754266325,9.99984331429e-06,0.0,0.0,0.0,0.0,0.0,0.0,9.99984331429e-06,0.0,0.0,0.0,0.0,0.0,0.0,310000000.0,0.0,0.0,0.0,0.0,0.0,0.0,2.32830643654e-10,0.0,0.0,0.0,0.0,0.0,0.0,2.32830643654e-10,0.0,0.0,0.0,0.0,0.0,0.0,2.88991648012e-10
1583763060248869709,310,1583763058859198904,odom,0.564971434006,0.00171800821343,0.0,0.00370786665635,-0.0218531411142,0.000890922545335,0.999753918825,9.99984331429e-06,0.0,0.0,0.0,0.0,0.0,0.0,9.99984331429e-06,0.0,0.0,0.0,0.0,0.0,0.0,311000000.0,0.0,0.0,0.0,0.0,0.0,0.0,2.32830643654e-10,0.0,0.0,0.0,0.0,0.0,0.0,2.32830643654e-10,0.0,0.0,0.0,0.0,0.0,0.0,2.88991648012e-10
1583763060248878391,311,1583763058960198904,odom,0.586687303234,0.00175280763959,0.0,0.00315851048171,-0.0219138033657,0.000951956363772,0.999754421252,1.02010089904e-05,0.0,0.0,0.0,0.0,0.0,0.0,1.02010089904e-05,0.0,0.0,0.0,0.0,0.0,0.0,312000000.0,0.0,0.0,0.0,0.0,0.0,0.0,4.65661287308e-10,0.0,0.0,0.0,0.0,0.0,0.0,4.65661287308e-10,0.0,0.0,0.0,0.0,0.0,0.0,2.94800380276e-10
1583763060248957092,312,1583763059059198904,odom,0.607975681356,0.00179116450168,0.0,0.00376890103167,-0.0218531787573,0.000890923335996,0.999753689775,9.80100594461e-06,0.0,0.0,0.0,0.0,0.0,0.0,9.80100594461e-06,0.0,0.0,0.0,0.0,0.0,0.0,313000000.0,0.0,0.0,0.0,0.0,0.0,0.0,2.32830643654e-10,0.0,0.0,0.0,0.0,0.0,0.0,2.32830643654e-10,0.0,0.0,0.0,0.0,0.0,0.0,2.83240714252e-10
1583763060249003709,313,1583763059159198904,odom,0.629472743789,0.00182610415263,0.0,0.00291413886328,-0.0222186728,0.00113505009446,0.999748243327,9.99984331429e-06,0.0,0.0,0.0,0.0,0.0,0.0,9.99984331429e-06,0.0,0.0,0.0,0.0,0.0,0.0,314000000.0,0.0,0.0,0.0,0.0,0.0,0.0,2.32830643654e-10,0.0,0.0,0.0,0.0,0.0,0.0,2.32830643654e-10,0.0,0.0,0.0,0.0,0.0,0.0,2.88991648012e-10
1583763060249060903,314,1583763059261198904,odom,0.651392629679,0.00187342909048,0.0,0.00279193198201,-0.0224016127378,0.000890915391876,0.999744756992,1.04039208964e-05,0.0,0.0,0.0,0.0,0.0,0.0,1.04039208964e-05,0.0,0.0,0.0,0.0,0.0,0.0,315000000.0,0.0,0.0,0.0,0.0,0.0,0.0,4.65661287308e-10,0.0,0.0,0.0,0.0,0.0,0.0,4.65661287308e-10,0.0,0.0,0.0,0.0,0.0,0.0,3.00666910855e-10
1583763060249150265,315,1583763059364934999,odom,0.673690580217,0.00191032471907,0.0,0.00285268689013,-0.0227676726205,0.00070781134876,0.999736462406,1.0761199519e-05,0.0,0.0,0.0,0.0,0.0,0.0,1.0761199519e-05,0.0,0.0,0.0,0.0,0.0,0.0,316000000.0,0.0,0.0,0.0,0.0,0.0,0.0,4.65661287308e-10,0.0,0.0,0.0,0.0,0.0,0.0,4.65661287308e-10,0.0,0.0,0.0,0.0,0.0,0.0,3.10989039562e-10
1583763060251482800,316,1583763059464934999,odom,0.695167199263,0.00193828480133,0.0,0.00254728826118,-0.023072487511,0.000646776281874,0.999730340303,9.99995972961e-06,0.0,0.0,0.0,0.0,0.0,0.0,9.99995972961e-06,0.0,0.0,0.0,0.0,0.0,0.0,317000000.0,0.0,0.0,0.0,0.0,0.0,0.0,2.32830643654e-10,0.0,0.0,0.0,0.0,0.0,0.0,2.32830643654e-10,0.0,0.0,0.0,0.0,0.0,0.0,2.88991648108e-10
1583763060251493127,317,1583763059565934999,odom,0.716883211945,0.00196473913304,0.0,0.00224184613103,-0.0236227319663,0.000646801804005,0.999718221454,1.02010089904e-05,0.0,0.0,0.0,0.0,0.0,0.0,1.02010089904e-05,0.0,0.0,0.0,0.0,0.0,0.0,318000000.0,0.0,0.0,0.0,0.0,0.0,0.0,4.65661287308e-10,0.0,0.0,0.0,0.0,0.0,0.0,4.65661287308e-10,0.0,0.0,0.0,0.0,0.0,0.0,2.94800380276e-10
1583763060251520665,318,1583763059664934999,odom,0.73816478274,0.001989479636,0.0,0.00242449318347,-0.0242328623458,0.000524723853311,0.999703263414,9.80100594461e-06,0.0,0.0,0.0,0.0,0.0,0.0,9.80100594461e-06,0.0,0.0,0.0,0.0,0.0,0.0,319000000.0,0.0,0.0,0.0,0.0,0.0,0.0,2.32830643654e-10,0.0,0.0,0.0,0.0,0.0,0.0,2.32830643654e-10,0.0,0.0,0.0,0.0,0.0,0.0,2.83240714252e-10
1583763060251537799,319,1583763059763934999,odom,0.759446781018,0.00200902614201,0.0,0.00236304208563,-0.0247818127397,0.000463683463903,0.999689983338,9.80100594461e-06,0.0,0.0,0.0,0.0,0.0,0.0,9.80100594461e-06,0.0,0.0,0.0,0.0,0.0,0.0,320000000.0,0.0,0.0,0.0,0.0,0.0,0.0,2.32830643654e-10,0.0,0.0,0.0,0.0,0.0,0.0,2.32830643654e-10,0.0,0.0,0.0,0.0,0.0,0.0,2.8324071435e-10
1583763060251544504,320,1583763059864934999,odom,0.781148851989,0.00202649512454,0.0,0.00205708993536,-0.0258185296416,0.000585734484346,0.999664358084,1.02010089904e-05,0.0,0.0,0.0,0.0,0.0,0.0,1.02010089904e-05,0.0,0.0,0.0,0.0,0.0,0.0,321000000.0,0.0,0.0,0.0,0.0,0.0,0.0,4.65661287308e-10,0.0,0.0,0.0,0.0,0.0,0.0,4.65661287308e-10,0.0,0.0,0.0,0.0,0.0,0.0,2.94800380276e-10
1583763060251622883,321,1583763059963934999,odom,0.802409028407,0.00204953021845,0.0,0.00199567472437,-0.0264910084514,0.000463686879876,0.999646952053,9.80100594461e-06,0.0,0.0,0.0,0.0,0.0,0.0,9.80100594461e-06,0.0,0.0,0.0,0.0,0.0,0.0,322000000.0,0.0,0.0,0.0,0.0,0.0,0.0,2.32830643654e-10,0.0,0.0,0.0,0.0,0.0,0.0,2.32830643654e-10,0.0,0.0,0.0,0.0,0.0,0.0,2.83240714252e-10
1583763060251736726,322,1583763060063934999,odom,0.823887136431,0.00206829633604,0.0,0.00193431852915,-0.0269179138257,0.000402649205061,0.999635694741,9.99984331429e-06,0.0,0.0,0.0,0.0,0.0,0.0,9.99984331429e-06,0.0,0.0,0.0,0.0,0.0,0.0,323000000.0,0.0,0.0,0.0,0.0,0.0,0.0,2.32830643654e-10,0.0,0.0,0.0,0.0,0.0,0.0,2.32830643654e-10,0.0,0.0,0.0,0.0,0.0,0.0,2.88991648012e-10
1583763060287308677,323,1583763060163934999,odom,0.845372058854,0.00208381536111,0.0,0.00205583584239,-0.0276498654997,0.000158512370353,0.999615542772,9.99984331429e-06,0.0,0.0,0.0,0.0,0.0,0.0,9.99984331429e-06,0.0,0.0,0.0,0.0,0.0,0.0,324000000.0,0.0,0.0,0.0,0.0,0.0,0.0,2.32830643654e-10,0.0,0.0,0.0,0.0,0.0,0.0,2.32830643654e-10,0.0,0.0,0.0,0.0,0.0,0.0,2.88991648012e-10
1583763060339233572,324,1583763060264934999,odom,0.867070559299,0.0020882433308,0.0,0.00229978468503,-0.0278939679562,3.64477207571e-05,0.999608241369,1.02010089904e-05,0.0,0.0,0.0,0.0,0.0,0.0,1.02010089904e-05,0.0,0.0,0.0,0.0,0.0,0.0,325000000.0,0.0,0.0,0.0,0.0,0.0,0.0,4.65661287308e-10,0.0,0.0,0.0,0.0,0.0,0.0,4.65661287308e-10,0.0,0.0,0.0,0.0,0.0,0.0,2.94800380276e-10
1583763060513210874,325,1583763060363934999,odom,0.888344064997,0.00208695956164,0.0,0.00223870222233,-0.0281395858543,-0.000268732243422,0.999601460435,9.80100594461e-06,0.0,0.0,0.0,0.0,0.0,0.0,9.80100594461e-06,0.0,0.0,0.0,0.0,0.0,0.0,326000000.0,0.0,0.0,0.0,0.0,0.0,0.0,2.32830643654e-10,0.0,0.0,0.0,0.0,0.0,0.0,2.32830643654e-10,0.0,0.0,0.0,0.0,0.0,0.0,2.83240714252e-10
1583763060563841598,326,1583763060464934999,odom,0.910041083446,0.00207235267902,0.0,0.00242181177052,-0.0281396960168,-0.000634942671539,0.999600864937,1.02010089904e-05,0.0,0.0,0.0,0.0,0.0,0.0,1.02010089904e-05,0.0,0.0,0.0,0.0,0.0,0.0,327000000.0,0.0,0.0,0.0,0.0,0.0,0.0,4.65661287308e-10,0.0,0.0,0.0,0.0,0.0,0.0,4.65661287308e-10,0.0,0.0,0.0,0.0,0.0,0.0,2.94800380276e-10
1583763060657466715,327,1583763060563934999,odom,0.931325762204,0.00204266967397,0.0,0.0024828376327,-0.0279550661511,-0.000390773300748,0.999606020935,9.80100594461e-06,0.0,0.0,0.0,0.0,0.0,0.0,9.80100594461e-06,0.0,0.0,0.0,0.0,0.0,0.0,328000000.0,0.0,0.0,0.0,0.0,0.0,0.0,2.32830643654e-10,0.0,0.0,0.0,0.0,0.0,0.0,2.32830643654e-10,0.0,0.0,0.0,0.0,0.0,0.0,2.83240714252e-10
1583763060744295038,328,1583763060663934999,odom,0.952823139454,0.0020236501374,0.0,0.00242203832674,-0.0276500933934,-0.000512841262876,0.999614597262,9.99984331429e-06,0.0,0.0,0.0,0.0,0.0,0.0,9.99984331429e-06,0.0,0.0,0.0,0.0,0.0,0.0,329000000.0,0.0,0.0,0.0,0.0,0.0,0.0,2.32830643654e-10,0.0,0.0,0.0,0.0,0.0,0.0,2.32830643654e-10,0.0,0.0,0.0,0.0,0.0,0.0,2.88991648012e-10
1583763060908785256,329,1583763060764934999,odom,0.974521402534,0.00199782814854,0.0,0.00266650201775,-0.0272233244888,-0.000634913159051,0.999625618547,1.02010089904e-05,0.0,0.0,0.0,0.0,0.0,0.0,1.02010089904e-05,0.0,0.0,0.0,0.0,0.0,0.0,330000000.0,0.0,0.0,0.0,0.0,0.0,0.0,4.65661287308e-10,0.0,0.0,0.0,0.0,0.0,0.0,4.65661287308e-10,0.0,0.0,0.0,0.0,0.0,0.0,2.94800380276e-10
1583763060971583891,330,1583763060863934999,odom,0.995795425157,0.00196738407033,0.0,0.00291101788165,-0.0267355481309,-0.000818021977078,0.999637968107,9.80100594461e-06,0.0,0.0,0.0,0.0,0.0,0.0,9.80100594461e-06,0.0,0.0,0.0,0.0,0.0,0.0,331000000.0,0.0,0.0,0.0,0.0,0.0,0.0,2.32830643654e-10,0.0,0.0,0.0,0.0,0.0,0.0,2.32830643654e-10,0.0,0.0,0.0,0.0,0.0,0.0,2.83240714252e-10
1583763061051896485,331,1583763060963934999,odom,1.01728259104,0.00192873076451,0.0,0.00303365743375,-0.0260036971449,-0.00100114195445,0.999656742273,9.99984331429e-06,0.0,0.0,0.0,0.0,0.0,0.0,9.99984331429e-06,0.0,0.0,0.0,0.0,0.0,0.0,332000000.0,0.0,0.0,0.0,0.0,0.0,0.0,2.32830643654e-10,0.0,0.0,0.0,0.0,0.0,0.0,2.32830643654e-10,0.0,0.0,0.0,0.0,0.0,0.0,2.88991648012e-10
1583763061139175571,332,1583763061064934999,odom,1.03898021774,0.00188160559447,0.0,0.00321733155645,-0.025026323335,-0.00100109941254,0.999681114015,1.02010089904e-05,0.0,0.0,0.0,0.0,0.0,0.0,1.02010089904e-05,0.0,0.0,0.0,0.0,0.0,0.0,333000000.0,0.0,0.0,0.0,0.0,0.0,0.0,4.65661287308e-10,0.0,0.0,0.0,0.0,0.0,0.0,4.65661287308e-10,0.0,0.0,0.0,0.0,0.0,0.0,2.94800380276e-10
1583763061260201108,333,1583763061164934999,odom,1.06048670577,0.00183536962333,0.0,0.00364519147954,-0.0242336090994,-0.00112318309942,0.999699046328,9.99984331429e-06,0.0,0.0,0.0,0.0,0.0,0.0,9.99984331429e-06,0.0,0.0,0.0,0.0,0.0,0.0,334000000.0,0.0,0.0,0.0,0.0,0.0,0.0,2.32830643654e-10,0.0,0.0,0.0,0.0,0.0,0.0,2.32830643654e-10,0.0,0.0,0.0,0.0,0.0,0.0,2.88991648108e-10
1583763061358799151,334,1583763061263934999,odom,1.08175769753,0.00178467897592,0.0,0.0038289683832,-0.0233796895942,-0.00148941352818,0.99971821568,9.80100594461e-06,0.0,0.0,0.0,0.0,0.0,0.0,9.80100594461e-06,0.0,0.0,0.0,0.0,0.0,0.0,335000000.0,0.0,0.0,0.0,0.0,0.0,0.0,2.32830643654e-10,0.0,0.0,0.0,0.0,0.0,0.0,2.32830643654e-10,0.0,0.0,0.0,0.0,0.0,0.0,2.8324071435e-10
1583763061464230581,335,1583763061363934999,odom,1.1032284526,0.0017164553355,0.0,0.00413457107622,-0.0225244268562,-0.00161140733853,0.999736444711,9.99984331429e-06,0.0,0.0,0.0,0.0,0.0,0.0,9.99984331429e-06,0.0,0.0,0.0,0.0,0.0,0.0,336000000.0,0.0,0.0,0.0,0.0,0.0,0.0,2.32830643654e-10,0.0,0.0,0.0,0.0,0.0,0.0,2.32830643654e-10,0.0,0.0,0.0,0.0,0.0,0.0,2.88991648012e-10
1583763061551847366,336,1583763061464934999,odom,1.12494831788,0.00164329237202,0.0,0.00468459770641,-0.0216096745742,-0.00185556729524,0.999753786379,1.02010089904e-05,0.0,0.0,0.0,0.0,0.0,0.0,1.02010089904e-05,0.0,0.0,0.0,0.0,0.0,0.0,337000000.0,0.0,0.0,0.0,0.0,0.0,0.0,4.65661287308e-10,0.0,0.0,0.0,0.0,0.0,0.0,4.65661287308e-10,0.0,0.0,0.0,0.0,0.0,0.0,2.94800380276e-10
1583763061657375094,337,1583763061563934999,odom,1.14622170226,0.00155993255624,0.0,0.00474621522168,-0.0208776086305,-0.00203869856543,0.999768694552,9.80100594461e-06,0.0,0.0,0.0,0.0,0.0,0.0,9.80100594461e-06,0.0,0.0,0.0,0.0,0.0,0.0,338000000.0,0.0,0.0,0.0,0.0,0.0,0.0,2.32830643654e-10,0.0,0.0,0.0,0.0,0.0,0.0,2.32830643654e-10,0.0,0.0,0.0,0.0,0.0,0.0,2.83240714252e-10
1583763061780943563,338,1583763061664934999,odom,1.16793928056,0.00146635017259,0.0,0.00492995345741,-0.0200845787757,-0.00203872941847,0.999784051101,1.02010089904e-05,0.0,0.0,0.0,0.0,0.0,0.0,1.02010089904e-05,0.0,0.0,0.0,0.0,0.0,0.0,339000000.0,0.0,0.0,0.0,0.0,0.0,0.0,4.65661287308e-10,0.0,0.0,0.0,0.0,0.0,0.0,4.65661287308e-10,0.0,0.0,0.0,0.0,0.0,0.0,2.94800380276e-10
1583763061873442667,339,1583763061763934999,odom,1.18895261295,0.00137619977735,0.0,0.00517416706282,-0.0195954138766,-0.00228274591697,0.999791996778,9.80100594461e-06,0.0,0.0,0.0,0.0,0.0,0.0,9.80100594461e-06,0.0,0.0,0.0,0.0,0.0,0.0,340000000.0,0.0,0.0,0.0,0.0,0.0,0.0,2.32830643654e-10,0.0,0.0,0.0,0.0,0.0,0.0,2.32830643654e-10,0.0,0.0,0.0,0.0,0.0,0.0,2.83240714252e-10
1583763061960569445,340,1583763061866934999,odom,1.20940046582,0.00127259392699,0.0,0.00499168039372,-0.0188020701556,-0.00368653484361,0.999803968159,1.06091611087e-05,0.0,0.0,0.0,0.0,0.0,0.0,1.06091611087e-05,0.0,0.0,0.0,0.0,0.0,0.0,341000000.0,0.0,0.0,0.0,0.0,0.0,0.0,4.65661287308e-10,0.0,0.0,0.0,0.0,0.0,0.0,4.65661287308e-10,0.0,0.0,0.0,0.0,0.0,0.0,3.06591239552e-10
1583763062041940973,341,1583763061967217063,odom,1.22690034232,0.0011312187899,0.0,0.0043810320631,-0.0191676317932,-0.00527333740755,0.999792778711,1.00566539913e-05,0.0,0.0,0.0,0.0,0.0,0.0,1.00566539913e-05,0.0,0.0,0.0,0.0,0.0,0.0,342000000.0,0.0,0.0,0.0,0.0,0.0,0.0,2.32830643654e-10,0.0,0.0,0.0,0.0,0.0,0.0,2.32830643654e-10,0.0,0.0,0.0,0.0,0.0,0.0,2.90624230204e-10
1583763062163650961,342,1583763062066217063,odom,1.24143690542,0.000967426014738,0.0,0.00474732362043,-0.0194130890898,-0.00521261447629,0.99978668902,9.80100594461e-06,0.0,0.0,0.0,0.0,0.0,0.0,9.80100594461e-06,0.0,0.0,0.0,0.0,0.0,0.0,343000000.0,0.0,0.0,0.0,0.0,0.0,0.0,2.32830643654e-10,0.0,0.0,0.0,0.0,0.0,0.0,2.32830643654e-10,0.0,0.0,0.0,0.0,0.0,0.0,2.8324071435e-10
1583763062246425583,343,1583763062167217063,odom,1.2533099093,0.000834242798952,0.0,0.00523496479767,-0.0202065255793,-0.00539563318378,0.999767562291,1.02010089904e-05,0.0,0.0,0.0,0.0,0.0,0.0,1.02010089904e-05,0.0,0.0,0.0,0.0,0.0,0.0,344000000.0,0.0,0.0,0.0,0.0,0.0,0.0,4.65661287308e-10,0.0,0.0,0.0,0.0,0.0,0.0,4.65661287308e-10,0.0,0.0,0.0,0.0,0.0,0.0,2.94800380276e-10
1583763062364145236,344,1583763062267217063,odom,1.26203960682,0.000733074066191,0.0,0.00511214199611,-0.021121516085,-0.00600586020002,0.999745806296,9.99984331429e-06,0.0,0.0,0.0,0.0,0.0,0.0,9.99984331429e-06,0.0,0.0,0.0,0.0,0.0,0.0,345000000.0,0.0,0.0,0.0,0.0,0.0,0.0,2.32830643654e-10,0.0,0.0,0.0,0.0,0.0,0.0,2.32830643654e-10,0.0,0.0,0.0,0.0,0.0,0.0,2.88991648108e-10
1583763062439272137,345,1583763062366217063,odom,1.26768593198,0.00066053194063,0.0,0.0051726400277,-0.0217926566214,-0.00570064083367,0.999732877626,9.80100594461e-06,0.0,0.0,0.0,0.0,0.0,0.0,9.80100594461e-06,0.0,0.0,0.0,0.0,0.0,0.0,346000000.0,0.0,0.0,0.0,0.0,0.0,0.0,2.32830643654e-10,0.0,0.0,0.0,0.0,0.0,0.0,2.32830643654e-10,0.0,0.0,0.0,0.0,0.0,0.0,2.8324071435e-10
1583763062562198393,346,1583763062467217063,odom,1.27065913204,0.000624230804983,0.0,0.00541659835989,-0.022404201606,-0.00570092288311,0.999718066102,1.02010089904e-05,0.0,0.0,0.0,0.0,0.0,0.0,1.02010089904e-05,0.0,0.0,0.0,0.0,0.0,0.0,347000000.0,0.0,0.0,0.0,0.0,0.0,0.0,4.65661287308e-10,0.0,0.0,0.0,0.0,0.0,0.0,4.65661287308e-10,0.0,0.0,0.0,0.0,0.0,0.0,2.94800380276e-10
1583763062639781444,347,1583763062567217063,odom,1.27194865439,0.000608798250478,0.0,0.00541605011424,-0.0230752668833,-0.00557877821136,0.999703493889,9.99984331429e-06,0.0,0.0,0.0,0.0,0.0,0.0,9.99984331429e-06,0.0,0.0,0.0,0.0,0.0,0.0,348000000.0,0.0,0.0,0.0,0.0,0.0,0.0,2.32830643654e-10,0.0,0.0,0.0,0.0,0.0,0.0,2.32830643654e-10,0.0,0.0,0.0,0.0,0.0,0.0,2.88991648108e-10
1583763062763784595,348,1583763062666217063,odom,1.27251128315,0.000602300165642,0.0,0.00541565083741,-0.0235632995562,-0.00545665455208,0.99969278609,9.80100594461e-06,0.0,0.0,0.0,0.0,0.0,0.0,9.80100594461e-06,0.0,0.0,0.0,0.0,0.0,0.0,349000000.0,0.0,0.0,0.0,0.0,0.0,0.0,2.32830643654e-10,0.0,0.0,0.0,0.0,0.0,0.0,2.32830643654e-10,0.0,0.0,0.0,0.0,0.0,0.0,2.8324071435e-10
1583763062844368818,349,1583763062766217063,odom,1.27276771353,0.000599420195056,0.0,0.00547658101396,-0.0236853278186,-0.00551766911564,0.99968923553,9.99984331429e-06,0.0,0.0,0.0,0.0,0.0,0.0,9.99984331429e-06,0.0,0.0,0.0,0.0,0.0,0.0,350000000.0,0.0,0.0,0.0,0.0,0.0,0.0,2.32830643654e-10,0.0,0.0,0.0,0.0,0.0,0.0,2.32830643654e-10,0.0,0.0,0.0,0.0,0.0,0.0,2.88991648012e-10
1583763062965332448,350,1583763062866217063,odom,1.27288427871,0.000598099686216,0.0,0.00547668209182,-0.0235633263157,-0.0055176855006,0.999692117981,9.99984331429e-06,0.0,0.0,0.0,0.0,0.0,0.0,9.99984331429e-06,0.0,0.0,0.0,0.0,0.0,0.0,351000000.0,0.0,0.0,0.0,0.0,0.0,0.0,2.32830643654e-10,0.0,0.0,0.0,0.0,0.0,0.0,2.32830643654e-10,0.0,0.0,0.0,0.0,0.0,0.0,2.88991648012e-10
1583763063039694114,351,1583763062966217063,odom,1.27293809163,0.000597490918138,0.0,0.00547693445524,-0.0232583179596,-0.00551772513374,0.999699259049,9.99984331429e-06,0.0,0.0,0.0,0.0,0.0,0.0,9.99984331429e-06,0.0,0.0,0.0,0.0,0.0,0.0,352000000.0,0.0,0.0,0.0,0.0,0.0,0.0,2.32830643654e-10,0.0,0.0,0.0,0.0,0.0,0.0,2.32830643654e-10,0.0,0.0,0.0,0.0,0.0,0.0,2.88991648012e-10
1583763063173761957,352,1583763063068217063,odom,1.2729629252,0.000597210222969,0.0,0.00547728691774,-0.0228312953691,-0.00551777958479,0.999709100383,1.04039208964e-05,0.0,0.0,0.0,0.0,0.0,0.0,1.04039208964e-05,0.0,0.0,0.0,0.0,0.0,0.0,353000000.0,0.0,0.0,0.0,0.0,0.0,0.0,4.65661287308e-10,0.0,0.0,0.0,0.0,0.0,0.0,4.65661287308e-10,0.0,0.0,0.0,0.0,0.0,0.0,3.00666910855e-10
1583763063239280435,353,1583763063166217063,odom,1.27297290152,0.000597097528683,0.0,0.00553872372627,-0.0223432893817,-0.00551783863594,0.999719787448,9.6041476354e-06,0.0,0.0,0.0,0.0,0.0,0.0,9.6041476354e-06,0.0,0.0,0.0,0.0,0.0,0.0,354000000.0,0.0,0.0,0.0,0.0,0.0,0.0,2.32830643654e-10,0.0,0.0,0.0,0.0,0.0,0.0,2.32830643654e-10,0.0,0.0,0.0,0.0,0.0,0.0,2.77547578902e-10
1583763063371269648,354,1583763063266217063,odom,1.27297703123,0.000597050893693,0.0,0.00559966788325,-0.0220369442376,-0.00551753151347,0.999726249357,9.99995972961e-06,0.0,0.0,0.0,0.0,0.0,0.0,9.99995972961e-06,0.0,0.0,0.0,0.0,0.0,0.0,355000000.0,0.0,0.0,0.0,0.0,0.0,0.0,2.32830643654e-10,0.0,0.0,0.0,0.0,0.0,0.0,2.32830643654e-10,0.0,0.0,0.0,0.0,0.0,0.0,2.88991648012e-10
1583763063445238556,355,1583763063367217063,odom,1.27297869468,0.000597032112191,0.0,0.00559991851378,-0.0217319230621,-0.00551756841078,0.999732924771,1.02010089904e-05,0.0,0.0,0.0,0.0,0.0,0.0,1.02010089904e-05,0.0,0.0,0.0,0.0,0.0,0.0,356000000.0,0.0,0.0,0.0,0.0,0.0,0.0,4.65661287308e-10,0.0,0.0,0.0,0.0,0.0,0.0,4.65661287308e-10,0.0,0.0,0.0,0.0,0.0,0.0,2.94800380276e-10
1583763063568540854,356,1583763063466217063,odom,1.27297934448,0.000597024777833,0.0,0.00566115068178,-0.0214879369927,-0.0055175956185,0.999737853677,9.80100594461e-06,0.0,0.0,0.0,0.0,0.0,0.0,9.80100594461e-06,0.0,0.0,0.0,0.0,0.0,0.0,357000000.0,0.0,0.0,0.0,0.0,0.0,0.0,2.32830643654e-10,0.0,0.0,0.0,0.0,0.0,0.0,2.32830643654e-10,0.0,0.0,0.0,0.0,0.0,0.0,2.83240714252e-10
1583763063640781841,357,1583763063566217063,odom,1.27297960888,0.000597021793643,0.0,0.0057224831825,-0.0211219332543,-0.00551763676277,0.999745303968,9.99984331429e-06,0.0,0.0,0.0,0.0,0.0,0.0,9.99984331429e-06,0.0,0.0,0.0,0.0,0.0,0.0,358000000.0,0.0,0.0,0.0,0.0,0.0,0.0,2.32830643654e-10,0.0,0.0,0.0,0.0,0.0,0.0,2.32830643654e-10,0.0,0.0,0.0,0.0,0.0,0.0,2.88991648012e-10
1583763063774069013,358,1583763063666217063,odom,1.27297971464,0.000597031307282,0.0,0.00572278294779,-0.020755885859,-0.00551767912714,0.999752968575,9.99984331429e-06,0.0,0.0,0.0,0.0,0.0,0.0,9.99984331429e-06,0.0,0.0,0.0,0.0,0.0,0.0,359000000.0,0.0,0.0,0.0,0.0,0.0,0.0,2.32830643654e-10,0.0,0.0,0.0,0.0,0.0,0.0,2.32830643654e-10,0.0,0.0,0.0,0.0,0.0,0.0,2.88991648012e-10
1583763063839959328,359,1583763063766217063,odom,1.27297975693,0.00059702440574,0.0,0.00578411719843,-0.0203898725492,-0.00545668705774,0.999760482142,9.99984331429e-06,0.0,0.0,0.0,0.0,0.0,0.0,9.99984331429e-06,0.0,0.0,0.0,0.0,0.0,0.0,360000000.0,0.0,0.0,0.0,0.0,0.0,0.0,2.32830643654e-10,0.0,0.0,0.0,0.0,0.0,0.0,2.32830643654e-10,0.0,0.0,0.0,0.0,0.0,0.0,2.88991648012e-10
1583763063969572155,360,1583763063866217063,odom,1.27297977385,0.000597021647563,0.0,0.00584534998242,-0.0201458663094,-0.00545671211899,0.999765072528,9.99984331429e-06,0.0,0.0,0.0,0.0,0.0,0.0,9.99984331429e-06,0.0,0.0,0.0,0.0,0.0,0.0,361000000.0,0.0,0.0,0.0,0.0,0.0,0.0,2.32830643654e-10,0.0,0.0,0.0,0.0,0.0,0.0,2.32830643654e-10,0.0,0.0,0.0,0.0,0.0,0.0,2.88991648012e-10
1583763064046531563,361,1583763063966217063,odom,1.27297978062,0.000597020544201,0.0,0.00578446366121,-0.0199627903555,-0.00551776640351,0.999768763883,9.99984331429e-06,0.0,0.0,0.0,0.0,0.0,0.0,9.99984331429e-06,0.0,0.0,0.0,0.0,0.0,0.0,362000000.0,0.0,0.0,0.0,0.0,0.0,0.0,2.32830643654e-10,0.0,0.0,0.0,0.0,0.0,0.0,2.32830643654e-10,0.0,0.0,0.0,0.0,0.0,0.0,2.88991648012e-10
1583763064169302165,362,1583763064067217063,odom,1.27297978334,0.000597020106142,0.0,0.00572357859346,-0.0197797190679,-0.00551778848542,0.999772752865,1.02010089904e-05,0.0,0.0,0.0,0.0,0.0,0.0,1.02010089904e-05,0.0,0.0,0.0,0.0,0.0,0.0,363000000.0,0.0,0.0,0.0,0.0,0.0,0.0,4.65661287308e-10,0.0,0.0,0.0,0.0,0.0,0.0,4.65661287308e-10,0.0,0.0,0.0,0.0,0.0,0.0,2.94800380276e-10
1583763064239171582,363,1583763064167217063,odom,1.27297978442,0.000597019927244,0.0,0.00560170776003,-0.0195355966602,-0.00551781889586,0.999778242916,9.99984331429e-06,0.0,0.0,0.0,0.0,0.0,0.0,9.99984331429e-06,0.0,0.0,0.0,0.0,0.0,0.0,364000000.0,0.0,0.0,0.0,0.0,0.0,0.0,2.32830643654e-10,0.0,0.0,0.0,0.0,0.0,0.0,2.32830643654e-10,0.0,0.0,0.0,0.0,0.0,0.0,2.88991648108e-10
1583763064366647113,364,1583763064267217063,odom,1.27297978484,0.000597019855681,0.0,0.00554087193049,-0.0192915110045,-0.00545681386872,0.99978365636,9.99984331429e-06,0.0,0.0,0.0,0.0,0.0,0.0,9.99984331429e-06,0.0,0.0,0.0,0.0,0.0,0.0,365000000.0,0.0,0.0,0.0,0.0,0.0,0.0,2.32830643654e-10,0.0,0.0,0.0,0.0,0.0,0.0,2.32830643654e-10,0.0,0.0,0.0,0.0,0.0,0.0,2.88991648012e-10
1583763064508893968,365,1583763064366217063,odom,1.27297978501,0.00059701982684,0.0,0.00560176175595,-0.0190463269578,-0.00545649862714,0.999788019691,9.80100594461e-06,0.0,0.0,0.0,0.0,0.0,0.0,9.80100594461e-06,0.0,0.0,0.0,0.0,0.0,0.0,366000000.0,0.0,0.0,0.0,0.0,0.0,0.0,2.32830643654e-10,0.0,0.0,0.0,0.0,0.0,0.0,2.32830643654e-10,0.0,0.0,0.0,0.0,0.0,0.0,2.8324071435e-10
1583763064569963317,366,1583763064473635990,odom,1.27297978509,0.000597019816245,0.0,0.00560195634759,-0.0188022741801,-0.00551755382606,0.999792303016,1.15387374535e-05,0.0,0.0,0.0,0.0,0.0,0.0,1.15387374535e-05,0.0,0.0,0.0,0.0,0.0,0.0,367000000.0,0.0,0.0,0.0,0.0,0.0,0.0,4.65661287308e-10,0.0,0.0,0.0,0.0,0.0,0.0,4.65661287308e-10,0.0,0.0,0.0,0.0,0.0,0.0,3.33462430925e-10
1583763064674144216,367,1583763064573635990,odom,1.27297978511,0.000597019811301,0.0,0.00566308620897,-0.0186802859908,-0.00551756453232,0.999794245258,9.99984331429e-06,0.0,0.0,0.0,0.0,0.0,0.0,9.99984331429e-06,0.0,0.0,0.0,0.0,0.0,0.0,368000000.0,0.0,0.0,0.0,0.0,0.0,0.0,2.32830643654e-10,0.0,0.0,0.0,0.0,0.0,0.0,2.32830643654e-10,0.0,0.0,0.0,0.0,0.0,0.0,2.88991648108e-10
1583763064766555359,368,1583763064673635990,odom,1.27297978512,0.000597019809323,0.0,0.00560220146499,-0.018497211615,-0.00551758527288,0.999797991973,9.99984331429e-06,0.0,0.0,0.0,0.0,0.0,0.0,9.99984331429e-06,0.0,0.0,0.0,0.0,0.0,0.0,369000000.0,0.0,0.0,0.0,0.0,0.0,0.0,2.32830643654e-10,0.0,0.0,0.0,0.0,0.0,0.0,2.32830643654e-10,0.0,0.0,0.0,0.0,0.0,0.0,2.88991648012e-10
1583763064847828008,369,1583763064772635990,odom,1.27297978513,0.000597019808526,0.0,0.00566338234986,-0.0183142141813,-0.00545657147547,0.999801351013,9.80100594461e-06,0.0,0.0,0.0,0.0,0.0,0.0,9.80100594461e-06,0.0,0.0,0.0,0.0,0.0,0.0,370000000.0,0.0,0.0,0.0,0.0,0.0,0.0,2.32830643654e-10,0.0,0.0,0.0,0.0,0.0,0.0,2.32830643654e-10,0.0,0.0,0.0,0.0,0.0,0.0,2.8324071435e-10
1583763064944217896,370,1583763064873635990,odom,1.27297978513,0.000597019808216,0.0,0.00566343131703,-0.0182532004302,-0.00545657757364,0.999802466481,1.02010089904e-05,0.0,0.0,0.0,0.0,0.0,0.0,1.02010089904e-05,0.0,0.0,0.0,0.0,0.0,0.0,371000000.0,0.0,0.0,0.0,0.0,0.0,0.0,4.65661287308e-10,0.0,0.0,0.0,0.0,0.0,0.0,4.65661287308e-10,0.0,0.0,0.0,0.0,0.0,0.0,2.94800380276e-10
1583763065063940665,371,1583763064974635990,odom,1.27297978513,0.00059701980809,0.0,0.00560244794115,-0.0181921500952,-0.00545658556373,0.99980392274,1.02010089904e-05,0.0,0.0,0.0,0.0,0.0,0.0,1.02010089904e-05,0.0,0.0,0.0,0.0,0.0,0.0,372000000.0,0.0,0.0,0.0,0.0,0.0,0.0,4.65661287308e-10,0.0,0.0,0.0,0.0,0.0,0.0,4.65661287308e-10,0.0,0.0,0.0,0.0,0.0,0.0,2.94800380276e-10
1583763065139307843,372,1583763065072635990,odom,1.27297978513,0.00059701980804,0.0,0.00554146434635,-0.0181310994473,-0.00545659351298,0.999805371556,9.60403122008e-06,0.0,0.0,0.0,0.0,0.0,0.0,9.60403122008e-06,0.0,0.0,0.0,0.0,0.0,0.0,373000000.0,0.0,0.0,0.0,0.0,0.0,0.0,2.32830643654e-10,0.0,0.0,0.0,0.0,0.0,0.0,2.32830643654e-10,0.0,0.0,0.0,0.0,0.0,0.0,2.77547578902e-10
1583763065245436821,373,1583763065174635990,odom,1.27297978513,0.000597019808019,0.0,0.00554146248951,-0.0181310932575,-0.00551762424406,0.999805036731,1.04040373117e-05,0.0,0.0,0.0,0.0,0.0,0.0,1.04040373117e-05,0.0,0.0,0.0,0.0,0.0,0.0,374000000.0,0.0,0.0,0.0,0.0,0.0,0.0,4.65661287308e-10,0.0,0.0,0.0,0.0,0.0,0.0,4.65661287308e-10,0.0,0.0,0.0,0.0,0.0,0.0,3.00666910855e-10
1583763065338551068,374,1583763065272635990,odom,1.27297978513,0.000597019808011,0.0,0.00554151125883,-0.0180700788756,-0.00551763034851,0.999806141038,9.60403122008e-06,0.0,0.0,0.0,0.0,0.0,0.0,9.60403122008e-06,0.0,0.0,0.0,0.0,0.0,0.0,375000000.0,0.0,0.0,0.0,0.0,0.0,0.0,2.32830643654e-10,0.0,0.0,0.0,0.0,0.0,0.0,2.32830643654e-10,0.0,0.0,0.0,0.0,0.0,0.0,2.77547578902e-10
1583763065455998185,375,1583763065374635990,odom,1.27297978513,0.000597019808008,0.0,0.00560259257378,-0.0180091008022,-0.00551763452003,0.999806900833,1.04040373117e-05,0.0,0.0,0.0,0.0,0.0,0.0,1.04040373117e-05,0.0,0.0,0.0,0.0,0.0,0.0,376000000.0,0.0,0.0,0.0,0.0,0.0,0.0,4.65661287308e-10,0.0,0.0,0.0,0.0,0.0,0.0,4.65661287308e-10,0.0,0.0,0.0,0.0,0.0,0.0,3.00666910855e-10
1583763065544327470,376,1583763065473635990,odom,1.27297978513,0.000597019808006,0.0,0.00554165744365,-0.0178870345218,-0.00551764853866,0.999809431634,9.80088952929e-06,0.0,0.0,0.0,0.0,0.0,0.0,9.80088952929e-06,0.0,0.0,0.0,0.0,0.0,0.0,377000000.0,0.0,0.0,0.0,0.0,0.0,0.0,2.32830643654e-10,0.0,0.0,0.0,0.0,0.0,0.0,2.32830643654e-10,0.0,0.0,0.0,0.0,0.0,0.0,2.83240714252e-10
1583763065643079211,377,1583763065572635990,odom,1.27297978513,0.000597019808005,0.0,0.00554175479755,-0.0177650039524,-0.00551766056275,0.999811606759,9.80088952929e-06,0.0,0.0,0.0,0.0,0.0,0.0,9.80088952929e-06,0.0,0.0,0.0,0.0,0.0,0.0,378000000.0,0.0,0.0,0.0,0.0,0.0,0.0,2.32830643654e-10,0.0,0.0,0.0,0.0,0.0,0.0,2.32830643654e-10,0.0,0.0,0.0,0.0,0.0,0.0,2.8324071435e-10
1583763065770489002,378,1583763065675635990,odom,1.27297978513,0.000597019808005,0.0,0.00548072143735,-0.0177649672924,-0.0055176624542,0.999811943833,1.06090446934e-05,0.0,0.0,0.0,0.0,0.0,0.0,1.06090446934e-05,0.0,0.0,0.0,0.0,0.0,0.0,379000000.0,0.0,0.0,0.0,0.0,0.0,0.0,4.65661287308e-10,0.0,0.0,0.0,0.0,0.0,0.0,4.65661287308e-10,0.0,0.0,0.0,0.0,0.0,0.0,3.06591239552e-10
1583763065847816120,379,1583763065774635990,odom,1.27297978513,0.000597019808006,0.0,0.00541968848146,-0.0177649305665,-0.00551766432509,0.99981227718,9.80112235993e-06,0.0,0.0,0.0,0.0,0.0,0.0,9.80112235993e-06,0.0,0.0,0.0,0.0,0.0,0.0,380000000.0,0.0,0.0,0.0,0.0,0.0,0.0,2.32830643654e-10,0.0,0.0,0.0,0.0,0.0,0.0,2.32830643654e-10,0.0,0.0,0.0,0.0,0.0,0.0,2.83240714252e-10
1583763065971477817,380,1583763065873635990,odom,1.27297978513,0.000597019808005,0.0,0.00554170613086,-0.0178260193367,-0.00551765456097,0.999810521057,9.80088952929e-06,0.0,0.0,0.0,0.0,0.0,0.0,9.80088952929e-06,0.0,0.0,0.0,0.0,0.0,0.0,381000000.0,0.0,0.0,0.0,0.0,0.0,0.0,2.32830643654e-10,0.0,0.0,0.0,0.0,0.0,0.0,2.32830643654e-10,0.0,0.0,0.0,0.0,0.0,0.0,2.8324071435e-10
1583763066069782009,381,1583763065973635990,odom,1.27297978513,0.000597019808005,0.0,0.00554175479755,-0.0177650039524,-0.00551766056275,0.999811606759,9.99995972961e-06,0.0,0.0,0.0,0.0,0.0,0.0,9.99995972961e-06,0.0,0.0,0.0,0.0,0.0,0.0,382000000.0,0.0,0.0,0.0,0.0,0.0,0.0,2.32830643654e-10,0.0,0.0,0.0,0.0,0.0,0.0,2.32830643654e-10,0.0,0.0,0.0,0.0,0.0,0.0,2.88991648012e-10
1583763066174963755,382,1583763066074635990,odom,1.27297978513,0.000597019808005,0.0,0.00554185206932,-0.0176429725892,-0.00551767250469,0.999813767001,1.02010089904e-05,0.0,0.0,0.0,0.0,0.0,0.0,1.02010089904e-05,0.0,0.0,0.0,0.0,0.0,0.0,383000000.0,0.0,0.0,0.0,0.0,0.0,0.0,4.65661287308e-10,0.0,0.0,0.0,0.0,0.0,0.0,4.65661287308e-10,0.0,0.0,0.0,0.0,0.0,0.0,2.94800380276e-10
1583763066278569454,383,1583763066173635990,odom,1.27297978513,0.000597019808005,0.0,0.00560288503367,-0.0176430092244,-0.0055176705929,0.999813426203,9.80100594461e-06,0.0,0.0,0.0,0.0,0.0,0.0,9.80100594461e-06,0.0,0.0,0.0,0.0,0.0,0.0,384000000.0,0.0,0.0,0.0,0.0,0.0,0.0,2.32830643654e-10,0.0,0.0,0.0,0.0,0.0,0.0,2.32830643654e-10,0.0,0.0,0.0,0.0,0.0,0.0,2.83240714252e-10
1583763066369216036,384,1583763066274635990,odom,1.27297978513,0.000597019808005,0.0,0.00560293370433,-0.0175819932677,-0.00551767653317,0.999814500741,1.02010089904e-05,0.0,0.0,0.0,0.0,0.0,0.0,1.02010089904e-05,0.0,0.0,0.0,0.0,0.0,0.0,385000000.0,0.0,0.0,0.0,0.0,0.0,0.0,4.65661287308e-10,0.0,0.0,0.0,0.0,0.0,0.0,4.65661287308e-10,0.0,0.0,0.0,0.0,0.0,0.0,2.94800380276e-10
1583763066474101768,385,1583763066373635990,odom,1.27297978513,0.000597019808005,0.0,0.00560288503367,-0.0176430092244,-0.0055176705929,0.999813426203,9.80100594461e-06,0.0,0.0,0.0,0.0,0.0,0.0,9.80100594461e-06,0.0,0.0,0.0,0.0,0.0,0.0,386000000.0,0.0,0.0,0.0,0.0,0.0,0.0,2.32830643654e-10,0.0,0.0,0.0,0.0,0.0,0.0,2.32830643654e-10,0.0,0.0,0.0,0.0,0.0,0.0,2.83240714252e-10
1583763066576567096,386,1583763066473635990,odom,1.27297978513,0.000597019808005,0.0,0.00560278763007,-0.0177650405459,-0.00551765865076,0.999811265964,9.99984331429e-06,0.0,0.0,0.0,0.0,0.0,0.0,9.99984331429e-06,0.0,0.0,0.0,0.0,0.0,0.0,387000000.0,0.0,0.0,0.0,0.0,0.0,0.0,2.32830643654e-10,0.0,0.0,0.0,0.0,0.0,0.0,2.32830643654e-10,0.0,0.0,0.0,0.0,0.0,0.0,2.88991648012e-10
1583763066657085444,387,1583763066573635990,odom,1.27297978513,0.000597019808005,0.0,0.00554180530144,-0.0177039944141,-0.00545663534587,0.999813023573,9.99984331429e-06,0.0,0.0,0.0,0.0,0.0,0.0,9.99984331429e-06,0.0,0.0,0.0,0.0,0.0,0.0,388000000.0,0.0,0.0,0.0,0.0,0.0,0.0,2.32830643654e-10,0.0,0.0,0.0,0.0,0.0,0.0,2.32830643654e-10,0.0,0.0,0.0,0.0,0.0,0.0,2.88991648012e-10
1583763066771000497,388,1583763066673635990,odom,1.27297978513,0.000597019808005,0.0,0.00554185206932,-0.0176429725892,-0.00551767250469,0.999813767001,9.99984331429e-06,0.0,0.0,0.0,0.0,0.0,0.0,9.99984331429e-06,0.0,0.0,0.0,0.0,0.0,0.0,389000000.0,0.0,0.0,0.0,0.0,0.0,0.0,2.32830643654e-10,0.0,0.0,0.0,0.0,0.0,0.0,2.32830643654e-10,0.0,0.0,0.0,0.0,0.0,0.0,2.88991648012e-10
