%time,field.x,field.y,field.z
1583763060237706164,-0.0500539258494,-0.00769097688683,7.04153621956e-05
1583763060237750287,-0.0500539258494,-0.00769097688683,7.04153621956e-05
1583763060237936443,-0.0500539099922,-0.00756894763954,6.73605984804e-05
1583763060237981842,-0.0500534400334,-0.00744997251882,-5.77269776792e-05
1583763060238009194,-0.0500534400334,-0.00744997251882,-5.77269776792e-05
1583763060238025842,-0.0500539099922,-0.00756894763954,6.73605984804e-05
1583763060238046513,-0.0502979747878,-0.00756891618631,6.82840501196e-05
1583763060238065591,-0.0502979907585,-0.00769094468626,7.13536965871e-05
1583763060238126828,-0.0504200226516,-0.00769092850018,7.18228586701e-05
1583763060238167414,-0.0505424996129,-0.00756580003864,0.000191238846625
1583763060238205664,-0.0504204681559,-0.00756582334698,0.000190777505137
1583763060238248843,-0.050542038085,-0.00756888450791,6.92074883852e-05
1583763060238289402,-0.0506636072681,-0.00757196043811,-5.2361782262e-05
1583763060238346629,-0.0506640691695,-0.00756886858427,6.96692024771e-05
1583763060238389039,-0.0506640691695,-0.00756886858427,6.96692024771e-05
1583763060238426861,-0.0506640691695,-0.00756886858427,6.96692024771e-05
1583763060238458544,-0.050542038085,-0.00756888450791,6.92074883852e-05
1583763060238498556,-0.050542038085,-0.00756888450791,6.92074883852e-05
1583763060238528585,-0.0504204681559,-0.00756582334698,0.000190777505137
1583763060238566651,-0.0504204450627,-0.00744379470109,0.000187700353204
1583763060238612420,-0.0504204450627,-0.00744379470109,0.000187700353204
1583763060238661844,-0.0501768048095,-0.00731874921616,0.000305762655283
1583763060238713277,-0.0500552556942,-0.00743775359236,0.000430404215622
1583763060238766557,-0.0500552935031,-0.00755978335601,0.000433459154895
1583763060239496082,-0.0501768652818,-0.00756280759258,0.000311887288573
1583763060239537978,-0.0502988974843,-0.00756277695557,0.000312348264407
1583763060239586924,-0.0504209293121,-0.00756274626239,0.000312809235084
1583763060239619050,-0.0504209293121,-0.00756274626239,0.000312809235084
1583763060239652558,-0.050420960222,-0.00768477438445,0.000315886436186
1583763060239734694,-0.0502989283375,-0.00768480545266,0.000315418024238
1583763060239788141,-0.0501769272488,-0.00780686527766,0.000318011930769
1583763060239835307,-0.0501769587929,-0.00792889403323,0.000321074259759
1583763060239872703,-0.0501764997796,-0.00805398493966,0.000202103882883
1583763060239909469,-0.0501764753032,-0.00793195624133,0.00019904160791
1583763060239960092,-0.0501769587929,-0.00792889403323,0.000321074259759
1583763060240000958,-0.0502989595654,-0.00780683389238,0.000318487789294
1583763060240040747,-0.0502989595654,-0.00780683389238,0.000318487789294
1583763060240100098,-0.050420960222,-0.00768477438445,0.000315886436186
1583763060240258888,-0.050420960222,-0.00768477438445,0.000315886436186
1583763060240313309,-0.0504209915074,-0.00780680244914,0.000318963642524
1583763060240383616,-0.0502989283375,-0.00768480545266,0.000315418024238
1583763060240439100,-0.0501769272488,-0.00780686527766,0.000318011930769
1583763060240484233,-0.0502989595654,-0.00780683389238,0.000318487789294
1583763060240535080,-0.0502989595654,-0.00780683389238,0.000318487789294
1583763060240582676,-0.0495718597643,-0.00765171193351,0.00165498522643
1583763060240637376,-0.0495718597643,-0.00765171193351,0.00165498522643
1583763060240687000,-0.0482311190722,-0.00788818404876,0.00202187895305
1583763060240738730,-0.0466476359458,-0.00799488834633,0.00275076386999
1583763060240787436,-0.0451817904307,-0.00798827662072,0.00311089481813
1583763060240850347,-0.0434760560138,-0.00846862692942,0.00360292132346
1583763060240896920,-0.039813145819,-0.0087166711974,0.00371422678437
1583763060240953120,-0.0384726138905,-0.00944919470263,0.00384456728169
1583763060240993466,-0.0371317148615,-0.00969145400866,0.00408691265416
1583763060241044436,-0.0371317148615,-0.00969145400866,0.00408691265416
1583763060241103767,-0.0348112801977,-0.0105613816806,0.00348034691331
1583763060241152154,-0.0348112801977,-0.0105613816806,0.00348034691331
1583763060241212694,-0.0348123096833,-0.0119081994995,0.00325961359982
1583763060241286932,-0.0356650313589,-0.0109303197956,0.00324725195374
1583763060241357460,-0.0361531080259,-0.0116661858932,0.00301903941673
1583763060241422238,-0.037373142189,-0.0117885379882,0.00290635257778
1583763060241488289,-0.037373142189,-0.0117885379882,0.00290635257778
1583763060241543979,-0.0382269808946,-0.0119115777301,0.00279164690655
1583763060241614184,-0.0394474462618,-0.0114191596866,0.00291129703179
1583763060241667104,-0.0412812453486,-0.0105551016838,0.00327039743221
1583763060241749273,-0.0422559463064,-0.00957705842313,0.00325487608736
1583763060241818474,-0.0422559463064,-0.00957705842313,0.00325487608736
1583763060241894722,-0.0433564334738,-0.0100580213874,0.00351477624843
1583763060242021541,-0.0442119602899,-0.0100510266045,0.00376312573379
1583763060242135671,-0.0442119602899,-0.0100510266045,0.00376312573379
1583763060242929563,-0.0446972715246,-0.00981689771797,0.00327193316085
1583763060243128256,-0.0446972715246,-0.00981689771797,0.00327193316085
1583763060243288890,-0.0440840775968,-0.00983141886417,0.00265874270769
1583763060243359748,-0.0442040246384,-0.00959526330922,0.00228781203671
1583763060243560151,-0.0434693726783,-0.00850312698738,0.00201634430843
1583763060243621255,-0.0434693726783,-0.00850312698738,0.00201634430843
1583763060243706281,-0.0438327539675,-0.00630868483765,0.00184768734975
1583763060243942084,-0.0438327539675,-0.00630868483765,0.00184768734975
1583763060243998790,-0.0444435395311,-0.00581178569561,0.00220487103208
1583763060244054661,-0.0448080260036,-0.00557822287053,0.00171229709864
1583763060244126339,-0.0448080260036,-0.00557822287053,0.00171229709864
1583763060244196708,-0.0461487587149,-0.00510011694066,0.00121660419543
1583763060244371706,-0.0461487587149,-0.00510011694066,0.00121660419543
1583763060244402088,-0.0472495460686,-0.00448949860531,0.0012050514097
1583763060244653364,-0.0484695805708,-0.00486071910974,0.000972574763613
1583763060244707855,-0.0495675433818,-0.00474111179194,0.000850172343947
1583763060246241391,-0.0529872046086,-0.00400756028847,0.000838889860429
1583763060246256069,-0.0538411093852,-0.00388841584951,0.000715278909853
1583763060246283380,-0.0538411093852,-0.00388841584951,0.000715278909853
1583763060278442847,-0.0553045017486,-0.004145356045,0.000236772847259
1583763060377650702,-0.0557921111501,-0.00464015745299,7.36087743888e-06
1583763060477678040,-0.0562822330677,-0.00453555596472,-0.000605065369317
1583763060578076714,-0.0559120105642,-0.00503009035668,-0.000836262006929
1583763060678344472,-0.0553013442662,-0.00491460625601,-0.00108522314698
1583763060777516718,-0.0553013442662,-0.00491460625601,-0.00108522314698
1583763060877605593,-0.0544462813056,-0.00540893941722,-0.00131809506236
1583763060978697463,-0.0520030016002,-0.00615873181708,-0.00203789688097
1583763061077478180,-0.0520030016002,-0.00615873181708,-0.00203789688097
1583763061177873163,-0.0500470193273,-0.00652260347815,-0.0020346824689
1583763061277957036,-0.0467470625826,-0.0077627146127,-0.00299331837417
1583763061377965016,-0.0467470625826,-0.0077627146127,-0.00299331837417
1583763061478438939,-0.0431991622227,-0.00948161847606,-0.00370236655961
1583763061577871703,-0.0417326070697,-0.00960873360915,-0.00407296857412
1583763061678355130,-0.040145231239,-0.00997179868808,-0.00407330934592
1583763061778138010,-0.040145231239,-0.00997179868808,-0.00407330934592
1583763061878063503,-0.0391628855877,-0.010467015556,-0.00455661758509
1583763061978316768,-0.0382848648497,-0.00899300586815,-0.010571881028
1583763062077671158,-0.0382848648497,-0.00899300586815,-0.010571881028
1583763062178056133,-0.0403519105692,-0.0107178813245,-0.0107726250863
1583763062278483032,-0.0421773657933,-0.0105091627148,-0.0119882008689
1583763062378374167,-0.0421773657933,-0.0105091627148,-0.0119882008689
1583763062477975707,-0.0435224432055,-0.0106258293288,-0.0113681119207
1583763062578052432,-0.0447428622782,-0.011121440359,-0.0113512431829
1583763062678114736,-0.0460867399287,-0.0111232697792,-0.0110995172237
1583763062777791024,-0.0473071912438,-0.0112490301339,-0.0109676468198
1583763062877451353,-0.0473071912438,-0.0112490301339,-0.0109676468198
1583763062979266086,-0.0464529070621,-0.011244457213,-0.0109725606809
1583763063077418301,-0.0464529070621,-0.011244457213,-0.0109725606809
1583763063178108219,-0.0446215867898,-0.011356683743,-0.0109803578723
1583763063277527202,-0.0446215867898,-0.011356683743,-0.0109803578723
1583763063378044200,-0.0433977966508,-0.0114714615099,-0.0109841335807
1583763063477566436,-0.0433977966508,-0.0114714615099,-0.0109841335807
1583763063578060405,-0.0421760404921,-0.0117089825994,-0.0109861347699
1583763063677948784,-0.0421760404921,-0.0117089825994,-0.0109861347699
1583763063777433723,-0.0407115420045,-0.011820673401,-0.0108703422746
1583763063877640018,-0.0407115420045,-0.011820673401,-0.0108703422746
1583763063977761916,-0.0398564494257,-0.0118185592114,-0.0109975366333
1583763064077748725,-0.0398564494257,-0.0118185592114,-0.0109975366333
1583763064178311374,-0.0394909489175,-0.0116945441081,-0.0110021464932
1583763064277531052,-0.0385171918514,-0.0113207948867,-0.0108929453355
1583763064378003883,-0.038026000587,-0.0114395260681,-0.010892790669
1583763064477363354,-0.038026000587,-0.0114395260681,-0.010892790669
1583763064577852871,-0.0372923328956,-0.0115599305116,-0.0110168319643
1583763064677394036,-0.0369268396808,-0.0114359095484,-0.0110212354404
1583763064777806612,-0.0365607422623,-0.0115537468653,-0.0108990863056
1583763064877532874,-0.0365607422623,-0.0115537468653,-0.0108990863056
1583763064978334385,-0.0364386898925,-0.0115530946199,-0.0108998035146
1583763065077520218,-0.0363172898093,-0.0114303976133,-0.0109027333577
1583763065177806577,-0.0361958899023,-0.0113076998954,-0.0109056483086
1583763065277770015,-0.0361951876461,-0.011309905094,-0.0110277011377
1583763065378510663,-0.0360731347222,-0.0113092445978,-0.0110284034887
1583763065478158691,-0.0359504209948,-0.0114306294948,-0.0110269153963
1583763065578300500,-0.035462866104,-0.0113059408099,-0.0110319140568
1583763065677497592,-0.035462866104,-0.0113059408099,-0.0110319140568
1583763065777854723,-0.0354641886708,-0.0110618465476,-0.0110362354695
1583763065877567668,-0.0354641886708,-0.0110618465476,-0.0110362354695
1583763065978025327,-0.035462866104,-0.0113059408099,-0.0110319140568
1583763066077390808,-0.0352187568076,-0.0113046186849,-0.0110333177301
1583763066178192412,-0.0352187568076,-0.0113046186849,-0.0110333177301
1583763066277931552,-0.0352180957465,-0.0114266657555,-0.0110311720435
1583763066378177681,-0.0350960406181,-0.0114260048242,-0.0110318812078
1583763066477419862,-0.035462205218,-0.011427987354,-0.0110297534775
1583763066578549736,-0.035462205218,-0.011427987354,-0.0110297534775
1583763066677358973,-0.0353415132924,-0.0113031267125,-0.0109105612453
1583763066778446033,-0.0352194584343,-0.0113024730524,-0.0109112627804
1583763066877523275,-0.0352194584343,-0.0113024730524,-0.0109112627804
1583763066978575817,-0.0352187568076,-0.0113046186849,-0.0110333177301
1583763067077484384,-0.035583549986,-0.0114308158217,-0.0111510982456
1583763067177653630,-0.035583549986,-0.0114308158217,-0.0111510982456
1583763067277457517,-0.0357069743474,-0.0113072625865,-0.011030510067
1583763067377385482,-0.0357069743474,-0.0113072625865,-0.011030510067
1583763067477618231,-0.0359503791648,-0.0113107742347,-0.0111511590461
1583763067578273609,-0.0360717643828,-0.0114334873931,-0.0111482587842
1583763067677825175,-0.036316537697,-0.0113127780598,-0.0111490511886
1583763067777865416,-0.0363158348231,-0.0113149905293,-0.0112711035895
1583763067877854992,-0.0363158348231,-0.0113149905293,-0.0112711035895
1583763067978210873,-0.0363144490689,-0.011439247334,-0.0113909434703
1583763068077651874,-0.0365592640148,-0.0114383848314,-0.0112674699915
1583763068177974210,-0.0365592640148,-0.0114383848314,-0.0112674699915
1583763068277617142,-0.0365592640148,-0.0114383848314,-0.0112674699915
1583763068377997322,-0.0365585532628,-0.01144061202,-0.0113895218584
1583763068478308715,-0.0365578710991,-0.0115626558176,-0.0113872946089
1583763068578147464,-0.0366792043269,-0.0115655722159,-0.0115086278368
1583763068677564619,-0.0365564632916,-0.011686926462,-0.0115071194048
1583763068778146467,-0.0365571892067,-0.0116846995321,-0.0113850674412
1583763068877474198,-0.036313084656,-0.0116833359316,-0.0113865188368
1583763068978426080,-0.036191031976,-0.0116826539962,-0.0113872444122
1583763069077570627,-0.036191031976,-0.0116826539962,-0.0113872444122
1583763069178416463,-0.0361917141372,-0.0115606094689,-0.0113894492421
1583763069278412525,-0.0361917141372,-0.0115606094689,-0.0113894492421
1583763069378517981,-0.036191031976,-0.0116826539962,-0.0113872444122
1583763069477829479,-0.0360675640113,-0.011806213746,-0.0115078257359
1583763069577837391,-0.0360675640113,-0.011806213746,-0.0115078257359
1583763069677847576,-0.0359462003063,-0.0116834795577,-0.0115107486269
1583763069777666332,-0.0358248723278,-0.0116806076498,-0.0113894206484
1583763069877877274,-0.0358248367815,-0.0115607446599,-0.0115136566256
1583763069978320632,-0.0359462003063,-0.0116834795577,-0.0115107486269
1583763070077577997,-0.0359476081514,-0.0115592447907,-0.0113908852557
1583763070178431883,-0.0358255547578,-0.0115585623179,-0.01139160314
1583763070277523887,-0.0358255547578,-0.0115585623179,-0.01139160314
1583763070377848807,-0.0358255547578,-0.0115585623179,-0.01139160314
1583763070477803941,-0.0358255547578,-0.0115585623179,-0.01139160314
1583763070578157089,-0.0358255547578,-0.0115585623179,-0.01139160314
1583763070678036677,-0.0358255547578,-0.0115585623179,-0.01139160314
1583763070778920740,-0.0358262374537,-0.0114365169029,-0.0113937857133
1583763070877889839,-0.0357034734349,-0.0114380090563,-0.011516549732
1583763070978382790,-0.0357034734349,-0.0114380090563,-0.011516549732
1583763071078700801,-0.035582130047,-0.0114351511581,-0.0113952063441
1583763071177975773,-0.0353636152965,-0.0117180664881,-0.00675203358864
1583763071277514953,-0.0350998685767,-0.0121496095314,0.0103468543202
1583763071377858836,-0.0353529302512,-0.0127853412824,0.0296518282556
1583763071477545297,-0.035628034758,-0.0135256534062,0.0496935210669
1583763071578142375,-0.0358034546068,-0.0139889094025,0.0715658892395
1583763071677755603,-0.0358741592951,-0.0143164508062,0.094424177575
1583763071778447125,-0.0359578046967,-0.0147835684542,0.116322017609
1583763071878012364,-0.0360043866342,-0.0148023114266,0.136018005541
1583763071978060396,-0.0357472576251,-0.0139843650249,0.155956910744
1583763072077541497,-0.0353814341647,-0.013263704308,0.178238293254
1583763072178601502,-0.0351432986048,-0.0128003424596,0.199562260266
1583763072277641979,-0.0353352870706,-0.0117957858192,0.2214015299
1583763072378249123,-0.0352155637764,-0.0114512320632,0.242536165596
1583763072477579980,-0.0350941949864,-0.0111034669825,0.264063515846
1583763072578418378,-0.0348667268797,-0.0108951208169,0.285745181955
1583763072678600230,-0.0348984831601,-0.0107800437106,0.307222532912
1583763072778606801,-0.0347515462262,-0.0103258828726,0.328610151319
1583763072878146414,-0.0346205751325,-0.00999564063065,0.350040805012
1583763072978298455,-0.034626661518,-0.00977245159032,0.371135115446
1583763073077969170,-0.0345130184689,-0.00956896409273,0.392513954925
1583763073178016717,-0.034541374444,-0.00946900252911,0.413558897371
1583763073278088880,-0.0345217765819,-0.00912390300626,0.435032324613
1583763073378129471,-0.0346095699831,-0.00925713946755,0.456448286208
1583763073477752493,-0.0346412319289,-0.00966552488639,0.477302692071
1583763073578496155,-0.0348299722729,-0.00965376134363,0.498416425683
1583763073677544570,-0.0349674073473,-0.00991639615659,0.519003038298
1583763073777870447,-0.0351775756972,-0.0104091884977,0.539743681356
1583763073877902737,-0.034888490276,-0.0103969417113,0.56145978934
1583763073977771417,-0.0349710762476,-0.0107994902433,0.58256454769
1583763074077973525,-0.0351037920497,-0.0109577474806,0.60222582596
1583763074178136248,-0.0348101221475,-0.010888409908,0.612455855206
1583763074278375191,-0.0350698223193,-0.0103593066306,0.616424726562
1583763074378059222,-0.0349784424653,-0.00920495851687,0.618334303256
1583763074477552836,-0.0348721021427,-0.00883166734291,0.619718031515
1583763074578075909,-0.0348803970402,-0.00843669141199,0.62025074005
1583763074677749964,-0.034998326586,-0.00839269967753,0.620636530815
1583763074779353894,-0.0350025248734,-0.00800457641032,0.620746016206
1583763074878046417,-0.0351931360288,-0.00819752621487,0.620866431874
1583763074978818388,-0.0353050123222,-0.00854615944094,0.620873045571
1583763075077395858,-0.0353400587008,-0.0090459371597,0.62103557421
1583763075178045406,-0.0353730608793,-0.00954808775943,0.621044605945
1583763075277557977,-0.0352526223592,-0.00997356299571,0.620935272682
1583763075378410695,-0.0354017707034,-0.0104361701068,0.62106046493
1583763075477505015,-0.0355136931017,-0.0107847989792,0.621067240514
1583763075577531116,-0.0355094019559,-0.0111707321134,0.62107407042
1583763075678275360,-0.0355051134363,-0.0115566644745,0.621080898687
1583763075778258792,-0.0355008281111,-0.0119425978071,0.621087725349
1583763075877382247,-0.0355754055229,-0.0121773072985,0.620976087738
1583763075978048342,-0.0356500722241,-0.0124074269427,0.621096903604
1583763076077861316,-0.035571168131,-0.0125609425523,0.621099144703
1583763076177828859,-0.035529574818,-0.0128306655786,0.621103675661
1583763076277874083,-0.0354133586378,-0.0128679750689,0.621103590574
1583763076377923952,-0.0353717680952,-0.0131376979333,0.62110809388
1583763076477327938,-0.0353343572247,-0.0130237876072,0.620989576668
1583763076578342997,-0.0354878848968,-0.0131026945513,0.620991977078
1583763076677532526,-0.0354089715651,-0.0132562090872,0.620994178218
1583763076778126239,-0.0352927507293,-0.0132935132782,0.620994066023
1583763076877643393,-0.0353674926389,-0.0135236266963,0.621114891467
1583763076978193426,-0.0353676187025,-0.013521319286,0.621231105789
1583763077077873958,-0.0355584714592,-0.0137164046791,0.621235865501
1583763077178230063,-0.0356746830593,-0.013679087572,0.621235997029
1583763077277461029,-0.0358282150223,-0.0137579707627,0.621238460809
1583763077378337286,-0.0359468992483,-0.0137184348333,0.621392127313
1583763077477599185,-0.0360257807789,-0.0135649057491,0.621389902632
1583763077577877319,-0.0361419929893,-0.0135275784666,0.621390016459
1583763077677721314,-0.0360257807789,-0.0135649057491,0.621389902632
1583763077778015110,-0.0360606384703,-0.0136833358109,0.621238714287
1583763077877526515,-0.0360629894741,-0.0136834581634,0.621276037087
1583763077978283336,-0.0359444277716,-0.0137206529752,0.621238589718
1583763078077872457,-0.0358306847838,-0.0137557630123,0.621391998753
1583763078178821551,-0.0356771407142,-0.0136768884945,0.621389535117
1583763078277660369,-0.0354447138085,-0.0137515435439,0.621389268416
1583763078378037302,-0.0353261896699,-0.0137887290965,0.62135179955
1583763078477514359,-0.035209835012,-0.0138283563097,0.621235444892
1583763078577879137,-0.0351334028447,-0.0139797297534,0.621391136296
1583763078678131053,-0.0352122858055,-0.0138261987987,0.621388984359
1583763078778252613,-0.0352122858055,-0.0138261987987,0.621388984359
1583763078877668101,-0.035249617188,-0.013942401838,0.621391290886
1583763078978374227,-0.0352869488445,-0.0140586046206,0.621393601752
1583763079077643072,-0.0353242807757,-0.0141748071454,0.621395916956
1583763079178662902,-0.0354406547587,-0.0141351556898,0.621512290939
1583763079277828661,-0.0353244451651,-0.0141724900379,0.621512128857
1583763079378430444,-0.0352082352961,-0.0142098244336,0.621511962436
1583763079477680789,-0.035054687034,-0.0141309602601,0.621509488643
1583763079578361354,-0.034975637327,-0.0142867923114,0.62139540385
1583763079677505631,-0.035010482517,-0.0144051146773,0.621244163915
1583763079778199486,-0.0350503024111,-0.0145191978623,0.621400010955
1583763079877462599,-0.0351665170385,-0.0144818690024,0.621400198437
1583763079978188043,-0.0351665170385,-0.0144818690024,0.621400198437
1583763080078358850,-0.0350478048044,-0.0145213156047,0.621246469427
1583763080178239258,-0.0350478048044,-0.0145213156047,0.621246469427
1583763080277613646,-0.035126695494,-0.014367796422,0.621244345683
1583763080377826913,-0.035126695494,-0.014367796422,0.621244345683
1583763080477642999,-0.0352080665675,-0.0142121354875,0.62139575026
1583763080578794102,-0.0353242807757,-0.0141748071454,0.621395916956
1583763080677946631,-0.0352455736225,-0.0143260225783,0.621514275859
1583763080778167337,-0.035245398841,-0.0143283379672,0.62139806375
1583763080877521807,-0.0353989454652,-0.0144072114175,0.621400560382
1583763080978322735,-0.0353989454652,-0.0144072114175,0.621400560382
1583763081077413198,-0.0353200642155,-0.0145607421467,0.621402703747
1583763081177997581,-0.0353200642155,-0.0145607421467,0.621402703747
1583763081278326920,-0.035320251103,-0.014558418088,0.621518915725
1583763081378129531,-0.0353991219605,-0.0144048856402,0.621516772149
1583763081477725032,-0.0353991219605,-0.0144048856402,0.621516772149
1583763081578016489,-0.0355153314196,-0.0143675508632,0.621516946336
1583763081677349134,-0.035436278225,-0.0145234131628,0.621402888603
1583763081778128528,-0.0354736118321,-0.0146396164194,0.621405221199
1583763081877675390,-0.0355109451479,-0.0147558176399,0.621407558099
1583763081978348510,-0.0355484794497,-0.0148696754795,0.621526110844
1583763082077537799,-0.0357020285094,-0.0149485359828,0.621528660807
1583763082178246442,-0.0358929178026,-0.0151435912216,0.621533589173
1583763082277561349,-0.0359302584479,-0.0152597863438,0.621535959811
1583763082378155863,-0.0359302584479,-0.0152597863438,0.621535959811
1583763082477656294,-0.0359302584479,-0.0152597863438,0.621535959811
1583763082578059358,-0.0359678213838,-0.0153736043612,0.621654541073
1583763082677473661,-0.035967599377,-0.0153759811964,0.621538334789
1583763082778158621,-0.0359302584479,-0.0152597863438,0.621535959811
1583763082877595152,-0.0359304744028,-0.015257413844,0.621652166159
1583763082978590349,-0.0359302584479,-0.0152597863438,0.621535959811
1583763083077447699,-0.0358513907805,-0.0154133178742,0.62153811047
1583763083177860841,-0.0358513907805,-0.0154133178742,0.62153811047
1583763083277559535,-0.035697840846,-0.0153344593062,0.621535518938
1583763083377964558,-0.0357001458173,-0.015156234666,0.616397289286
1583763083477910051,-0.0352358904257,-0.014800392133,0.599125770634
1583763083580383652,-0.0351461367669,-0.013580303511,0.58071988336
1583763083677511642,-0.0347679503546,-0.0122254580512,0.560451008934
1583763083777938303,-0.0346497123098,-0.0116891268435,0.540148671597
1583763083877873753,-0.0346497123098,-0.0116891268435,0.540148671597
1583763083977833052,-0.0341853112147,-0.0105655811848,0.498932273841
1583763084077508100,-0.033934932772,-0.0103077213313,0.479294785082
1583763084178020694,-0.033774835991,-0.0104080990864,0.45933714926
1583763084277652752,-0.0340513392046,-0.0107916120143,0.438938552687
1583763084378012130,-0.0340634918476,-0.0111018286955,0.419212167822
1583763084477448759,-0.0341571492291,-0.0112961828756,0.397881169553
1583763084578008551,-0.0341301981378,-0.0115224383003,0.376239889121
1583763084677617400,-0.0338437180236,-0.011667678293,0.354902923352
1583763084779063814,-0.0338184732607,-0.0118804803608,0.333950515769
1583763084877888132,-0.0336708829162,-0.0121211003768,0.312557305195
1583763084978076306,-0.0333848570689,-0.0122520971277,0.291440360546
1583763085077530136,-0.0332018069595,-0.0122443146925,0.270098524998
1583763085177912713,-0.0330252750629,-0.012234103873,0.248806023786
1583763085278433981,-0.0330134254456,-0.0125726501933,0.227413811018
1583763085377856128,-0.0328902481211,-0.0130438582819,0.206172558842
1583763085477386502,-0.0331139389,-0.0133602630899,0.184834875253
1583763085578245412,-0.0330717283711,-0.0134593448937,0.163514077323
1583763085677853118,-0.0331626859263,-0.0136698383314,0.142337103919
1583763085778126585,-0.0332423996298,-0.0137652452474,0.12092358044
1583763085877593152,-0.0330800365355,-0.0137445311239,0.100138056678
1583763085977840284,-0.0331540127658,-0.0136039263597,0.0785043173404
1583763086078191902,-0.0332358685185,-0.0134644501161,0.057002410249
1583763086178287705,-0.0332080668897,-0.013444383024,0.0359969597176
1583763086277505311,-0.0331964273768,-0.0136450535855,0.0164644754793
1583763086378156618,-0.033062855188,-0.0138469641016,-0.00306756443378
1583763086477923521,-0.033169566924,-0.013697799078,-0.0234591166152
1583763086578266106,-0.0335195212401,-0.0135761701309,-0.0449500783213
1583763086677452214,-0.0335202611627,-0.0133156508952,-0.0655971522862
1583763086778227197,-0.0336380368863,-0.013309260439,-0.0864869986087
1583763086878456845,-0.0335219594126,-0.013179141228,-0.107762308641
1583763086978572937,-0.0334166847026,-0.0129296835417,-0.129290035777
1583763087077494099,-0.0331990475752,-0.0126707277106,-0.150833324398
1583763087178026203,-0.0329804589216,-0.0125306351135,-0.172392192227
1583763087277837443,-0.0329040233359,-0.012279049404,-0.193984268225
1583763087377959831,-0.0329040233359,-0.012279049404,-0.193984268225
1583763087477691690,-0.0327607252754,-0.0118962884461,-0.237218006815
1583763087578046643,-0.0329205027279,-0.0119119797342,-0.258493134487
1583763087677632844,-0.0326330808841,-0.0116346558638,-0.280444486134
1583763087778102333,-0.0324600543189,-0.0114790045589,-0.301668549703
1583763087880017101,-0.0324167029443,-0.011332980764,-0.322426401393
1583763087977931950,-0.0323987104935,-0.0110762075984,-0.343726272635
1583763088077618323,-0.0325290121886,-0.0107287706986,-0.365429115905
1583763088177720931,-0.0325292380254,-0.0104789584038,-0.386934923379
1583763088277597858,-0.032470948091,-0.0105696496912,-0.407237706859
1583763088378273881,-0.032417162365,-0.0106483588185,-0.426823181413
1583763088477573747,-0.0326276269746,-0.0106760737123,-0.44722818337
1583763088578279692,-0.0327209364739,-0.0106762254473,-0.467396498148
1583763088677575859,-0.0326651819054,-0.0102809163821,-0.488516133993
1583763088778830491,-0.0328857859255,-0.00983838605711,-0.510197842452
1583763088877597651,-0.033122044407,-0.0093946734184,-0.531438280847
1583763088978782637,-0.0334195209721,-0.00923476439573,-0.553241812033
1583763089077572742,-0.0336438571689,-0.00891595349438,-0.574192042102
1583763089177987605,-0.0337258366027,-0.00869748978489,-0.595899701023
1583763089277388896,-0.0335833087339,-0.00840130312873,-0.617260109875
1583763089377931844,-0.0334112966004,-0.00822206679112,-0.638808156273
1583763089477433497,-0.0335699960663,-0.00784083841363,-0.657500008565
1583763089578320407,-0.0336873189245,-0.00792810827551,-0.667189305333
1583763089678167603,-0.0338688651816,-0.00852410193024,-0.668065931221
1583763089778154361,-0.0342028049476,-0.00942733482614,-0.668705816136
1583763089877943549,-0.034265691855,-0.00999798606,-0.670395367789
1583763089977584139,-0.0343367169475,-0.0101665892183,-0.671164217099
1583763090077374257,-0.0345315926233,-0.00998112723827,-0.671437204193
1583763090177946535,-0.0347595323316,-0.0100651287612,-0.671665143902
1583763090277706608,-0.0348399598238,-0.00983466166176,-0.671668754257
1583763090378112282,-0.0348459362138,-0.00945181233529,-0.671830910962
1583763090478751166,-0.0348903810083,-0.00895248111824,-0.671954675945
1583763090578111780,-0.0349763084319,-0.00833610227904,-0.671965071822
1583763090677492411,-0.0351372407949,-0.00787518530329,-0.671972499479
1583763090778246128,-0.0351427099106,-0.00748926550409,-0.671979259869
1583763090877422773,-0.0351481816274,-0.00710334522143,-0.67198602236
1583763090977916808,-0.0353091223731,-0.00664243111335,-0.671993588749
1583763091078495341,-0.0352396056426,-0.00610104702966,-0.672003359867
1583763091178260624,-0.0353603165177,-0.00575536238128,-0.672009103969
1583763091277318368,-0.0353657995561,-0.00536944203183,-0.672015913141
1583763091378171631,-0.0354462757452,-0.00513898682523,-0.672019781862
1583763091477690183,-0.03537128537,-0.00498352091787,-0.672022724429
1583763091577871149,-0.0352953066688,-0.0048299914537,-0.672140881994
1583763091677512670,-0.0353365343485,-0.00471282739099,-0.672027594258
1583763091778188233,-0.0352615449645,-0.00455736087609,-0.672030512313
1583763091877859040,-0.0351463160909,-0.00451712160741,-0.672031482172
1583763091978069155,-0.0351865559607,-0.00440189388219,-0.672033418713
1583763092077770915,-0.03522584019,-0.0042886092284,-0.672150586166
1583763092178102574,-0.0354215559942,-0.00409840962466,-0.67215353531
1583763092277333214,-0.0353456402667,-0.00394489824706,-0.67227165801
1583763092378029845,-0.0352726299875,-0.00379035650971,-0.672314803039
1583763092478000664,-0.0351574053117,-0.00375009933181,-0.672315729223
1583763092578608767,-0.0350768905724,-0.00398054751969,-0.672311838106
1583763092677679553,-0.035075954961,-0.00398248833281,-0.672427060928
1583763092777883338,-0.0351171478487,-0.00386532335869,-0.672313781346
1583763092877679815,-0.0348866975661,-0.00378480883885,-0.672315631456
1583763092978068945,-0.0347705562721,-0.00374647926675,-0.67243177275
1583763093077757915,-0.0347302926159,-0.0038616994004,-0.672429847173
1583763093177973033,-0.0345401106345,-0.00366595072845,-0.672433595435
1583763093277886851,-0.0346553353038,-0.00370621570618,-0.672432686398
1583763093378514197,-0.034499846613,-0.0037811712658,-0.672431681511
1583763093478110908,-0.0345401106345,-0.00366595072845,-0.672433595435
1583763093578306223,-0.034499846613,-0.0037811712658,-0.672431681511
1583763093677492681,-0.0344586643406,-0.00389829879744,-0.672544991515
1583763093778812062,-0.0346141542178,-0.0038233533684,-0.672545985572
1583763093878040283,-0.0346150714646,-0.00382143604201,-0.672430766647
1583763093978376755,-0.0346150714646,-0.00382143604201,-0.672430766647
1583763094077581942,-0.0344595827751,-0.00389639193505,-0.672429772224
1583763094178240741,-0.0343040972367,-0.00397134940044,-0.672428789425
1583763094278138591,-0.0343031776142,-0.00397324579892,-0.67254400908
1583763094378098092,-0.0344183948597,-0.004013514959,-0.672543087048
1583763094477367755,-0.0345345443375,-0.00405187710906,-0.672426941058
1583763094578353670,-0.0346497658563,-0.00409214006379,-0.672426009933
1583763094677512077,-0.0345345443375,-0.00405187710906,-0.672426941058
1583763094779583687,-0.0345345443375,-0.00405187710906,-0.672426941058
1583763094877642615,-0.0346497658563,-0.00409214006379,-0.672426009933
1583763094980062294,-0.035075954961,-0.00398248833281,-0.672427060928
1583763095077846000,-0.0350366334822,-0.00409577181377,-0.672309899503
1583763095178751638,-0.0351116019982,-0.00425125259867,-0.672307016047
1583763095279254722,-0.0351116019982,-0.00425125259867,-0.672307016047
1583763095378113321,-0.0349963765771,-0.00421099623989,-0.672307965537
1583763095477454040,-0.0349561197029,-0.00432622123655,-0.6723060362
1583763095577928487,-0.0348801674993,-0.00416787154014,-0.67215343352
1583763095677604780,-0.0349944450214,-0.0042100491699,-0.672267711042
1583763095778777349,-0.0349214080629,-0.00405551505751,-0.67231083853
1583763095877537256,-0.0349204141276,-0.00405264809957,-0.672155361661
1583763095977645502,-0.0349204141276,-0.00405264809957,-0.672155361661
1583763096077293750,-0.0349204141276,-0.00405264809957,-0.672155361661
1583763096178650779,-0.0349597303369,-0.00393935977764,-0.672272516256
1583763096277825213,-0.0350749497439,-0.00397961210162,-0.672271583241
1583763096378293064,-0.0350768905724,-0.00398054751969,-0.672311838106
1583763096477537670,-0.0350768905724,-0.00398054751969,-0.672311838106
1583763096578307035,-0.0350768905724,-0.00398054751969,-0.672311838106
1583763096677411758,-0.0350768905724,-0.00398054751969,-0.672311838106
1583763096778902862,-0.0350768905724,-0.00398054751969,-0.672311838106
1583763096878592751,-0.0350768905724,-0.00398054751969,-0.672311838106
1583763096978011886,-0.0349204712622,-0.00405744540676,-0.672426061723
1583763097077774725,-0.0349204712622,-0.00405744540676,-0.672426061723
1583763097178253390,-0.0348052502953,-0.0040171826323,-0.672426996297
1583763097277743706,-0.0346900291443,-0.00397691966643,-0.672427926234
1583763097378005290,-0.0346900291443,-0.00397691966643,-0.672427926234
1583763097477551862,-0.0346900291443,-0.00397691966643,-0.672427926234
1583763097577990960,-0.0347649871921,-0.00413240282728,-0.67242507417
1583763097677684380,-0.0347649871921,-0.00413240282728,-0.67242507417
1583763097778624188,-0.0347649871921,-0.00413240282728,-0.67242507417
1583763097877481453,-0.0346150714646,-0.00382143604201,-0.672430766647
1583763097977873048,-0.0346150714646,-0.00382143604201,-0.672430766647
1583763098077559612,-0.0346150714646,-0.00382143604201,-0.672430766647
1583763098177864479,-0.034499846613,-0.0037811712658,-0.672431681511
1583763098277395711,-0.034499846613,-0.0037811712658,-0.672431681511
1583763098377953930,-0.034499846613,-0.0037811712658,-0.672431681511
1583763098477858674,-0.0344989340041,-0.00378308276675,-0.672546900619
1583763098577961814,-0.0344989340041,-0.00378308276675,-0.672546900619
1583763098677540239,-0.0343837171231,-0.00374281320576,-0.672547811001
1583763098777973495,-0.0343837171231,-0.00374281320576,-0.672547811001
1583763098878077233,-0.0343104541593,-0.00357881135096,-0.672049469161
1583763098977850141,-0.0349405455156,-0.00388148572546,-0.662351670353
1583763099077564974,-0.0349405455156,-0.00388148572546,-0.662351670353
1583763099178271442,-0.0355439015997,-0.00422798465913,-0.648947109998
1583763099277967670,-0.0369073036242,-0.00591428058188,-0.606170434341
1583763099378893091,-0.0369073036242,-0.00591428058188,-0.606170434341
1583763099477379347,-0.0369073036242,-0.00591428058188,-0.606170434341
1583763099578091448,-0.0377872377251,-0.00718985285407,-0.541234948376
1583763099677913370,-0.0377872377251,-0.00718985285407,-0.541234948376
1583763099778843652,-0.0373640980262,-0.0076172302289,-0.498254390518
1583763099877980163,-0.0368226193073,-0.0077066758928,-0.477496747032
1583763099978329243,-0.0368226193073,-0.0077066758928,-0.477496747032
1583763100077639320,-0.0354835175242,-0.00745328036568,-0.434239388736
1583763100178100956,-0.0351541888529,-0.00723864307855,-0.412909616464
1583763100277381129,-0.0351541888529,-0.00723864307855,-0.412909616464
1583763100378393845,-0.0343224568875,-0.00706408107499,-0.371084654431
1583763100477862513,-0.0342146039106,-0.0070263706484,-0.349125153605
1583763100578029682,-0.0342146039106,-0.0070263706484,-0.349125153605
1583763100677925480,-0.0333602346506,-0.00714365488114,-0.307295876696
1583763100778493455,-0.0333602346506,-0.00714365488114,-0.307295876696
1583763100878177384,-0.0330213386747,-0.0070868906976,-0.285317355607
1583763100978592203,-0.0326852275989,-0.0072945555956,-0.241958149607
1583763101077518514,-0.0324929133987,-0.00715869430092,-0.220456598999
1583763101178063751,-0.032164224191,-0.00714905297164,-0.199708254639
1583763101277729639,-0.0320985930341,-0.00702412733814,-0.177515211303
1583763101378614377,-0.0320003012179,-0.00728412645431,-0.156432889873
1583763101477651031,-0.0319471497342,-0.00705061669244,-0.134769673584
1583763101578270713,-0.0316361203717,-0.00705366513554,-0.113370872782
1583763101677880831,-0.0316361203717,-0.00705366513554,-0.113370872782
1583763101778134153,-0.0316920436477,-0.00707635505452,-0.0917267071228
1583763101877725779,-0.0314997768685,-0.00606123608916,-0.0899139841536
1583763101978252993,-0.0314237320718,-0.00506086765786,-0.088704836407
1583763102077457436,-0.0314429168066,-0.00467983145569,-0.0877350397754
1583763102177826810,-0.0315716539185,-0.00455558962897,-0.0872488183833
1583763102280463517,-0.0314447613651,-0.00467030734687,-0.0871253316908
1583763102378412784,-0.0314296099698,-0.00503232708837,-0.0868757315503
1583763102478146232,-0.0314088494147,-0.00551819921661,-0.086746178827
1583763102578248378,-0.0315048193475,-0.00613129909412,-0.0866142806919
1583763102678059705,-0.0316056534346,-0.00662435290841,-0.0866061791201
1583763102778995083,-0.0319503838858,-0.00712795703441,-0.0865969910673
1583763102877847507,-0.0321784475403,-0.00750433642365,-0.0865901217851
1583763102978106031,-0.0324117880911,-0.00775877108993,-0.0865851222574
1583763103078286608,-0.0323959643088,-0.00812459607303,-0.0865792574221
1583763103177695682,-0.0325126357769,-0.00825181144139,-0.0865767150701
1583763103277351609,-0.0323742584581,-0.00861431392217,-0.0866933922609
1583763103378240584,-0.0326075879926,-0.0088687553347,-0.0866882381953
1583763103478535156,-0.0327242529991,-0.00899597558376,-0.0866856388961
1583763103577918526,-0.032963506438,-0.00912648809337,-0.0865604365286
1583763103677494629,-0.0329476917525,-0.00949230801224,-0.0865544815782
1583763103777918000,-0.0330538247665,-0.00986339767138,-0.0865478440453
1583763103877900233,-0.0330432844145,-0.0101072775012,-0.0865438662794
1583763103978039902,-0.0330327450576,-0.0103511561847,-0.0865398910937
1583763104077372103,-0.0327835834255,-0.0104625574199,-0.086539354731
1583763104178075281,-0.0325344206886,-0.0105739591754,-0.0865388461245
1583763104278494346,-0.0324019351536,-0.0108125707156,-0.0865356805774
1583763104378189288,-0.0324019351536,-0.0108125707156,-0.0865356805774
1583763104477473991,-0.0324019351536,-0.0108125707156,-0.0865356805774
1583763104577925202,-0.0324019351536,-0.0108125707156,-0.0865356805774
1583763104677859767,-0.0321635304385,-0.0107819636232,-0.0853124637443
1583763104778090869,-0.0324286024665,-0.0108394789936,-0.0806697080338
1583763104877800307,-0.0330494717755,-0.0109375137577,-0.0777320279487
1583763104977948719,-0.0342895848844,-0.010812552546,-0.0747947233309
1583763105077377755,-0.0357840982146,-0.0105512973597,-0.0707605884661
1583763105179162107,-0.0371788255186,-0.0103068668295,-0.0615977875568
1583763105277718482,-0.0384610283748,-0.00999686456436,-0.0498705506577
1583763105378620054,-0.0390815532383,-0.0100866432457,-0.0474245490573
1583763105477501646,-0.0404134778612,-0.00950216597545,-0.053169343973
1583763105578038653,-0.0427543940449,-0.00830323306332,-0.056974198384
1583763105678642527,-0.0442478810332,-0.00704858455188,-0.0590705882478
1583763105779174112,-0.0466065783562,-0.00588336248549,-0.0584827768866
1583763105877910985,-0.0483148529741,-0.00593025578688,-0.058354560788
1583763105977909057,-0.0506396186427,-0.00575376786279,-0.0583521329531
1583763106077924993,-0.0523588608765,-0.00555041120118,-0.0579898898933
1583763106178296862,-0.0519953880083,-0.00540160972965,-0.0573809317874
1583763106277818261,-0.0523461289557,-0.0060287831808,-0.0576112079815
1583763106378431968,-0.0528384714354,-0.00591439748397,-0.0573686141666
1583763106478047952,-0.0531011410346,-0.00530178883048,-0.057017905625
1583763106578591271,-0.0540916491878,-0.00483505140302,-0.0567837688013
1583763106677556287,-0.0541281520837,-0.00350976371036,-0.057429893039
1583763106777905961,-0.0550224168564,-0.00209402916179,-0.0583217333078
1583763106878087943,-0.0552081589858,-0.00406610134298,-0.058755336386
1583763106977999142,-0.0553473983814,-0.00346657862296,-0.0590157702183
1583763107078111892,-0.0552459492431,-0.00286351555894,-0.0594024195013
1583763107178348819,-0.0546173623156,-0.0033429967749,-0.0597527671146
1583763107277554290,-0.0536497434073,-0.00306013845077,-0.0593957997135
1583763107378197854,-0.0531801949902,-0.00243255994918,-0.0592911506399
1583763107478628256,-0.052312730698,-0.00288561430493,-0.058914172722
1583763107579057896,-0.0510834817635,-0.00308406742936,-0.0585411141542
1583763107677628095,-0.0497455334677,-0.00300242418009,-0.0568364003888
1583763107778129558,-0.0477659884986,-0.00389645404927,-0.0557160462482
1583763107877484823,-0.0460534077208,-0.00405055894557,-0.0538816332584
1583763107978195071,-0.0434799804328,-0.00455459132983,-0.052167067636
1583763108078159391,-0.0413945723631,-0.00506241162237,-0.0498390224458
1583763108178127142,-0.0392014035582,-0.00497165238992,-0.0480124557742
1583763108278201555,-0.0373597339121,-0.00520590266249,-0.0498435101667
1583763108378428328,-0.0363789631805,-0.00491547924949,-0.0553467615029
1583763108477763824,-0.0343124631636,-0.00440767183054,-0.0575572702751
1583763108578403148,-0.0327330845228,-0.00422017411587,-0.056343440376
1583763108677469090,-0.0327299718058,-0.00434019192434,-0.0562194422905
1583763108778562168,-0.0333365865579,-0.00447932875092,-0.0562158061175
1583763108877551996,-0.0339428595218,-0.00462052464043,-0.0563340917258
1583763108977953326,-0.0345535701848,-0.00463348704866,-0.0560883752535
1583763109077620683,-0.0351635945523,-0.00465057402756,-0.0560866610991
1583763109177989629,-0.035895615217,-0.00467107677414,-0.0560845903798
1583763109277485958,-0.0365056251579,-0.00468816102837,-0.0560828533366
1583763109378054758,-0.0372376281822,-0.00470866047775,-0.0560807551545
1583763109477651317,-0.0377327953949,-0.00447603680093,-0.0559619370513
1583763109578152808,-0.0383427863575,-0.00449308292806,-0.0559602445444
1583763109678293057,-0.0388331353849,-0.00450706016157,-0.0559622922128
1583763109777918827,-0.0394431544085,-0.00452410623726,-0.0559605807668
1583763109878286098,-0.040053162422,-0.004541150956,-0.055958858954
1583763109978152917,-0.0406662315932,-0.00443866965936,-0.0560815990871
1583763110077508715,-0.0411576411013,-0.00433033795912,-0.0560827376907
1583763110177931337,-0.0416490456567,-0.00422200766904,-0.0560839295221
1583763110277501845,-0.0421435462548,-0.00399424940611,-0.0562097334129
1583763110378055489,-0.0425061046137,-0.00412651503237,-0.0562061975302
1583763110478075488,-0.04275009145,-0.00413336277748,-0.0562055474992
1583763110578120118,-0.0428717583866,-0.0041393948773,-0.0563272144359
1583763110677730176,-0.0429940770215,-0.00414021032797,-0.0562048958009
1583763110777855559,-0.0431160693308,-0.00414363403005,-0.0562045693265
1583763110878815806,-0.0434892050209,-0.00390727796944,-0.0560868879515
1583763110978080437,-0.0438585948892,-0.00379553838488,-0.0560886167244
1583763111079531708,-0.0439802780764,-0.00380163177767,-0.0562102999117
1583763111178627553,-0.0442303769853,-0.00368679292856,-0.0562158007914
1583763111277623480,-0.0443489485255,-0.00381221319348,-0.0562128005155
1583763111378090884,-0.0444640960775,-0.00405962794486,-0.0562070794591
1583763111477901304,-0.0445857674162,-0.00406576489099,-0.0563287507978
1583763111577930254,-0.0447077624742,-0.00406919613219,-0.0563284259576
1583763111678274362,-0.0448297572014,-0.00407262732436,-0.0563281006996
1583763111778416147,-0.0449548642977,-0.00395680076655,-0.056452504591
1583763111877541259,-0.0449579918552,-0.00383754407939,-0.0565772340562
1583763111978088099,-0.0450765385229,-0.00396298276328,-0.0565741788162
1583763112078256110,-0.0450765385229,-0.00396298276328,-0.0565741788162
1583763112177906203,-0.0450765385229,-0.00396298276328,-0.0565741788162
1583763112277694481,-0.0450765385229,-0.00396298276328,-0.0565741788162
1583763112379001433,-0.0451988511563,-0.00396367843846,-0.0564518661829
1583763112478213216,-0.0450734191911,-0.00408223232675,-0.0564494426181
1583763112577812589,-0.0450734191911,-0.00408223232675,-0.0564494426181
1583763112677613172,-0.0451954125024,-0.00408567080284,-0.0564491157731
1583763112778438332,-0.0453177327846,-0.00408635160114,-0.056326795491
1583763112877623550,-0.0454431569688,-0.00396779043714,-0.0563292334664
1583763112977823192,-0.0454431569688,-0.00396779043714,-0.0563292334664
1583763113077659799,-0.0453245954602,-0.00384236692866,-0.0563323116839
1583763113178202191,-0.0453245954602,-0.00384236692866,-0.0563323116839
1583763113277663389,-0.0453249075669,-0.00383960841368,-0.0562103183445
1583763113378006597,-0.045446900947,-0.00384303260305,-0.0562100061971
1583763113477732771,-0.0455723183027,-0.00372446476734,-0.0562124672634
1583763113578206048,-0.0456943109619,-0.00372788920073,-0.0562121617137
1583763113677791973,-0.045694616551,-0.00372510792617,-0.0560901690151
1583763113778275686,-0.0454503253061,-0.00372104028716,-0.0562127723961
1583763113878185479,-0.0453252193382,-0.00383684985117,-0.0560883245882
1583763113978350413,-0.0453218026991,-0.00395884291264,-0.0560855661896
1583763114077541515,-0.0454403802823,-0.0040842522791,-0.0560824815268
1583763114178221088,-0.0454403802823,-0.0040842522791,-0.0560824815268
1583763114277384110,-0.0454407069969,-0.00408148707109,-0.0559604875937
1583763114377625142,-0.045318386389,-0.00408083619622,-0.0560828082017
1583763114478068904,-0.0454403802823,-0.0040842522791,-0.0560824815268
1583763114578601674,-0.045318386389,-0.00408083619622,-0.0560828082017
1583763114677457006,-0.045318386389,-0.00408083619622,-0.0560828082017
1583763114778018337,-0.0454403802823,-0.0040842522791,-0.0560824815268
1583763114878028095,-0.045318386389,-0.00408083619622,-0.0560828082017
1583763114978045177,-0.0450709815297,-0.00419599759427,-0.0560807176004
1583763115077767959,-0.0450675657956,-0.00431799129343,-0.0560779753129
1583763115177949660,-0.0450672251301,-0.00432073332201,-0.0561999699348
1583763115277470249,-0.0451926424924,-0.0042021633179,-0.0562023785631
1583763115378330527,-0.045070648296,-0.0041987400405,-0.0562027121719
1583763115477665536,-0.0451957393895,-0.00408292060588,-0.0563271224197
1583763115577993172,-0.0451960659421,-0.0040801703596,-0.0562051286485
1583763115677509007,-0.0451923085081,-0.00420491314561,-0.0563243723839
1583763115777925071,-0.04507374566,-0.00407948956128,-0.0563274489307
1583763115877783911,-0.044951751597,-0.00407605846742,-0.056327775024
1583763115978037644,-0.044951751597,-0.00407605846742,-0.056327775024
1583763116077556568,-0.0449551829168,-0.00395406501313,-0.0563305106193
1583763116177988781,-0.0448297572014,-0.00407262732436,-0.0563281006996
1583763116277563749,-0.0449483206163,-0.0041980516775,-0.0563250398516
1583763116378091631,-0.04507374566,-0.00407948956128,-0.0563274489307
1583763116477865226,-0.0450771769311,-0.00395749644175,-0.0563301919577
1583763116578180480,-0.0451994897328,-0.00395817715713,-0.056207879156
1583763116678463162,-0.0452035362264,-0.00383068186749,-0.0559666414765
1583763116777614325,-0.0453301023396,-0.00367592666291,-0.0543798115883
1583763116877791346,-0.0453395315147,-0.00365410374584,-0.0480300012451
1583763116978086426,-0.0458375525519,-0.00400449019773,-0.0361746096364
1583763117077378811,-0.0471883364563,-0.00465253025919,-0.0263876180849
1583763117178050287,-0.0475237621843,-0.00633092477815,-0.0300115051727
1583763117277724350,-0.0487590382032,-0.00589060350436,-0.0262316786737
1583763117378538141,-0.0491156937818,-0.00642577473508,-0.0279284909192
1583763117477902318,-0.0500990408843,-0.00605800543082,-0.0273240498477
1583763117578449063,-0.0508218999224,-0.00624570117412,-0.0295148426253
1583763117678017151,-0.0516538663335,-0.00665372123448,-0.0353641908643
1583763117778707792,-0.0523625665324,-0.00684558421542,-0.0421960688906
1583763117877723965,-0.0518607686789,-0.00755786316453,-0.0418130646618
1583763117977943020,-0.0519618851341,-0.00853955866601,-0.0419092540446
1583763118078246187,-0.0513302835426,-0.00929004661481,-0.0431135020715
1583763118177919150,-0.0502217772001,-0.00964471115192,-0.043598063619
1583763118277678448,-0.0495930837049,-0.0103755397176,-0.0440712867882
1583763118378455424,-0.0482354211143,-0.0109649336144,-0.0444303468025
1583763118477753384,-0.0476019243954,-0.0120466061142,-0.044285994898
1583763118578372027,-0.046986486694,-0.0122771944925,-0.0442842855182
1583763118677730219,-0.0459932923456,-0.0131041954252,-0.044027209353
1583763118779003732,-0.0452611733236,-0.0130881861116,-0.0440323712121
1583763118877692742,-0.0446563665956,-0.0127079700874,-0.0440421164403
1583763118978361198,-0.0439450250734,-0.0119439147389,-0.0433310012168
1583763119077400702,-0.0444481257025,-0.0112250732527,-0.0434660456448
1583763119178150725,-0.045318051506,-0.010511491942,-0.0434773329459
1583763119277423400,-0.0455694133733,-0.0102644568456,-0.0431154248865
1583763119378022699,-0.0455825048027,-0.00976535696903,-0.0426384424853
1583763119478053515,-0.0453404176211,-0.00964092608002,-0.0427645201809
1583763119578019373,-0.0449730846088,-0.00974968490675,-0.042519698179
1583763119677798271,-0.0444920916288,-0.00948723042035,-0.0421616600912
1583763119777669877,-0.0437542053634,-0.00971855704535,-0.0422821752791
1583763119879380614,-0.0437509815072,-0.00984322783726,-0.0424015377901
1583763119977590089,-0.043267419445,-0.0097030336382,-0.0420407276404
1583763120077980781,-0.0428916103047,-0.00995764032653,-0.0428916103047
1583763120178142273,-0.0428916103047,-0.00995764032653,-0.0428916103047
1583763120277758111,-0.0392252529815,-0.00934079740079,-0.0465840212173
1583763120377897129,-0.0392252529815,-0.00934079740079,-0.0465840212173
1583763120477357928,-0.0378838198254,-0.00908400254959,-0.0475716469906
1583763120578062438,-0.0349468951622,-0.00915565753883,-0.0486822667629
1583763120677413349,-0.0332294440495,-0.00925635647241,-0.0499090137654
1583763120778227596,-0.0332294440495,-0.00925635647241,-0.0499090137654
1583763120878910452,-0.0320080064449,-0.00911754474553,-0.0507712543933
1583763120978106665,-0.0323740727332,-0.00912681211853,-0.0507694351089
1583763121078527292,-0.0331000220349,-0.00938937591086,-0.0507617754731
1583763121177611371,-0.0339572507378,-0.00928897588711,-0.0507594547464
1583763121277227816,-0.0346887364851,-0.0093096026367,-0.0508777490718
1583763121378383196,-0.035176801529,-0.00932198056268,-0.0508752587812
1583763121477370504,-0.0359095167817,-0.00933836859128,-0.0507494976889
1583763121577664251,-0.0366415993475,-0.00935688538572,-0.050745739023
1583763121677695865,-0.0372547464973,-0.00925030748031,-0.0507448549881
1583763121778983283,-0.0372547464973,-0.00925030748031,-0.0507448549881
1583763121877371347,-0.0382339151646,-0.009152986668,-0.0507421852806
