%time,field.header.seq,field.header.stamp,field.header.frame_id,field.orientation.x,field.orientation.y,field.orientation.z,field.orientation.w,field.orientation_covariance0,field.orientation_covariance1,field.orientation_covariance2,field.orientation_covariance3,field.orientation_covariance4,field.orientation_covariance5,field.orientation_covariance6,field.orientation_covariance7,field.orientation_covariance8,field.angular_velocity.x,field.angular_velocity.y,field.angular_velocity.z,field.angular_velocity_covariance0,field.angular_velocity_covariance1,field.angular_velocity_covariance2,field.angular_velocity_covariance3,field.angular_velocity_covariance4,field.angular_velocity_covariance5,field.angular_velocity_covariance6,field.angular_velocity_covariance7,field.angular_velocity_covariance8,field.linear_acceleration.x,field.linear_acceleration.y,field.linear_acceleration.z,field.linear_acceleration_covariance0,field.linear_acceleration_covariance1,field.linear_acceleration_covariance2,field.linear_acceleration_covariance3,field.linear_acceleration_covariance4,field.linear_acceleration_covariance5,field.linear_acceleration_covariance6,field.linear_acceleration_covariance7,field.linear_acceleration_covariance8
1583763060238191053,1,1583763052449411989,imu,-0.0252075381577,-0.00378418248147,0.150529909763,0.988605455309,0.0,0.0,0.0,0.0,0.0,0.0,0.0,0.0,0.0,0.0,0.0,0.0,0.0,0.0,0.0,0.0,0.0,0.0,0.0,0.0,0.0,0.0,0.0195312574506,0.0273437593132,0.0,0.0,0.0,0.0,0.0,0.0,0.0,0.0,0.0
1583763060238235366,2,1583763052550411989,imu,-0.025268573314,-0.00378418248147,0.150179841586,0.988658694991,0.0,0.0,0.0,0.0,0.0,0.0,0.0,0.0,0.0,0.0,0.0,0.0,0.0,0.0,0.0,0.0,0.0,0.0,0.0,0.0,0.0,0.0,-0.0195312574506,0.0195312574506,0.0,0.0,0.0,0.0,0.0,0.0,0.0,0.0,0.0
1583763060238277228,3,1583763052649411989,imu,-0.0253296084702,-0.00378418248147,0.149842272863,0.988709913606,0.0,0.0,0.0,0.0,0.0,0.0,0.0,0.0,0.0,0.0,0.0,0.0,0.0,0.0,0.0,0.0,0.0,0.0,0.0,0.0,0.0,0.0,0.0195312574506,-0.0195312574506,0.0,0.0,0.0,0.0,0.0,0.0,0.0,0.0,0.0
1583763060238318588,4,1583763052749411989,imu,-0.0253296084702,-0.00378418248147,0.149825935691,0.988712389421,0.0,0.0,0.0,0.0,0.0,0.0,0.0,0.0,0.0,0.0,0.0,0.0,0.0,0.0,0.0,0.0,0.0,0.0,0.0,0.0,0.0,0.0,0.0117187537253,-0.0195312574506,0.0,0.0,0.0,0.0,0.0,0.0,0.0,0.0,0.0
1583763060238375178,5,1583763052849411989,imu,-0.0253296084702,-0.00378418248147,0.149825935691,0.988712389421,0.0,0.0,0.0,0.0,0.0,0.0,0.0,0.0,0.0,0.0,0.0,0.0,0.0,0.0,0.0,0.0,0.0,0.0,0.0,0.0,0.0,0.0,0.0117187537253,0.0273437593132,0.0,0.0,0.0,0.0,0.0,0.0,0.0,0.0,0.0
1583763060238411867,6,1583763052949411989,imu,-0.0253296084702,-0.00378418248147,0.149825935691,0.988712389421,0.0,0.0,0.0,0.0,0.0,0.0,0.0,0.0,0.0,0.0,0.0,0.0,0.0,0.0,0.0,0.0,0.0,0.0,0.0,0.0,0.0,0.0,0.00390625139698,-0.0117187537253,0.0,0.0,0.0,0.0,0.0,0.0,0.0,0.0,0.0
1583763060238445819,7,1583763053048411989,imu,-0.025268573314,-0.00378418248147,0.150179841586,0.988658694991,0.0,0.0,0.0,0.0,0.0,0.0,0.0,0.0,0.0,0.0,0.0,0.0,0.0,0.0,0.0,0.0,0.0,0.0,0.0,0.0,0.0,0.0,0.00390625139698,0.0273437593132,0.0,0.0,0.0,0.0,0.0,0.0,0.0,0.0,0.0
1583763060238479268,8,1583763053150411989,imu,-0.0252075381577,-0.00378418248147,0.150529909763,0.988605455309,0.0,0.0,0.0,0.0,0.0,0.0,0.0,0.0,0.0,0.0,0.0,0.0,0.0,0.0,0.0,0.0,0.0,0.0,0.0,0.0,0.0,0.0,0.00390625139698,-0.0195312574506,0.0,0.0,0.0,0.0,0.0,0.0,0.0,0.0,0.0
1583763060238516167,9,1583763053249411989,imu,-0.0252075381577,-0.00378418248147,0.150529909763,0.988605455309,0.0,0.0,0.0,0.0,0.0,0.0,0.0,0.0,0.0,0.0,0.0,0.0,0.0,0.0,0.0,0.0,0.0,0.0,0.0,0.0,0.0,0.0,-0.0273437593132,0.0195312574506,0.0,0.0,0.0,0.0,0.0,0.0,0.0,0.0,0.0
1583763060238551936,10,1583763053349411989,imu,-0.0252075381577,-0.00372314709239,0.148154742111,0.988964191662,0.0,0.0,0.0,0.0,0.0,0.0,0.0,0.0,0.0,0.0,0.0,0.0,0.0,0.0,0.0,0.0,0.0,0.0,0.0,0.0,0.0,0.00781250279397,0.0117187537253,0.0117187537253,0.0,0.0,0.0,0.0,0.0,0.0,0.0,0.0,0.0
1583763060238599509,11,1583763053449411989,imu,-0.0251465030015,-0.00366211193614,0.146129030425,0.989265538906,0.0,0.0,0.0,0.0,0.0,0.0,0.0,0.0,0.0,0.0,0.0,0.0,0.0,0.0,0.0,0.0,0.0,0.0,0.0,0.0,0.0,0.00781250279397,-0.0273437593132,0.0117187537253,0.0,0.0,0.0,0.0,0.0,0.0,0.0,0.0,0.0
1583763060238649923,12,1583763053549411989,imu,-0.0250854678452,-0.00366211193614,0.146477107025,0.989214060311,0.0,0.0,0.0,0.0,0.0,0.0,0.0,0.0,0.0,0.0,0.0,0.0,0.0,0.0,0.0,0.0,0.0,0.0,0.0,0.0,0.0,0.0,0.0117187537253,0.00390625139698,0.0,0.0,0.0,0.0,0.0,0.0,0.0,0.0,0.0
1583763060238697699,13,1583763053648411989,imu,-0.025024432689,-0.00372314709239,0.149237519053,0.988801376873,0.0,0.0,0.0,0.0,0.0,0.0,0.0,0.0,0.0,0.0,0.0,0.0,0.0,0.0,0.0,0.0,0.0,0.0,0.0,0.0,0.0,0.0,0.0117187537253,-0.0273437593132,0.0,0.0,0.0,0.0,0.0,0.0,0.0,0.0,0.0
1583763060238744866,14,1583763053749411989,imu,-0.025024432689,-0.00378418248147,0.151628855217,0.988437499423,0.0,0.0,0.0,0.0,0.0,0.0,0.0,0.0,0.0,0.0,0.0,0.0,0.0,0.0,0.0,0.0,0.0,0.0,0.0,0.0,0.0,0.0,-0.0273437593132,0.0117187537253,0.0,0.0,0.0,0.0,0.0,0.0,0.0,0.0,0.0
1583763060239199852,15,1583763053849411989,imu,-0.0250854678452,-0.00378418248147,0.151251546341,0.988495305871,0.0,0.0,0.0,0.0,0.0,0.0,0.0,0.0,0.0,0.0,0.0,0.0,0.0,0.0,0.0,0.0,0.0,0.0,0.0,0.0,0.0,0.0,-0.0117187537253,0.0117187537253,0.0,0.0,0.0,0.0,0.0,0.0,0.0,0.0,0.0
1583763060239575467,16,1583763053948411989,imu,-0.0251465030015,-0.00378418248147,0.150892635334,0.988550156847,0.0,0.0,0.0,0.0,0.0,0.0,0.0,0.0,0.0,0.0,0.0,0.0,0.0,0.0,0.0,0.0,0.0,0.0,0.0,0.0,0.0,-0.00781250279397,0.0273437593132,-0.0273437593132,0.0,0.0,0.0,0.0,0.0,0.0,0.0,0.0,0.0
1583763060239605619,17,1583763054049411989,imu,-0.0252075381577,-0.00378418248147,0.150535404292,0.988604618669,0.0,0.0,0.0,0.0,0.0,0.0,0.0,0.0,0.0,0.0,0.0,0.0,0.0,0.0,0.0,0.0,0.0,0.0,0.0,0.0,0.0,0.0,0.0195312574506,0.0117187537253,0.0,0.0,0.0,0.0,0.0,0.0,0.0,0.0,0.0
1583763060239640728,18,1583763054149411989,imu,-0.0252075381577,-0.00384521763772,0.152907993213,0.988240429051,0.0,0.0,0.0,0.0,0.0,0.0,0.0,0.0,0.0,0.0,0.0,0.0,0.0,0.0,0.0,0.0,0.0,0.0,0.0,0.0,0.0,0.0,0.0195312574506,-0.0273437593132,0.0,0.0,0.0,0.0,0.0,0.0,0.0,0.0,0.0
1583763060239694738,19,1583763054254393013,imu,-0.0252075381577,-0.00384521763772,0.152907993213,0.988240429051,0.0,0.0,0.0,0.0,0.0,0.0,0.0,0.0,0.0,0.0,0.0,0.0,0.0,0.0,0.0,0.0,0.0,0.0,0.0,0.0,0.0,0.0,0.0117187537253,-0.0195312574506,0.0,0.0,0.0,0.0,0.0,0.0,0.0,0.0,0.0
1583763060239784207,20,1583763054353393013,imu,-0.0251465030015,-0.00384521763772,0.153270591019,0.988184257074,0.0,0.0,0.0,0.0,0.0,0.0,0.0,0.0,0.0,0.0,0.0,0.0,0.0,0.0,0.0,0.0,0.0,0.0,0.0,0.0,0.0,0.0,-0.0273437593132,0.0195312574506,0.0,0.0,0.0,0.0,0.0,0.0,0.0,0.0,0.0
1583763060240022233,21,1583763054453393013,imu,-0.0250854678452,-0.00390625279397,0.156015608977,0.987754589843,0.0,0.0,0.0,0.0,0.0,0.0,0.0,0.0,0.0,0.0,0.0,0.0,0.0,0.0,0.0,0.0,0.0,0.0,0.0,0.0,0.0,-0.00781250279397,0.0195312574506,-0.0195312574506,0.0,0.0,0.0,0.0,0.0,0.0,0.0,0.0,0.0
1583763060240159642,22,1583763054553393013,imu,-0.0250854678452,-0.00396728795022,0.15839366004,0.987376042073,0.0,0.0,0.0,0.0,0.0,0.0,0.0,0.0,0.0,0.0,0.0,0.0,0.0,0.0,0.0,0.0,0.0,0.0,0.0,0.0,0.0,-0.00781250279397,0.0195312574506,0.0195312574506,0.0,0.0,0.0,0.0,0.0,0.0,0.0,0.0,0.0
1583763060241727041,23,1583763054654393013,imu,-0.0250854678452,-0.00402832310647,0.16076352302,0.9869929532,0.0,0.0,0.0,0.0,0.0,0.0,0.0,0.0,0.0,0.0,0.0,0.0,0.0,0.0,0.0,0.0,0.0,0.0,0.0,0.0,0.0,0.0,0.0117187537253,-0.0195312574506,0.0,0.0,0.0,0.0,0.0,0.0,0.0,0.0,0.0
1583763060241968120,24,1583763054753393013,imu,-0.0250854678452,-0.00396728795022,0.158388159498,0.987376924447,0.0,0.0,0.0,0.0,0.0,0.0,0.0,0.0,0.0,0.0,0.0,0.0,0.0,0.0,0.0,0.0,0.0,0.0,0.0,0.0,0.0,0.0,0.0117187537253,-0.0195312574506,0.0,0.0,0.0,0.0,0.0,0.0,0.0,0.0,0.0
1583763060242954588,25,1583763054853393013,imu,-0.0250854678452,-0.00396728795022,0.15839366004,0.987376042073,0.0,0.0,0.0,0.0,0.0,0.0,0.0,0.0,0.0,0.0,0.0,0.0,0.0,0.0,0.0,0.0,0.0,0.0,0.0,0.0,0.0,0.0,-0.0273437593132,0.0195312574506,0.0,0.0,0.0,0.0,0.0,0.0,0.0,0.0,0.0
1583763060243663915,26,1583763054953393013,imu,-0.0251465030015,-0.00390625279397,0.155645936104,0.98781290869,0.0,0.0,0.0,0.0,0.0,0.0,0.0,0.0,0.0,0.0,0.0,0.0,0.0,0.0,0.0,0.0,0.0,0.0,0.0,0.0,0.0,0.0,0.0195312574506,-0.0195312574506,0.0,0.0,0.0,0.0,0.0,0.0,0.0,0.0,0.0
1583763060243870415,27,1583763055052393013,imu,-0.0252075381577,-0.00390625279397,0.155272523388,0.98787167359,0.0,0.0,0.0,0.0,0.0,0.0,0.0,0.0,0.0,0.0,0.0,0.0,0.0,0.0,0.0,0.0,0.0,0.0,0.0,0.0,0.0,0.0,0.0195312574506,0.0195312574506,0.0,0.0,0.0,0.0,0.0,0.0,0.0,0.0,0.0
1583763060243919558,28,1583763055152393013,imu,-0.0252075381577,-0.00384521763772,0.152907993213,0.988240429051,0.0,0.0,0.0,0.0,0.0,0.0,0.0,0.0,0.0,0.0,0.0,0.0,0.0,0.0,0.0,0.0,0.0,0.0,0.0,0.0,0.0,0.0,0.0195312574506,0.0195312574506,0.0,0.0,0.0,0.0,0.0,0.0,0.0,0.0,0.0
1583763060243980031,29,1583763055253393013,imu,-0.0252075381577,-0.00390625279397,0.155277989733,0.98787081438,0.0,0.0,0.0,0.0,0.0,0.0,0.0,0.0,0.0,0.0,0.0,0.0,0.0,0.0,0.0,0.0,0.0,0.0,0.0,0.0,0.0,0.0,0.0195312574506,0.0195312574506,0.0,0.0,0.0,0.0,0.0,0.0,0.0,0.0,0.0
1583763060244103166,30,1583763055352393013,imu,-0.0251465030015,-0.00384521763772,0.153270591019,0.988184257074,0.0,0.0,0.0,0.0,0.0,0.0,0.0,0.0,0.0,0.0,0.0,0.0,0.0,0.0,0.0,0.0,0.0,0.0,0.0,0.0,0.0,0.0,0.0117187537253,0.0117187537253,0.0,0.0,0.0,0.0,0.0,0.0,0.0,0.0,0.0
1583763060244181629,31,1583763055452393013,imu,-0.0250854678452,-0.00384521763772,0.153634892142,0.988127684015,0.0,0.0,0.0,0.0,0.0,0.0,0.0,0.0,0.0,0.0,0.0,0.0,0.0,0.0,0.0,0.0,0.0,0.0,0.0,0.0,0.0,0.0,0.0117187537253,-0.0273437593132,0.0,0.0,0.0,0.0,0.0,0.0,0.0,0.0,0.0
1583763060244314544,32,1583763055553393013,imu,-0.0250854678452,-0.00390625279397,0.156015608977,0.987754589843,0.0,0.0,0.0,0.0,0.0,0.0,0.0,0.0,0.0,0.0,0.0,0.0,0.0,0.0,0.0,0.0,0.0,0.0,0.0,0.0,0.0,0.0,0.0117187537253,0.0117187537253,0.0,0.0,0.0,0.0,0.0,0.0,0.0,0.0,0.0
1583763060244755562,33,1583763055653393013,imu,-0.0251465030015,-0.00390625279397,0.155645936104,0.98781290869,0.0,0.0,0.0,0.0,0.0,0.0,0.0,0.0,0.0,0.0,0.0,0.0,0.0,0.0,0.0,0.0,0.0,0.0,0.0,0.0,0.0,0.0,0.0117187537253,0.0117187537253,0.0,0.0,0.0,0.0,0.0,0.0,0.0,0.0,0.0
1583763060244992507,34,1583763055753393013,imu,-0.0251465030015,-0.00384521763772,0.153710852616,0.988115870629,0.0,0.0,0.0,0.0,0.0,0.0,0.0,0.0,0.0,0.0,0.0,0.0,0.0,0.0,0.0,0.0,0.0,0.0,0.0,0.0,0.0,0.0664062723517,0.292968869209,0.0117187537253,0.0,0.0,0.0,0.0,0.0,0.0,0.0,0.0,0.0
1583763060245067420,35,1583763055853393013,imu,-0.024780292064,-0.00384521763772,0.156290588117,0.987711117719,0.0,0.0,0.0,0.0,0.0,0.0,0.0,0.0,0.0,0.0,0.0,0.0,0.0,0.0,0.0,0.0,0.0,0.0,0.0,0.0,0.0,0.0273437593132,0.0859375298023,0.00390625139698,0.0,0.0,0.0,0.0,0.0,0.0,0.0,0.0,0.0
1583763060245076681,36,1583763055953393013,imu,-0.0241089034826,-0.00396728795022,0.16596536446,0.986131582396,0.0,0.0,0.0,0.0,0.0,0.0,0.0,0.0,0.0,0.0,0.0,0.0,0.0,0.0,0.0,0.0,0.0,0.0,0.0,0.0,0.0,-0.00781250279397,0.105468787253,-0.0273437593132,0.0,0.0,0.0,0.0,0.0,0.0,0.0,0.0,0.0
1583763060245094631,37,1583763056053393013,imu,-0.0233154464513,-0.00402832310647,0.175378334788,0.98450111208,0.0,0.0,0.0,0.0,0.0,0.0,0.0,0.0,0.0,0.0,0.0,0.0,0.0,0.0,0.0,0.0,0.0,0.0,0.0,0.0,0.0,0.0195312574506,0.0898437798023,0.0117187537253,0.0,0.0,0.0,0.0,0.0,0.0,0.0,0.0,0.0
1583763060245120230,38,1583763056153393013,imu,-0.0225830245763,-0.00402832310647,0.181856121149,0.983325150294,0.0,0.0,0.0,0.0,0.0,0.0,0.0,0.0,0.0,0.0,0.0,0.0,0.0,0.0,0.0,0.0,0.0,0.0,0.0,0.0,0.0,-0.00781250279397,0.0820312798023,0.0507812686265,0.0,0.0,0.0,0.0,0.0,0.0,0.0,0.0,0.0
1583763060245134038,39,1583763056252393013,imu,-0.0217285305262,-0.00427246419713,0.201067825151,0.979577321955,0.0,0.0,0.0,0.0,0.0,0.0,0.0,0.0,0.0,0.0,0.0,0.0,0.0,0.0,0.0,0.0,0.0,0.0,0.0,0.0,0.0,0.0195312574506,-0.00781250279397,-0.0351562611759,0.0,0.0,0.0,0.0,0.0,0.0,0.0,0.0,0.0
1583763060245148410,40,1583763056353393013,imu,-0.0209350734949,-0.00439453450963,0.214461611301,0.976732418464,0.0,0.0,0.0,0.0,0.0,0.0,0.0,0.0,0.0,0.0,0.0,0.0,0.0,0.0,0.0,0.0,0.0,0.0,0.0,0.0,0.0,-0.0156250055879,0.0585937723517,0.00390625139698,0.0,0.0,0.0,0.0,0.0,0.0,0.0,0.0,0.0
1583763060245160260,41,1583763056453393013,imu,-0.0198974758387,-0.00439453450963,0.225369545002,0.974273353934,0.0,0.0,0.0,0.0,0.0,0.0,0.0,0.0,0.0,0.0,0.0,0.0,0.0,0.0,0.0,0.0,0.0,0.0,0.0,0.0,0.0,0.0195312574506,-0.0312500111759,-0.0664062723517,0.0,0.0,0.0,0.0,0.0,0.0,0.0,0.0,0.0
1583763060245211001,42,1583763056553393013,imu,-0.0192260872573,-0.00476074544713,0.251040173034,0.967976668894,0.0,0.0,0.0,0.0,0.0,0.0,0.0,0.0,0.0,0.0,0.0,0.0,0.0,0.0,0.0,0.0,0.0,0.0,0.0,0.0,0.0,-0.0156250055879,0.0820312798023,-0.0195312574506,0.0,0.0,0.0,0.0,0.0,0.0,0.0,0.0,0.0
1583763060245381459,43,1583763056653393013,imu,-0.0185547005385,-0.00488281622529,0.266728653563,0.963771666614,0.0,0.0,0.0,0.0,0.0,0.0,0.0,0.0,0.0,0.0,0.0,0.0,0.0,0.0,0.0,0.0,0.0,0.0,0.0,0.0,0.0,0.0195312574506,-0.00781250279397,0.0195312574506,0.0,0.0,0.0,0.0,0.0,0.0,0.0,0.0,0.0
1583763060245538376,44,1583763056755393013,imu,-0.0178222786635,-0.00531006231904,0.297224611371,0.954807588153,0.0,0.0,0.0,0.0,0.0,0.0,0.0,0.0,0.0,0.0,0.0,0.0,0.0,0.0,0.0,0.0,0.0,0.0,0.0,0.0,0.0,-0.0312500111759,0.0195312574506,-0.0585937723517,0.0,0.0,0.0,0.0,0.0,0.0,0.0,0.0,0.0
1583763060245625288,45,1583763056860198904,imu,-0.0173950325698,-0.00531006231904,0.302475448249,0.953157176549,0.0,0.0,0.0,0.0,0.0,0.0,0.0,0.0,0.0,0.0,0.0,0.0,0.0,0.0,0.0,0.0,0.0,0.0,0.0,0.0,0.0,0.0507812686265,-0.246093839407,0.0117187537253,0.0,0.0,0.0,0.0,0.0,0.0,0.0,0.0,0.0
1583763060246226019,46,1583763056960198904,imu,-0.017211927101,-0.00573730887845,0.325902274743,0.945403462717,0.0,0.0,0.0,0.0,0.0,0.0,0.0,0.0,0.0,0.0,0.0,0.0,0.0,0.0,0.0,0.0,0.0,0.0,0.0,0.0,0.0,-0.0390625149012,-0.0312500111759,-0.0351562611759,0.0,0.0,0.0,0.0,0.0,0.0,0.0,0.0,0.0
1583763060246256483,47,1583763057060198904,imu,-0.0173950325698,-0.00598144950345,0.334720358145,0.942317505856,0.0,0.0,0.0,0.0,0.0,0.0,0.0,0.0,0.0,0.0,0.0,0.0,0.0,0.0,0.0,0.0,0.0,0.0,0.0,0.0,0.0,0.0273437593132,-0.0390625149012,0.00390625139698,0.0,0.0,0.0,0.0,0.0,0.0,0.0,0.0,0.0
1583763060246278566,48,1583763057160198904,imu,-0.0178222786635,-0.00549316778779,0.30387165307,0.952712978006,0.0,0.0,0.0,0.0,0.0,0.0,0.0,0.0,0.0,0.0,0.0,0.0,0.0,0.0,0.0,0.0,0.0,0.0,0.0,0.0,0.0,0.0273437593132,-0.0585937723517,0.0429687649012,0.0,0.0,0.0,0.0,0.0,0.0,0.0,0.0,0.0
1583763060246304415,49,1583763057260198904,imu,-0.0180664192885,-0.00585937919095,0.316927917259,0.948449627161,0.0,0.0,0.0,0.0,0.0,0.0,0.0,0.0,0.0,0.0,0.0,0.0,0.0,0.0,0.0,0.0,0.0,0.0,0.0,0.0,0.0,-0.0195312574506,-0.0351562611759,-0.0742187798023,0.0,0.0,0.0,0.0,0.0,0.0,0.0,0.0,0.0
1583763060246394243,50,1583763057360198904,imu,-0.018676770851,-0.0059204143472,0.309971752955,0.950745766422,0.0,0.0,0.0,0.0,0.0,0.0,0.0,0.0,0.0,0.0,0.0,0.0,0.0,0.0,0.0,0.0,0.0,0.0,0.0,0.0,0.0,-0.0195312574506,-0.0273437593132,0.00390625139698,0.0,0.0,0.0,0.0,0.0,0.0,0.0,0.0,0.0
1583763060246514531,51,1583763057459198904,imu,-0.0191040169448,-0.00598144950345,0.306103618768,0.951998200932,0.0,0.0,0.0,0.0,0.0,0.0,0.0,0.0,0.0,0.0,0.0,0.0,0.0,0.0,0.0,0.0,0.0,0.0,0.0,0.0,0.0,0.0195312574506,0.0390625149012,0.00390625139698,0.0,0.0,0.0,0.0,0.0,0.0,0.0,0.0,0.0
1583763060246534310,52,1583763057559198904,imu,-0.0197143703699,-0.00573730887845,0.286743663616,0.958007344114,0.0,0.0,0.0,0.0,0.0,0.0,0.0,0.0,0.0,0.0,0.0,0.0,0.0,0.0,0.0,0.0,0.0,0.0,0.0,0.0,0.0,-0.0546875186265,-0.0195312574506,0.00390625139698,0.0,0.0,0.0,0.0,0.0,0.0,0.0,0.0,0.0
1583763060246582700,53,1583763057659198904,imu,-0.0203247219324,-0.00531006231904,0.260737557573,0.965409719275,0.0,0.0,0.0,0.0,0.0,0.0,0.0,0.0,0.0,0.0,0.0,0.0,0.0,0.0,0.0,0.0,0.0,0.0,0.0,0.0,0.0,-0.0390625149012,0.0234375074506,0.00390625139698,0.0,0.0,0.0,0.0,0.0,0.0,0.0,0.0,0.0
1583763060246596836,54,1583763057759198904,imu,-0.0206298977137,-0.00531006231904,0.257085572884,0.966388642429,0.0,0.0,0.0,0.0,0.0,0.0,0.0,0.0,0.0,0.0,0.0,0.0,0.0,0.0,0.0,0.0,0.0,0.0,0.0,0.0,0.0,-0.00390625139698,-0.0195312574506,0.00390625139698,0.0,0.0,0.0,0.0,0.0,0.0,0.0,0.0,0.0
1583763060246749937,55,1583763057859198904,imu,-0.0211181789637,-0.00482178060338,0.230067221562,0.97317473948,0.0,0.0,0.0,0.0,0.0,0.0,0.0,0.0,0.0,0.0,0.0,0.0,0.0,0.0,0.0,0.0,0.0,0.0,0.0,0.0,0.0,0.0195312574506,0.0234375074506,0.0429687649012,0.0,0.0,0.0,0.0,0.0,0.0,0.0,0.0,0.0
1583763060246922093,56,1583763057959198904,imu,-0.0215454250574,-0.00512695685029,0.23884945742,0.971056608386,0.0,0.0,0.0,0.0,0.0,0.0,0.0,0.0,0.0,0.0,0.0,0.0,0.0,0.0,0.0,0.0,0.0,0.0,0.0,0.0,0.0,0.0117187537253,0.0234375074506,0.00390625139698,0.0,0.0,0.0,0.0,0.0,0.0,0.0,0.0,0.0
1583763060247647580,57,1583763058060198904,imu,-0.0216674953699,-0.00506592169404,0.235631963564,0.971842362602,0.0,0.0,0.0,0.0,0.0,0.0,0.0,0.0,0.0,0.0,0.0,0.0,0.0,0.0,0.0,0.0,0.0,0.0,0.0,0.0,0.0,0.0117187537253,-0.0195312574506,0.00390625139698,0.0,0.0,0.0,0.0,0.0,0.0,0.0,0.0,0.0
1583763060247800185,58,1583763058160198904,imu,-0.0220947414637,-0.00506592169404,0.23195991739,0.972725344958,0.0,0.0,0.0,0.0,0.0,0.0,0.0,0.0,0.0,0.0,0.0,0.0,0.0,0.0,0.0,0.0,0.0,0.0,0.0,0.0,0.0,0.0507812686265,0.0234375074506,0.0781250298023,0.0,0.0,0.0,0.0,0.0,0.0,0.0,0.0,0.0
1583763060247829854,59,1583763058259198904,imu,-0.0220337063074,-0.00524902716279,0.239237900557,0.970960981161,0.0,0.0,0.0,0.0,0.0,0.0,0.0,0.0,0.0,0.0,0.0,0.0,0.0,0.0,0.0,0.0,0.0,0.0,0.0,0.0,0.0,-0.0312500111759,-0.0507812686265,0.0625000223517,0.0,0.0,0.0,0.0,0.0,0.0,0.0,0.0,0.0
1583763060247959727,60,1583763058359198904,imu,-0.0223388839513,-0.00494385138154,0.223046195355,0.974807875808,0.0,0.0,0.0,0.0,0.0,0.0,0.0,0.0,0.0,0.0,0.0,0.0,0.0,0.0,0.0,0.0,0.0,0.0,0.0,0.0,0.0,-0.0312500111759,0.101562537253,-0.0742187798023,0.0,0.0,0.0,0.0,0.0,0.0,0.0,0.0,0.0
1583763060248000614,61,1583763058460198904,imu,-0.0220337063074,-0.00494385138154,0.224566663079,0.974458728646,0.0,0.0,0.0,0.0,0.0,0.0,0.0,0.0,0.0,0.0,0.0,0.0,0.0,0.0,0.0,0.0,0.0,0.0,0.0,0.0,0.0,0.00390625139698,0.0,-0.0664062723517,0.0,0.0,0.0,0.0,0.0,0.0,0.0,0.0,0.0
1583763060248036594,62,1583763058559198904,imu,-0.0220947414637,-0.00482178060338,0.218056682533,0.975936106107,0.0,0.0,0.0,0.0,0.0,0.0,0.0,0.0,0.0,0.0,0.0,0.0,0.0,0.0,0.0,0.0,0.0,0.0,0.0,0.0,0.0,-0.0625000223517,0.0390625149012,-0.148437559605,0.0,0.0,0.0,0.0,0.0,0.0,0.0,0.0,0.0
1583763060248103245,63,1583763058659198904,imu,-0.0220337063074,-0.00482178060338,0.218420080331,0.975854839875,0.0,0.0,0.0,0.0,0.0,0.0,0.0,0.0,0.0,0.0,0.0,0.0,0.0,0.0,0.0,0.0,0.0,0.0,0.0,0.0,0.0,-0.00781250279397,0.0468750149012,0.0273437593132,0.0,0.0,0.0,0.0,0.0,0.0,0.0,0.0,0.0
1583763060248239252,64,1583763058759198904,imu,-0.0217285305262,-0.00427246419713,0.197184726218,0.980366351802,0.0,0.0,0.0,0.0,0.0,0.0,0.0,0.0,0.0,0.0,0.0,0.0,0.0,0.0,0.0,0.0,0.0,0.0,0.0,0.0,0.0,0.0351562611759,-0.0351562611759,0.0585937723517,0.0,0.0,0.0,0.0,0.0,0.0,0.0,0.0,0.0
1583763060248628895,65,1583763058859198904,imu,-0.0218506008387,-0.00372314709239,0.171516895317,0.985181178576,0.0,0.0,0.0,0.0,0.0,0.0,0.0,0.0,0.0,0.0,0.0,0.0,0.0,0.0,0.0,0.0,0.0,0.0,0.0,0.0,0.0,0.0507812686265,-0.00781250279397,0.0117187537253,0.0,0.0,0.0,0.0,0.0,0.0,0.0,0.0,0.0
1583763060248754937,66,1583763058960198904,imu,-0.0219116359949,-0.00317383045331,0.146784594783,0.989168480459,0.0,0.0,0.0,0.0,0.0,0.0,0.0,0.0,0.0,0.0,0.0,0.0,0.0,0.0,0.0,0.0,0.0,0.0,0.0,0.0,0.0,0.0156250055879,-0.00781250279397,0.0117187537253,0.0,0.0,0.0,0.0,0.0,0.0,0.0,0.0,0.0
1583763060248787214,67,1583763059059198904,imu,-0.0218506008387,-0.00378418248147,0.174223415117,0.984706149887,0.0,0.0,0.0,0.0,0.0,0.0,0.0,0.0,0.0,0.0,0.0,0.0,0.0,0.0,0.0,0.0,0.0,0.0,0.0,0.0,0.0,-0.00781250279397,-0.0429687649012,-0.0664062723517,0.0,0.0,0.0,0.0,0.0,0.0,0.0,0.0,0.0
1583763060248903738,68,1583763059159198904,imu,-0.0222168136388,-0.00292968959548,0.134643070632,0.990894163637,0.0,0.0,0.0,0.0,0.0,0.0,0.0,0.0,0.0,0.0,0.0,0.0,0.0,0.0,0.0,0.0,0.0,0.0,0.0,0.0,0.0,0.00781250279397,-0.253906339407,-0.0351562611759,0.0,0.0,0.0,0.0,0.0,0.0,0.0,0.0,0.0
1583763060249077753,69,1583763059261198904,imu,-0.0223999191076,-0.00280761928298,0.127310981774,0.991862850358,0.0,0.0,0.0,0.0,0.0,0.0,0.0,0.0,0.0,0.0,0.0,0.0,0.0,0.0,0.0,0.0,0.0,0.0,0.0,0.0,0.0,-0.140625044703,0.0390625149012,-0.105468787253,0.0,0.0,0.0,0.0,0.0,0.0,0.0,0.0,0.0
1583763060249162355,70,1583763059364934999,imu,-0.0227661300451,-0.00286865443923,0.127455017442,0.991844351967,0.0,0.0,0.0,0.0,0.0,0.0,0.0,0.0,0.0,0.0,0.0,0.0,0.0,0.0,0.0,0.0,0.0,0.0,0.0,0.0,0.0,-0.0546875186265,0.0390625149012,0.0351562611759,0.0,0.0,0.0,0.0,0.0,0.0,0.0,0.0,0.0
1583763060251509515,71,1583763059464934999,imu,-0.0230713058263,-0.00256347842515,0.112528723601,0.99364847223,0.0,0.0,0.0,0.0,0.0,0.0,0.0,0.0,0.0,0.0,0.0,0.0,0.0,0.0,0.0,0.0,0.0,0.0,0.0,0.0,0.0,0.0390625149012,-0.113281287253,-0.00390625139698,0.0,0.0,0.0,0.0,0.0,0.0,0.0,0.0,0.0
1583763060251552242,72,1583763059565934999,imu,-0.0236206222326,-0.00225830241106,0.0970388082193,0.995280598474,0.0,0.0,0.0,0.0,0.0,0.0,0.0,0.0,0.0,0.0,0.0,0.0,0.0,0.0,0.0,0.0,0.0,0.0,0.0,0.0,0.0,0.0,-0.00390625139698,0.0351562611759,0.0,0.0,0.0,0.0,0.0,0.0,0.0,0.0,0.0
1583763060251559883,73,1583763059664934999,imu,-0.0242309737951,-0.00244140811265,0.101957542855,0.99478875117,0.0,0.0,0.0,0.0,0.0,0.0,0.0,0.0,0.0,0.0,0.0,0.0,0.0,0.0,0.0,0.0,0.0,0.0,0.0,0.0,0.0,-0.0468750149012,-0.0742187798023,0.00390625139698,0.0,0.0,0.0,0.0,0.0,0.0,0.0,0.0,0.0
1583763060251569052,74,1583763059763934999,imu,-0.024780292064,-0.00238037272356,0.097174119148,0.995267396516,0.0,0.0,0.0,0.0,0.0,0.0,0.0,0.0,0.0,0.0,0.0,0.0,0.0,0.0,0.0,0.0,0.0,0.0,0.0,0.0,0.0,0.0,-0.0117187537253,0.0117187537253,0.0,0.0,0.0,0.0,0.0,0.0,0.0,0.0,0.0
1583763060251635492,75,1583763059864934999,imu,-0.0258178897202,-0.00207519670948,0.0815988689526,0.996665252021,0.0,0.0,0.0,0.0,0.0,0.0,0.0,0.0,0.0,0.0,0.0,0.0,0.0,0.0,0.0,0.0,0.0,0.0,0.0,0.0,0.0,0.0468750149012,0.0507812686265,0.0117187537253,0.0,0.0,0.0,0.0,0.0,0.0,0.0,0.0,0.0
1583763060251740226,76,1583763059963934999,imu,-0.026489276439,-0.00201416155323,0.0770722661192,0.9970255091,0.0,0.0,0.0,0.0,0.0,0.0,0.0,0.0,0.0,0.0,0.0,0.0,0.0,0.0,0.0,0.0,0.0,0.0,0.0,0.0,0.0,0.0,0.0507812686265,0.0820312798023,0.0,0.0,0.0,0.0,0.0,0.0,0.0,0.0,0.0
1583763060251752018,77,1583763060063934999,imu,-0.0269165225327,-0.00195312639698,0.0735161952555,0.997294023363,0.0,0.0,0.0,0.0,0.0,0.0,0.0,0.0,0.0,0.0,0.0,0.0,0.0,0.0,0.0,0.0,0.0,0.0,0.0,0.0,0.0,0.0390625149012,-0.0273437593132,0.0664062723517,0.0,0.0,0.0,0.0,0.0,0.0,0.0,0.0,0.0
1583763060334663395,78,1583763060163934999,imu,-0.0276489462703,-0.00207519670948,0.0759002511938,0.997115415521,0.0,0.0,0.0,0.0,0.0,0.0,0.0,0.0,0.0,0.0,0.0,0.0,0.0,0.0,0.0,0.0,0.0,0.0,0.0,0.0,0.0,-0.0859375298023,0.0507812686265,-0.0585937723517,0.0,0.0,0.0,0.0,0.0,0.0,0.0,0.0,0.0
1583763060434072520,79,1583763060264934999,imu,-0.0278930868953,-0.00231933756731,0.0840325774792,0.996463007804,0.0,0.0,0.0,0.0,0.0,0.0,0.0,0.0,0.0,0.0,0.0,0.0,0.0,0.0,0.0,0.0,0.0,0.0,0.0,0.0,0.0,0.0664062723517,-0.0898437798023,0.0273437593132,0.0,0.0,0.0,0.0,0.0,0.0,0.0,0.0,0.0
1583763060534551384,80,1583763060363934999,imu,-0.0281372275203,-0.00225830241106,0.0812938149395,0.996690180373,0.0,0.0,0.0,0.0,0.0,0.0,0.0,0.0,0.0,0.0,0.0,0.0,0.0,0.0,0.0,0.0,0.0,0.0,0.0,0.0,0.0,-0.0156250055879,0.117187544703,0.0585937723517,0.0,0.0,0.0,0.0,0.0,0.0,0.0,0.0,0.0
1583763060633972990,81,1583763060464934999,imu,-0.0281372275203,-0.00244140811265,0.0883249211569,0.996091716813,0.0,0.0,0.0,0.0,0.0,0.0,0.0,0.0,0.0,0.0,0.0,0.0,0.0,0.0,0.0,0.0,0.0,0.0,0.0,0.0,0.0,0.105468787253,-0.0429687649012,0.0117187537253,0.0,0.0,0.0,0.0,0.0,0.0,0.0,0.0,0.0
1583763060734260124,82,1583763060563934999,imu,-0.0279541220516,-0.0025024432689,0.0907146265477,0.995876928405,0.0,0.0,0.0,0.0,0.0,0.0,0.0,0.0,0.0,0.0,0.0,0.0,0.0,0.0,0.0,0.0,0.0,0.0,0.0,0.0,0.0,0.0156250055879,-0.00390625139698,-0.0273437593132,0.0,0.0,0.0,0.0,0.0,0.0,0.0,0.0,0.0
1583763060834743620,83,1583763060623934999,imu,-0.0276489462703,-0.00244140811265,0.0896726546801,0.995971292258,0.0,0.0,0.0,0.0,0.0,0.0,0.0,0.0,0.0,0.0,0.0,0.0,0.0,0.0,0.0,0.0,0.0,0.0,0.0,0.0,0.0,0.0156250055879,-0.00390625139698,-0.0273437593132,0.0,0.0,0.0,0.0,0.0,0.0,0.0,0.0,0.0
1583763060934333343,84,1583763060764934999,imu,-0.027221698314,-0.00268554873765,0.100263747671,0.994960894158,0.0,0.0,0.0,0.0,0.0,0.0,0.0,0.0,0.0,0.0,0.0,0.0,0.0,0.0,0.0,0.0,0.0,0.0,0.0,0.0,0.0,-0.0234375074506,-0.0117187537253,-0.0351562611759,0.0,0.0,0.0,0.0,0.0,0.0,0.0,0.0,0.0
1583763061035209049,85,1583763060863934999,imu,-0.026733417064,-0.00292968959548,0.111602556888,0.993752921654,0.0,0.0,0.0,0.0,0.0,0.0,0.0,0.0,0.0,0.0,0.0,0.0,0.0,0.0,0.0,0.0,0.0,0.0,0.0,0.0,0.0,-0.0156250055879,0.0585937723517,-0.0273437593132,0.0,0.0,0.0,0.0,0.0,0.0,0.0,0.0,0.0
1583763061134633168,86,1583763060963934999,imu,-0.026000995189,-0.00305175990798,0.119926298712,0.992782797432,0.0,0.0,0.0,0.0,0.0,0.0,0.0,0.0,0.0,0.0,0.0,0.0,0.0,0.0,0.0,0.0,0.0,0.0,0.0,0.0,0.0,0.0156250055879,-0.0429687649012,0.0507812686265,0.0,0.0,0.0,0.0,0.0,0.0,0.0,0.0,0.0
1583763061234052063,87,1583763061024934999,imu,-0.025024432689,-0.00323486560956,0.13183612043,0.991271525542,0.0,0.0,0.0,0.0,0.0,0.0,0.0,0.0,0.0,0.0,0.0,0.0,0.0,0.0,0.0,0.0,0.0,0.0,0.0,0.0,0.0,0.0156250055879,-0.0429687649012,0.0507812686265,0.0,0.0,0.0,0.0,0.0,0.0,0.0,0.0,0.0
1583763061333944527,88,1583763061124934999,imu,-0.0242309737951,-0.00366211193614,0.153894379756,0.988087303774,0.0,0.0,0.0,0.0,0.0,0.0,0.0,0.0,0.0,0.0,0.0,0.0,0.0,0.0,0.0,0.0,0.0,0.0,0.0,0.0,0.0,0.00781250279397,-0.0195312574506,-0.0351562611759,0.0,0.0,0.0,0.0,0.0,0.0,0.0,0.0,0.0
1583763061433891671,89,1583763061263934999,imu,-0.0233764816076,-0.00384521763772,0.168809781841,0.985648648127,0.0,0.0,0.0,0.0,0.0,0.0,0.0,0.0,0.0,0.0,0.0,0.0,0.0,0.0,0.0,0.0,0.0,0.0,0.0,0.0,0.0,0.0,0.0156250055879,0.0585937723517,0.0,0.0,0.0,0.0,0.0,0.0,0.0,0.0,0.0
1583763061534525682,90,1583763061363934999,imu,-0.0225219894201,-0.00415039341897,0.18891357854,0.981993716804,0.0,0.0,0.0,0.0,0.0,0.0,0.0,0.0,0.0,0.0,0.0,0.0,0.0,0.0,0.0,0.0,0.0,0.0,0.0,0.0,0.0,0.0664062723517,-0.0429687649012,0.00390625139698,0.0,0.0,0.0,0.0,0.0,0.0,0.0,0.0,0.0
1583763061633985460,91,1583763061464934999,imu,-0.0216064602137,-0.00469971029088,0.222463750489,0.974940962171,0.0,0.0,0.0,0.0,0.0,0.0,0.0,0.0,0.0,0.0,0.0,0.0,0.0,0.0,0.0,0.0,0.0,0.0,0.0,0.0,0.0,-0.0625000223517,0.0156250055879,-0.0351562611759,0.0,0.0,0.0,0.0,0.0,0.0,0.0,0.0,0.0
1583763061734085373,92,1583763061563934999,imu,-0.0208740383387,-0.00476074544713,0.234211219568,0.972185735664,0.0,0.0,0.0,0.0,0.0,0.0,0.0,0.0,0.0,0.0,0.0,0.0,0.0,0.0,0.0,0.0,0.0,0.0,0.0,0.0,0.0,0.0585937723517,0.0,0.0507812686265,0.0,0.0,0.0,0.0,0.0,0.0,0.0,0.0,0.0
1583763061834169356,93,1583763061664934999,imu,-0.0200805813074,-0.00494385138154,0.251552260039,0.967843716965,0.0,0.0,0.0,0.0,0.0,0.0,0.0,0.0,0.0,0.0,0.0,0.0,0.0,0.0,0.0,0.0,0.0,0.0,0.0,0.0,0.0,0.0585937723517,-0.0234375074506,0.00390625139698,0.0,0.0,0.0,0.0,0.0,0.0,0.0,0.0,0.0
1583763061934032301,94,1583763061763934999,imu,-0.0195923000574,-0.00518799200654,0.271052639976,0.962564525817,0.0,0.0,0.0,0.0,0.0,0.0,0.0,0.0,0.0,0.0,0.0,0.0,0.0,0.0,0.0,0.0,0.0,0.0,0.0,0.0,0.0,0.0117187537253,-0.105468787253,0.0429687649012,0.0,0.0,0.0,0.0,0.0,0.0,0.0,0.0,0.0
1583763062034422920,95,1583763061866934999,imu,-0.0187988411635,-0.00500488653779,0.291600760685,0.95654011749,0.0,0.0,0.0,0.0,0.0,0.0,0.0,0.0,0.0,0.0,0.0,0.0,0.0,0.0,0.0,0.0,0.0,0.0,0.0,0.0,0.0,-0.0546875186265,-0.320312619209,0.00390625139698,0.0,0.0,0.0,0.0,0.0,0.0,0.0,0.0,0.0
1583763062134201902,96,1583763061967217063,imu,-0.019165052101,-0.00439453450963,0.288048705417,0.957615759743,0.0,0.0,0.0,0.0,0.0,0.0,0.0,0.0,0.0,0.0,0.0,0.0,0.0,0.0,0.0,0.0,0.0,0.0,0.0,0.0,0.0,0.105468787253,-0.207031324506,0.0195312574506,0.0,0.0,0.0,0.0,0.0,0.0,0.0,0.0,0.0
1583763062233881663,97,1583763062066217063,imu,-0.019409192726,-0.00476074544713,0.298596148855,0.95437955756,0.0,0.0,0.0,0.0,0.0,0.0,0.0,0.0,0.0,0.0,0.0,0.0,0.0,0.0,0.0,0.0,0.0,0.0,0.0,0.0,0.0,0.105468787253,-0.144531294703,-0.0273437593132,0.0,0.0,0.0,0.0,0.0,0.0,0.0,0.0,0.0
1583763062334571037,98,1583763062167217063,imu,-0.0202026516199,-0.00524902716279,0.30981879763,0.950795620854,0.0,0.0,0.0,0.0,0.0,0.0,0.0,0.0,0.0,0.0,0.0,0.0,0.0,0.0,0.0,0.0,0.0,0.0,0.0,0.0,0.0,0.0195312574506,-0.0585937723517,0.101562537253,0.0,0.0,0.0,0.0,0.0,0.0,0.0,0.0,0.0
1583763062434578557,99,1583763062267217063,imu,-0.0211181789637,-0.00512695685029,0.302614244933,0.953113119605,0.0,0.0,0.0,0.0,0.0,0.0,0.0,0.0,0.0,0.0,0.0,0.0,0.0,0.0,0.0,0.0,0.0,0.0,0.0,0.0,0.0,0.113281287253,-0.0742187798023,-0.0195312574506,0.0,0.0,0.0,0.0,0.0,0.0,0.0,0.0,0.0
1583763062534061426,100,1583763062366217063,imu,-0.0217895656824,-0.00518799200654,0.289782421931,0.957092549308,0.0,0.0,0.0,0.0,0.0,0.0,0.0,0.0,0.0,0.0,0.0,0.0,0.0,0.0,0.0,0.0,0.0,0.0,0.0,0.0,0.0,-0.0117187537253,-0.0273437593132,-0.0117187537253,0.0,0.0,0.0,0.0,0.0,0.0,0.0,0.0,0.0
1583763062633902141,101,1583763062467217063,imu,-0.0223999191076,-0.00543213263154,0.290718822045,0.956808531791,0.0,0.0,0.0,0.0,0.0,0.0,0.0,0.0,0.0,0.0,0.0,0.0,0.0,0.0,0.0,0.0,0.0,0.0,0.0,0.0,0.0,-0.00390625139698,0.0273437593132,-0.00390625139698,0.0,0.0,0.0,0.0,0.0,0.0,0.0,0.0,0.0
1583763062734050472,102,1583763062567217063,imu,-0.0230713058263,-0.00543213263154,0.280053116061,0.959984506221,0.0,0.0,0.0,0.0,0.0,0.0,0.0,0.0,0.0,0.0,0.0,0.0,0.0,0.0,0.0,0.0,0.0,0.0,0.0,0.0,0.0,-0.00390625139698,0.273437589407,-0.0351562611759,0.0,0.0,0.0,0.0,0.0,0.0,0.0,0.0,0.0
1583763062834752784,103,1583763062666217063,imu,-0.0235595870763,-0.00543213263154,0.272181041069,0.962246060466,0.0,0.0,0.0,0.0,0.0,0.0,0.0,0.0,0.0,0.0,0.0,0.0,0.0,0.0,0.0,0.0,0.0,0.0,0.0,0.0,0.0,-0.00390625139698,0.187500059605,0.0117187537253,0.0,0.0,0.0,0.0,0.0,0.0,0.0,0.0,0.0
1583763062934390356,104,1583763062766217063,imu,-0.0236816573888,-0.00549316778779,0.273859251928,0.961769780214,0.0,0.0,0.0,0.0,0.0,0.0,0.0,0.0,0.0,0.0,0.0,0.0,0.0,0.0,0.0,0.0,0.0,0.0,0.0,0.0,0.0,-0.00390625139698,0.117187544703,0.0117187537253,0.0,0.0,0.0,0.0,0.0,0.0,0.0,0.0,0.0
1583763063034343051,105,1583763062826217063,imu,-0.0235595870763,-0.00549316778779,0.275327804626,0.961350404379,0.0,0.0,0.0,0.0,0.0,0.0,0.0,0.0,0.0,0.0,0.0,0.0,0.0,0.0,0.0,0.0,0.0,0.0,0.0,0.0,0.0,-0.00390625139698,0.117187544703,0.0117187537253,0.0,0.0,0.0,0.0,0.0,0.0,0.0,0.0,0.0
1583763063134099240,106,1583763062926217063,imu,-0.0232544112951,-0.00549316778779,0.279060259754,0.960273591965,0.0,0.0,0.0,0.0,0.0,0.0,0.0,0.0,0.0,0.0,0.0,0.0,0.0,0.0,0.0,0.0,0.0,0.0,0.0,0.0,0.0,-0.00390625139698,0.0312500111759,0.00390625139698,0.0,0.0,0.0,0.0,0.0,0.0,0.0,0.0,0.0
1583763063234047522,107,1583763063027217063,imu,-0.0228271652013,-0.00549316778779,0.284436385398,0.958694916364,0.0,0.0,0.0,0.0,0.0,0.0,0.0,0.0,0.0,0.0,0.0,0.0,0.0,0.0,0.0,0.0,0.0,0.0,0.0,0.0,0.0,-0.00390625139698,0.0546875186265,0.00390625139698,0.0,0.0,0.0,0.0,0.0,0.0,0.0,0.0,0.0
1583763063334154989,108,1583763063166217063,imu,-0.0223388839513,-0.0055542034097,0.293089263304,0.95608508185,0.0,0.0,0.0,0.0,0.0,0.0,0.0,0.0,0.0,0.0,0.0,0.0,0.0,0.0,0.0,0.0,0.0,0.0,0.0,0.0,0.0,-0.0117187537253,-0.00781250279397,0.0117187537253,0.0,0.0,0.0,0.0,0.0,0.0,0.0,0.0,0.0
1583763063434005993,109,1583763063266217063,imu,-0.0220337063074,-0.00561523856595,0.299508672668,0.954093577694,0.0,0.0,0.0,0.0,0.0,0.0,0.0,0.0,0.0,0.0,0.0,0.0,0.0,0.0,0.0,0.0,0.0,0.0,0.0,0.0,0.0,-0.0117187537253,0.0312500111759,0.0117187537253,0.0,0.0,0.0,0.0,0.0,0.0,0.0,0.0,0.0
1583763063534136158,110,1583763063367217063,imu,-0.0217285305262,-0.00561523856595,0.303749389177,0.952751965925,0.0,0.0,0.0,0.0,0.0,0.0,0.0,0.0,0.0,0.0,0.0,0.0,0.0,0.0,0.0,0.0,0.0,0.0,0.0,0.0,0.0,-0.0117187537253,-0.00781250279397,-0.0273437593132,0.0,0.0,0.0,0.0,0.0,0.0,0.0,0.0,0.0
1583763063633999649,111,1583763063427217063,imu,-0.0214843899012,-0.0056762737222,0.30953627599,0.950887634711,0.0,0.0,0.0,0.0,0.0,0.0,0.0,0.0,0.0,0.0,0.0,0.0,0.0,0.0,0.0,0.0,0.0,0.0,0.0,0.0,0.0,-0.0117187537253,-0.00781250279397,-0.0273437593132,0.0,0.0,0.0,0.0,0.0,0.0,0.0,0.0,0.0
1583763063734124146,112,1583763063566217063,imu,-0.0211181789637,-0.00573730887845,0.317216881738,0.948353019682,0.0,0.0,0.0,0.0,0.0,0.0,0.0,0.0,0.0,0.0,0.0,0.0,0.0,0.0,0.0,0.0,0.0,0.0,0.0,0.0,0.0,-0.0117187537253,0.0234375074506,0.0117187537253,0.0,0.0,0.0,0.0,0.0,0.0,0.0,0.0,0.0
1583763063834452060,113,1583763063626217063,imu,-0.0207519680262,-0.00573730887845,0.322740586243,0.946487461085,0.0,0.0,0.0,0.0,0.0,0.0,0.0,0.0,0.0,0.0,0.0,0.0,0.0,0.0,0.0,0.0,0.0,0.0,0.0,0.0,0.0,-0.0117187537253,0.0234375074506,0.0117187537253,0.0,0.0,0.0,0.0,0.0,0.0,0.0,0.0,0.0
1583763063933923768,114,1583763063766217063,imu,-0.0203857570887,-0.0057983440347,0.329731276448,0.944074830367,0.0,0.0,0.0,0.0,0.0,0.0,0.0,0.0,0.0,0.0,0.0,0.0,0.0,0.0,0.0,0.0,0.0,0.0,0.0,0.0,0.0,-0.0117187537253,0.0156250055879,0.0117187537253,0.0,0.0,0.0,0.0,0.0,0.0,0.0,0.0,0.0
1583763064033773239,115,1583763063826217063,imu,-0.0201416164637,-0.00585937919095,0.335991305413,0.941865087306,0.0,0.0,0.0,0.0,0.0,0.0,0.0,0.0,0.0,0.0,0.0,0.0,0.0,0.0,0.0,0.0,0.0,0.0,0.0,0.0,0.0,-0.0117187537253,0.0156250055879,0.0117187537253,0.0,0.0,0.0,0.0,0.0,0.0,0.0,0.0,0.0
1583763064134708547,116,1583763063966217063,imu,-0.0199585109949,-0.0057983440347,0.337658101597,0.941268827927,0.0,0.0,0.0,0.0,0.0,0.0,0.0,0.0,0.0,0.0,0.0,0.0,0.0,0.0,0.0,0.0,0.0,0.0,0.0,0.0,0.0,-0.0468750149012,-0.0234375074506,0.0117187537253,0.0,0.0,0.0,0.0,0.0,0.0,0.0,0.0,0.0
1583763064233747856,117,1583763064067217063,imu,-0.0197754055262,-0.00573730887845,0.338277690516,0.941046334725,0.0,0.0,0.0,0.0,0.0,0.0,0.0,0.0,0.0,0.0,0.0,0.0,0.0,0.0,0.0,0.0,0.0,0.0,0.0,0.0,0.0,0.00390625139698,-0.0234375074506,0.00390625139698,0.0,0.0,0.0,0.0,0.0,0.0,0.0,0.0,0.0
1583763064334584186,118,1583763064167217063,imu,-0.0195312649012,-0.00561523856595,0.33751715623,0.941319376859,0.0,0.0,0.0,0.0,0.0,0.0,0.0,0.0,0.0,0.0,0.0,0.0,0.0,0.0,0.0,0.0,0.0,0.0,0.0,0.0,0.0,0.00390625139698,0.0156250055879,0.00390625139698,0.0,0.0,0.0,0.0,0.0,0.0,0.0,0.0,0.0
1583763064434027332,119,1583763064267217063,imu,-0.0192871224135,-0.0055542034097,0.338057524847,0.941125448543,0.0,0.0,0.0,0.0,0.0,0.0,0.0,0.0,0.0,0.0,0.0,0.0,0.0,0.0,0.0,0.0,0.0,0.0,0.0,0.0,0.0,0.00390625139698,0.0156250055879,0.00390625139698,0.0,0.0,0.0,0.0,0.0,0.0,0.0,0.0,0.0
1583763064533948579,120,1583763064366217063,imu,-0.0190429817885,-0.00561523856595,0.344709747318,0.938709321411,0.0,0.0,0.0,0.0,0.0,0.0,0.0,0.0,0.0,0.0,0.0,0.0,0.0,0.0,0.0,0.0,0.0,0.0,0.0,0.0,0.0,-0.00390625139698,0.00781250279397,-0.0273437593132,0.0,0.0,0.0,0.0,0.0,0.0,0.0,0.0,0.0
1583763064633924535,121,1583763064473635990,imu,-0.0187988411635,-0.00561523856595,0.350164107993,0.93668836732,0.0,0.0,0.0,0.0,0.0,0.0,0.0,0.0,0.0,0.0,0.0,0.0,0.0,0.0,0.0,0.0,0.0,0.0,0.0,0.0,0.0,-0.00390625139698,0.00781250279397,0.0117187537253,0.0,0.0,0.0,0.0,0.0,0.0,0.0,0.0,0.0
1583763064733956606,122,1583763064573635990,imu,-0.018676770851,-0.0056762737222,0.354808604441,0.93493895748,0.0,0.0,0.0,0.0,0.0,0.0,0.0,0.0,0.0,0.0,0.0,0.0,0.0,0.0,0.0,0.0,0.0,0.0,0.0,0.0,0.0,-0.00390625139698,0.00781250279397,0.0117187537253,0.0,0.0,0.0,0.0,0.0,0.0,0.0,0.0,0.0
1583763064834217120,123,1583763064673635990,imu,-0.0184936653823,-0.00561523856595,0.355658560635,0.934615957625,0.0,0.0,0.0,0.0,0.0,0.0,0.0,0.0,0.0,0.0,0.0,0.0,0.0,0.0,0.0,0.0,0.0,0.0,0.0,0.0,0.0,-0.00390625139698,0.0,-0.0273437593132,0.0,0.0,0.0,0.0,0.0,0.0,0.0,0.0,0.0
1583763064933965149,124,1583763064673635990,imu,-0.0184936653823,-0.00561523856595,0.714440156589,0.699696550408,0.0,0.0,0.0,0.0,0.0,0.0,0.0,0.0,0.0,0.0,0.0,0.0,0.0,0.0,0.0,0.0,0.0,0.0,0.0,0.0,0.0,-0.00390625139698,0.0,-0.0273437593132,0.0,0.0,0.0,0.0,0.0,0.0,0.0,0.0,0.0
1583763065034307704,125,1583763064873635990,imu,-0.0182495247573,-0.0056762737222,0.361446427417,0.932392878623,0.0,0.0,0.0,0.0,0.0,0.0,0.0,0.0,0.0,0.0,0.0,0.0,0.0,0.0,0.0,0.0,0.0,0.0,0.0,0.0,0.0,-0.00390625139698,0.0156250055879,-0.0273437593132,0.0,0.0,0.0,0.0,0.0,0.0,0.0,0.0,0.0
1583763065133838982,126,1583763064974635990,imu,-0.018188489601,-0.00561523856595,0.360089117307,0.932917910428,0.0,0.0,0.0,0.0,0.0,0.0,0.0,0.0,0.0,0.0,0.0,0.0,0.0,0.0,0.0,0.0,0.0,0.0,0.0,0.0,0.0,0.00390625139698,-0.0156250055879,0.0117187537253,0.0,0.0,0.0,0.0,0.0,0.0,0.0,0.0,0.0
1583763065234202897,127,1583763065072635990,imu,-0.0181274544448,-0.0055542034097,0.358723268886,0.933443954589,0.0,0.0,0.0,0.0,0.0,0.0,0.0,0.0,0.0,0.0,0.0,0.0,0.0,0.0,0.0,0.0,0.0,0.0,0.0,0.0,0.0,0.00390625139698,0.0234375074506,0.0117187537253,0.0,0.0,0.0,0.0,0.0,0.0,0.0,0.0,0.0
1583763065334224257,128,1583763065174635990,imu,-0.0181274544448,-0.0055542034097,0.359937365935,0.93297646948,0.0,0.0,0.0,0.0,0.0,0.0,0.0,0.0,0.0,0.0,0.0,0.0,0.0,0.0,0.0,0.0,0.0,0.0,0.0,0.0,0.0,0.00390625139698,0.0156250055879,0.0117187537253,0.0,0.0,0.0,0.0,0.0,0.0,0.0,0.0,0.0
1583763065433895437,129,1583763065272635990,imu,-0.0180664192885,-0.0055542034097,0.361083462164,0.932533502536,0.0,0.0,0.0,0.0,0.0,0.0,0.0,0.0,0.0,0.0,0.0,0.0,0.0,0.0,0.0,0.0,0.0,0.0,0.0,0.0,0.0,-0.00390625139698,0.0156250055879,0.00390625139698,0.0,0.0,0.0,0.0,0.0,0.0,0.0,0.0,0.0
1583763065534025175,130,1583763065374635990,imu,-0.0180053841323,-0.00561523856595,0.364736321346,0.931110850485,0.0,0.0,0.0,0.0,0.0,0.0,0.0,0.0,0.0,0.0,0.0,0.0,0.0,0.0,0.0,0.0,0.0,0.0,0.0,0.0,0.0,-0.0117187537253,0.0156250055879,-0.0273437593132,0.0,0.0,0.0,0.0,0.0,0.0,0.0,0.0,0.0
1583763065633727963,131,1583763065433635990,imu,-0.0178833138198,-0.0055542034097,0.364556022107,0.931181457475,0.0,0.0,0.0,0.0,0.0,0.0,0.0,0.0,0.0,0.0,0.0,0.0,0.0,0.0,0.0,0.0,0.0,0.0,0.0,0.0,0.0,-0.0117187537253,0.0156250055879,-0.0273437593132,0.0,0.0,0.0,0.0,0.0,0.0,0.0,0.0,0.0
1583763065734583721,132,1583763065572635990,imu,-0.0177612435073,-0.0055542034097,0.366899885271,0.930260433528,0.0,0.0,0.0,0.0,0.0,0.0,0.0,0.0,0.0,0.0,0.0,0.0,0.0,0.0,0.0,0.0,0.0,0.0,0.0,0.0,0.0,0.00390625139698,-0.0312500111759,0.0195312574506,0.0,0.0,0.0,0.0,0.0,0.0,0.0,0.0,0.0
1583763065834019569,133,1583763065675635990,imu,-0.0177612435073,-0.00549316778779,0.364379594715,0.931250509238,0.0,0.0,0.0,0.0,0.0,0.0,0.0,0.0,0.0,0.0,0.0,0.0,0.0,0.0,0.0,0.0,0.0,0.0,0.0,0.0,0.0,0.00390625139698,0.0156250055879,0.0117187537253,0.0,0.0,0.0,0.0,0.0,0.0,0.0,0.0,0.0
1583763065934161494,134,1583763065774635990,imu,-0.0177612435073,-0.00543213263154,0.36185021175,0.932236249165,0.0,0.0,0.0,0.0,0.0,0.0,0.0,0.0,0.0,0.0,0.0,0.0,0.0,0.0,0.0,0.0,0.0,0.0,0.0,0.0,0.0,-0.00390625139698,0.0156250055879,0.0117187537253,0.0,0.0,0.0,0.0,0.0,0.0,0.0,0.0,0.0
1583763066034018322,135,1583763065873635990,imu,-0.0178222786635,-0.0055542034097,0.365725053849,0.930722936747,0.0,0.0,0.0,0.0,0.0,0.0,0.0,0.0,0.0,0.0,0.0,0.0,0.0,0.0,0.0,0.0,0.0,0.0,0.0,0.0,0.0,-0.00390625139698,0.0156250055879,0.00390625139698,0.0,0.0,0.0,0.0,0.0,0.0,0.0,0.0,0.0
1583763066133922376,136,1583763065973635990,imu,-0.0177612435073,-0.0055542034097,0.366899885271,0.930260433528,0.0,0.0,0.0,0.0,0.0,0.0,0.0,0.0,0.0,0.0,0.0,0.0,0.0,0.0,0.0,0.0,0.0,0.0,0.0,0.0,0.0,-0.00390625139698,0.00781250279397,0.00390625139698,0.0,0.0,0.0,0.0,0.0,0.0,0.0,0.0,0.0
1583763066233925777,137,1583763066074635990,imu,-0.0176391731948,-0.0055542034097,0.369267051614,0.929323326185,0.0,0.0,0.0,0.0,0.0,0.0,0.0,0.0,0.0,0.0,0.0,0.0,0.0,0.0,0.0,0.0,0.0,0.0,0.0,0.0,0.0,-0.00390625139698,0.00781250279397,0.00390625139698,0.0,0.0,0.0,0.0,0.0,0.0,0.0,0.0,0.0
1583763066334189439,138,1583763066173635990,imu,-0.0176391731948,-0.00561523856595,0.37178311765,0.928319618144,0.0,0.0,0.0,0.0,0.0,0.0,0.0,0.0,0.0,0.0,0.0,0.0,0.0,0.0,0.0,0.0,0.0,0.0,0.0,0.0,0.0,-0.0117187537253,-0.0312500111759,0.00390625139698,0.0,0.0,0.0,0.0,0.0,0.0,0.0,0.0,0.0
1583763066434395472,139,1583763066274635990,imu,-0.0175781380385,-0.00561523856595,0.372977908453,0.92784022321,0.0,0.0,0.0,0.0,0.0,0.0,0.0,0.0,0.0,0.0,0.0,0.0,0.0,0.0,0.0,0.0,0.0,0.0,0.0,0.0,0.0,-0.00390625139698,-0.0390625149012,0.00390625139698,0.0,0.0,0.0,0.0,0.0,0.0,0.0,0.0,0.0
1583763066534156587,140,1583763066373635990,imu,-0.0176391731948,-0.00561523856595,0.37178311765,0.928319618144,0.0,0.0,0.0,0.0,0.0,0.0,0.0,0.0,0.0,0.0,0.0,0.0,0.0,0.0,0.0,0.0,0.0,0.0,0.0,0.0,0.0,-0.00390625139698,-0.0234375074506,0.00390625139698,0.0,0.0,0.0,0.0,0.0,0.0,0.0,0.0,0.0
1583763066634393145,141,1583763066473635990,imu,-0.0177612435073,-0.00561523856595,0.369411059414,0.9292660917,0.0,0.0,0.0,0.0,0.0,0.0,0.0,0.0,0.0,0.0,0.0,0.0,0.0,0.0,0.0,0.0,0.0,0.0,0.0,0.0,0.0,-0.00390625139698,0.0156250055879,-0.0351562611759,0.0,0.0,0.0,0.0,0.0,0.0,0.0,0.0,0.0
1583763066734481706,142,1583763066573635990,imu,-0.017700208351,-0.0055542034097,0.366843973625,0.930282483451,0.0,0.0,0.0,0.0,0.0,0.0,0.0,0.0,0.0,0.0,0.0,0.0,0.0,0.0,0.0,0.0,0.0,0.0,0.0,0.0,0.0,-0.00390625139698,0.0156250055879,0.0117187537253,0.0,0.0,0.0,0.0,0.0,0.0,0.0,0.0,0.0
1583763066834100942,143,1583763066633635990,imu,-0.0176391731948,-0.0055542034097,0.369267051614,0.929323326185,0.0,0.0,0.0,0.0,0.0,0.0,0.0,0.0,0.0,0.0,0.0,0.0,0.0,0.0,0.0,0.0,0.0,0.0,0.0,0.0,0.0,-0.00390625139698,0.0156250055879,0.0117187537253,0.0,0.0,0.0,0.0,0.0,0.0,0.0,0.0,0.0
1583763066934366109,144,1583763066733635990,imu,-0.0176391731948,-0.0055542034097,0.368027337578,0.929814970193,0.0,0.0,0.0,0.0,0.0,0.0,0.0,0.0,0.0,0.0,0.0,0.0,0.0,0.0,0.0,0.0,0.0,0.0,0.0,0.0,0.0,-0.00390625139698,0.00781250279397,0.0117187537253,0.0,0.0,0.0,0.0,0.0,0.0,0.0,0.0,0.0
1583763067034056587,145,1583763066833635990,imu,-0.0176391731948,-0.0055542034097,0.369267051614,0.929323326185,0.0,0.0,0.0,0.0,0.0,0.0,0.0,0.0,0.0,0.0,0.0,0.0,0.0,0.0,0.0,0.0,0.0,0.0,0.0,0.0,0.0,-0.00390625139698,0.00781250279397,0.0117187537253,0.0,0.0,0.0,0.0,0.0,0.0,0.0,0.0,0.0
1583763067134001320,146,1583763066975635990,imu,-0.0177612435073,-0.0055542034097,0.368140152898,0.929770309176,0.0,0.0,0.0,0.0,0.0,0.0,0.0,0.0,0.0,0.0,0.0,0.0,0.0,0.0,0.0,0.0,0.0,0.0,0.0,0.0,0.0,-0.00390625139698,-0.0156250055879,0.0117187537253,0.0,0.0,0.0,0.0,0.0,0.0,0.0,0.0,0.0
1583763067234100696,147,1583763067076732015,imu,-0.0178222786635,-0.00561523856595,0.36946048237,0.929246443075,0.0,0.0,0.0,0.0,0.0,0.0,0.0,0.0,0.0,0.0,0.0,0.0,0.0,0.0,0.0,0.0,0.0,0.0,0.0,0.0,0.0,-0.00390625139698,0.0312500111759,0.0117187537253,0.0,0.0,0.0,0.0,0.0,0.0,0.0,0.0,0.0
1583763067333970977,148,1583763067178732015,imu,-0.0178222786635,-0.00561523856595,0.368233741065,0.929733247734,0.0,0.0,0.0,0.0,0.0,0.0,0.0,0.0,0.0,0.0,0.0,0.0,0.0,0.0,0.0,0.0,0.0,0.0,0.0,0.0,0.0,-0.00390625139698,-0.0156250055879,0.00390625139698,0.0,0.0,0.0,0.0,0.0,0.0,0.0,0.0,0.0
1583763067434153175,149,1583763067277732015,imu,-0.0178833138198,-0.0055542034097,0.364556022107,0.931181457475,0.0,0.0,0.0,0.0,0.0,0.0,0.0,0.0,0.0,0.0,0.0,0.0,0.0,0.0,0.0,0.0,0.0,0.0,0.0,0.0,0.0,-0.00390625139698,-0.00781250279397,0.00390625139698,0.0,0.0,0.0,0.0,0.0,0.0,0.0,0.0,0.0
1583763067534042175,150,1583763067378732015,imu,-0.0180053841323,-0.0055542034097,0.363462839166,0.931608697118,0.0,0.0,0.0,0.0,0.0,0.0,0.0,0.0,0.0,0.0,0.0,0.0,0.0,0.0,0.0,0.0,0.0,0.0,0.0,0.0,0.0,-0.00390625139698,-0.00781250279397,0.00390625139698,0.0,0.0,0.0,0.0,0.0,0.0,0.0,0.0,0.0
1583763067634148823,151,1583763067477732015,imu,-0.0180664192885,-0.00561523856595,0.364796284936,0.931087359219,0.0,0.0,0.0,0.0,0.0,0.0,0.0,0.0,0.0,0.0,0.0,0.0,0.0,0.0,0.0,0.0,0.0,0.0,0.0,0.0,0.0,-0.0390625149012,0.0,0.00390625139698,0.0,0.0,0.0,0.0,0.0,0.0,0.0,0.0,0.0
1583763067735702496,152,1583763067577732015,imu,-0.018188489601,-0.0055542034097,0.360014851268,0.932946572354,0.0,0.0,0.0,0.0,0.0,0.0,0.0,0.0,0.0,0.0,0.0,0.0,0.0,0.0,0.0,0.0,0.0,0.0,0.0,0.0,0.0,0.00390625139698,0.0,0.00390625139698,0.0,0.0,0.0,0.0,0.0,0.0,0.0,0.0,0.0
1583763067834176970,153,1583763067677732015,imu,-0.0182495247573,-0.00549316778779,0.357618808442,0.933867650071,0.0,0.0,0.0,0.0,0.0,0.0,0.0,0.0,0.0,0.0,0.0,0.0,0.0,0.0,0.0,0.0,0.0,0.0,0.0,0.0,0.0,-0.00390625139698,0.0312500111759,-0.0351562611759,0.0,0.0,0.0,0.0,0.0,0.0,0.0,0.0,0.0
1583763067934266430,154,1583763067737732015,imu,-0.018188489601,-0.0055542034097,0.361239678071,0.932472999602,0.0,0.0,0.0,0.0,0.0,0.0,0.0,0.0,0.0,0.0,0.0,0.0,0.0,0.0,0.0,0.0,0.0,0.0,0.0,0.0,0.0,-0.00390625139698,0.0312500111759,-0.0351562611759,0.0,0.0,0.0,0.0,0.0,0.0,0.0,0.0,0.0
1583763068033983172,155,1583763067876732015,imu,-0.018188489601,-0.00561523856595,0.364934658255,0.931033133247,0.0,0.0,0.0,0.0,0.0,0.0,0.0,0.0,0.0,0.0,0.0,0.0,0.0,0.0,0.0,0.0,0.0,0.0,0.0,0.0,0.0,-0.00390625139698,0.0312500111759,0.0195312574506,0.0,0.0,0.0,0.0,0.0,0.0,0.0,0.0,0.0
1583763068133986361,156,1583763067976732015,imu,-0.0182495247573,-0.00561523856595,0.362569347623,0.931956795224,0.0,0.0,0.0,0.0,0.0,0.0,0.0,0.0,0.0,0.0,0.0,0.0,0.0,0.0,0.0,0.0,0.0,0.0,0.0,0.0,0.0,-0.00390625139698,0.0234375074506,0.0117187537253,0.0,0.0,0.0,0.0,0.0,0.0,0.0,0.0,0.0
1583763068233965112,157,1583763068077732015,imu,-0.0183105599135,-0.00561523856595,0.36143115596,0.932398798531,0.0,0.0,0.0,0.0,0.0,0.0,0.0,0.0,0.0,0.0,0.0,0.0,0.0,0.0,0.0,0.0,0.0,0.0,0.0,0.0,0.0,-0.00390625139698,-0.0156250055879,0.0117187537253,0.0,0.0,0.0,0.0,0.0,0.0,0.0,0.0,0.0
1583763068334270071,158,1583763068178732015,imu,-0.0183105599135,-0.00561523856595,0.36143115596,0.932398798531,0.0,0.0,0.0,0.0,0.0,0.0,0.0,0.0,0.0,0.0,0.0,0.0,0.0,0.0,0.0,0.0,0.0,0.0,0.0,0.0,0.0,-0.00390625139698,0.0234375074506,-0.0273437593132,0.0,0.0,0.0,0.0,0.0,0.0,0.0,0.0,0.0
1583763068433994033,159,1583763068276732015,imu,-0.0183105599135,-0.00561523856595,0.362646484967,0.931926781964,0.0,0.0,0.0,0.0,0.0,0.0,0.0,0.0,0.0,0.0,0.0,0.0,0.0,0.0,0.0,0.0,0.0,0.0,0.0,0.0,0.0,-0.00390625139698,-0.0156250055879,-0.0273437593132,0.0,0.0,0.0,0.0,0.0,0.0,0.0,0.0,0.0
1583763068534718142,160,1583763068377732015,imu,-0.0183105599135,-0.0056762737222,0.365096472373,0.930969691161,0.0,0.0,0.0,0.0,0.0,0.0,0.0,0.0,0.0,0.0,0.0,0.0,0.0,0.0,0.0,0.0,0.0,0.0,0.0,0.0,0.0,-0.00390625139698,0.0312500111759,0.0195312574506,0.0,0.0,0.0,0.0,0.0,0.0,0.0,0.0,0.0
1583763068633865053,161,1583763068477732015,imu,-0.0183715950698,-0.0056762737222,0.365167241965,0.930941934492,0.0,0.0,0.0,0.0,0.0,0.0,0.0,0.0,0.0,0.0,0.0,0.0,0.0,0.0,0.0,0.0,0.0,0.0,0.0,0.0,0.0,-0.00390625139698,-0.0156250055879,-0.0195312574506,0.0,0.0,0.0,0.0,0.0,0.0,0.0,0.0,0.0
1583763068734059864,162,1583763068577732015,imu,-0.0183105599135,-0.00573730887845,0.368740006072,0.929532574965,0.0,0.0,0.0,0.0,0.0,0.0,0.0,0.0,0.0,0.0,0.0,0.0,0.0,0.0,0.0,0.0,0.0,0.0,0.0,0.0,0.0,-0.00390625139698,0.0234375074506,0.0195312574506,0.0,0.0,0.0,0.0,0.0,0.0,0.0,0.0,0.0
1583763068834087790,163,1583763068637732015,imu,-0.0183105599135,-0.00573730887845,0.367537892513,0.93000854704,0.0,0.0,0.0,0.0,0.0,0.0,0.0,0.0,0.0,0.0,0.0,0.0,0.0,0.0,0.0,0.0,0.0,0.0,0.0,0.0,0.0,-0.00390625139698,0.0234375074506,0.0195312574506,0.0,0.0,0.0,0.0,0.0,0.0,0.0,0.0,0.0
1583763068934151819,164,1583763068777732015,imu,-0.018188489601,-0.00573730887845,0.369835471915,0.929097262784,0.0,0.0,0.0,0.0,0.0,0.0,0.0,0.0,0.0,0.0,0.0,0.0,0.0,0.0,0.0,0.0,0.0,0.0,0.0,0.0,0.0,-0.00390625139698,0.0234375074506,-0.0273437593132,0.0,0.0,0.0,0.0,0.0,0.0,0.0,0.0,0.0
1583763069034213824,165,1583763068837732015,imu,-0.018188489601,-0.00573730887845,0.369835471915,0.929097262784,0.0,0.0,0.0,0.0,0.0,0.0,0.0,0.0,0.0,0.0,0.0,0.0,0.0,0.0,0.0,0.0,0.0,0.0,0.0,0.0,0.0,-0.00390625139698,0.0234375074506,-0.0273437593132,0.0,0.0,0.0,0.0,0.0,0.0,0.0,0.0,0.0
1583763069134081208,166,1583763068977732015,imu,-0.0181274544448,-0.00573730887845,0.370992532176,0.92863584955,0.0,0.0,0.0,0.0,0.0,0.0,0.0,0.0,0.0,0.0,0.0,0.0,0.0,0.0,0.0,0.0,0.0,0.0,0.0,0.0,0.0,-0.00390625139698,-0.0234375074506,-0.0273437593132,0.0,0.0,0.0,0.0,0.0,0.0,0.0,0.0,0.0
1583763069234148868,167,1583763069076732015,imu,-0.0181274544448,-0.00573730887845,0.370992532176,0.92863584955,0.0,0.0,0.0,0.0,0.0,0.0,0.0,0.0,0.0,0.0,0.0,0.0,0.0,0.0,0.0,0.0,0.0,0.0,0.0,0.0,0.0,-0.00390625139698,-0.0234375074506,0.0195312574506,0.0,0.0,0.0,0.0,0.0,0.0,0.0,0.0,0.0
1583763069333947021,168,1583763069177732015,imu,-0.0181274544448,-0.0056762737222,0.36854416619,0.929610239599,0.0,0.0,0.0,0.0,0.0,0.0,0.0,0.0,0.0,0.0,0.0,0.0,0.0,0.0,0.0,0.0,0.0,0.0,0.0,0.0,0.0,-0.00390625139698,-0.0234375074506,0.0117187537253,0.0,0.0,0.0,0.0,0.0,0.0,0.0,0.0,0.0
1583763069434272166,169,1583763069276732015,imu,-0.0181274544448,-0.00573730887845,0.370992532176,0.92863584955,0.0,0.0,0.0,0.0,0.0,0.0,0.0,0.0,0.0,0.0,0.0,0.0,0.0,0.0,0.0,0.0,0.0,0.0,0.0,0.0,0.0,-0.00390625139698,0.0156250055879,-0.0273437593132,0.0,0.0,0.0,0.0,0.0,0.0,0.0,0.0,0.0
1583763069534789966,170,1583763069337732015,imu,-0.0180664192885,-0.0057983440347,0.375800541954,0.926700573361,0.0,0.0,0.0,0.0,0.0,0.0,0.0,0.0,0.0,0.0,0.0,0.0,0.0,0.0,0.0,0.0,0.0,0.0,0.0,0.0,0.0,-0.00390625139698,0.0156250055879,-0.0273437593132,0.0,0.0,0.0,0.0,0.0,0.0,0.0,0.0,0.0
1583763069633925699,171,1583763069477732015,imu,-0.0180664192885,-0.0057983440347,0.375800541954,0.926700573361,0.0,0.0,0.0,0.0,0.0,0.0,0.0,0.0,0.0,0.0,0.0,0.0,0.0,0.0,0.0,0.0,0.0,0.0,0.0,0.0,0.0,-0.00390625139698,0.0156250055879,0.0117187537253,0.0,0.0,0.0,0.0,0.0,0.0,0.0,0.0,0.0
1583763069734125021,172,1583763069582429082,imu,-0.0180053841323,-0.00573730887845,0.374539864448,0.927210812027,0.0,0.0,0.0,0.0,0.0,0.0,0.0,0.0,0.0,0.0,0.0,0.0,0.0,0.0,0.0,0.0,0.0,0.0,0.0,0.0,0.0,-0.00390625139698,0.0156250055879,0.0117187537253,0.0,0.0,0.0,0.0,0.0,0.0,0.0,0.0,0.0
1583763069833989790,173,1583763069641429082,imu,-0.017944348976,-0.00573730887845,0.374497075513,0.927228095148,0.0,0.0,0.0,0.0,0.0,0.0,0.0,0.0,0.0,0.0,0.0,0.0,0.0,0.0,0.0,0.0,0.0,0.0,0.0,0.0,0.0,-0.00390625139698,0.0156250055879,0.0117187537253,0.0,0.0,0.0,0.0,0.0,0.0,0.0,0.0,0.0
1583763069934745926,174,1583763069782429082,imu,-0.017944348976,-0.0056762737222,0.373271766302,0.927722042684,0.0,0.0,0.0,0.0,0.0,0.0,0.0,0.0,0.0,0.0,0.0,0.0,0.0,0.0,0.0,0.0,0.0,0.0,0.0,0.0,0.0,-0.00390625139698,-0.0234375074506,0.00390625139698,0.0,0.0,0.0,0.0,0.0,0.0,0.0,0.0,0.0
1583763070033991774,175,1583763069882429082,imu,-0.0180053841323,-0.00573730887845,0.374539864448,0.927210812027,0.0,0.0,0.0,0.0,0.0,0.0,0.0,0.0,0.0,0.0,0.0,0.0,0.0,0.0,0.0,0.0,0.0,0.0,0.0,0.0,0.0,-0.00390625139698,0.0234375074506,0.00390625139698,0.0,0.0,0.0,0.0,0.0,0.0,0.0,0.0,0.0
1583763070134229352,176,1583763069981429082,imu,-0.0180053841323,-0.0056762737222,0.370870444494,0.928684614603,0.0,0.0,0.0,0.0,0.0,0.0,0.0,0.0,0.0,0.0,0.0,0.0,0.0,0.0,0.0,0.0,0.0,0.0,0.0,0.0,0.0,-0.00390625139698,-0.0156250055879,-0.0273437593132,0.0,0.0,0.0,0.0,0.0,0.0,0.0,0.0,0.0
1583763070233997333,177,1583763070042429082,imu,-0.017944348976,-0.0056762737222,0.372041999649,0.92821589649,0.0,0.0,0.0,0.0,0.0,0.0,0.0,0.0,0.0,0.0,0.0,0.0,0.0,0.0,0.0,0.0,0.0,0.0,0.0,0.0,0.0,-0.00390625139698,-0.0156250055879,-0.0273437593132,0.0,0.0,0.0,0.0,0.0,0.0,0.0,0.0,0.0
1583763070334246674,178,1583763070142429082,imu,-0.017944348976,-0.0056762737222,0.372041999649,0.92821589649,0.0,0.0,0.0,0.0,0.0,0.0,0.0,0.0,0.0,0.0,0.0,0.0,0.0,0.0,0.0,0.0,0.0,0.0,0.0,0.0,0.0,-0.00390625139698,0.00781250279397,0.0117187537253,0.0,0.0,0.0,0.0,0.0,0.0,0.0,0.0,0.0
1583763070434180477,179,1583763070281429082,imu,-0.017944348976,-0.0056762737222,0.372041999649,0.92821589649,0.0,0.0,0.0,0.0,0.0,0.0,0.0,0.0,0.0,0.0,0.0,0.0,0.0,0.0,0.0,0.0,0.0,0.0,0.0,0.0,0.0,-0.00390625139698,-0.0234375074506,-0.0273437593132,0.0,0.0,0.0,0.0,0.0,0.0,0.0,0.0,0.0
1583763070534135922,180,1583763070342429082,imu,-0.017944348976,-0.0056762737222,0.372041999649,0.92821589649,0.0,0.0,0.0,0.0,0.0,0.0,0.0,0.0,0.0,0.0,0.0,0.0,0.0,0.0,0.0,0.0,0.0,0.0,0.0,0.0,0.0,-0.00390625139698,-0.0234375074506,-0.0273437593132,0.0,0.0,0.0,0.0,0.0,0.0,0.0,0.0,0.0
1583763070634082056,181,1583763070481429082,imu,-0.017944348976,-0.0056762737222,0.372041999649,0.92821589649,0.0,0.0,0.0,0.0,0.0,0.0,0.0,0.0,0.0,0.0,0.0,0.0,0.0,0.0,0.0,0.0,0.0,0.0,0.0,0.0,0.0,-0.00390625139698,-0.0234375074506,0.0117187537253,0.0,0.0,0.0,0.0,0.0,0.0,0.0,0.0,0.0
1583763070734170200,182,1583763070542429082,imu,-0.017944348976,-0.0056762737222,0.372041999649,0.92821589649,0.0,0.0,0.0,0.0,0.0,0.0,0.0,0.0,0.0,0.0,0.0,0.0,0.0,0.0,0.0,0.0,0.0,0.0,0.0,0.0,0.0,-0.00390625139698,-0.0234375074506,0.0117187537253,0.0,0.0,0.0,0.0,0.0,0.0,0.0,0.0,0.0
1583763070834689804,183,1583763070642429082,imu,-0.017944348976,-0.00561523856595,0.369578074097,0.929199680987,0.0,0.0,0.0,0.0,0.0,0.0,0.0,0.0,0.0,0.0,0.0,0.0,0.0,0.0,0.0,0.0,0.0,0.0,0.0,0.0,0.0,-0.00390625139698,0.0234375074506,0.0117187537253,0.0,0.0,0.0,0.0,0.0,0.0,0.0,0.0,0.0
1583763070934160805,184,1583763070781429082,imu,-0.0178833138198,-0.00561523856595,0.37199619881,0.9282342528,0.0,0.0,0.0,0.0,0.0,0.0,0.0,0.0,0.0,0.0,0.0,0.0,0.0,0.0,0.0,0.0,0.0,0.0,0.0,0.0,0.0,-0.00390625139698,-0.0234375074506,0.00390625139698,0.0,0.0,0.0,0.0,0.0,0.0,0.0,0.0,0.0
1583763071034124354,185,1583763070842429082,imu,-0.0178833138198,-0.00561523856595,0.37199619881,0.9282342528,0.0,0.0,0.0,0.0,0.0,0.0,0.0,0.0,0.0,0.0,0.0,0.0,0.0,0.0,0.0,0.0,0.0,0.0,0.0,0.0,0.0,-0.00390625139698,-0.0234375074506,0.00390625139698,0.0,0.0,0.0,0.0,0.0,0.0,0.0,0.0,0.0
1583763071134180158,186,1583763070982429082,imu,-0.0178222786635,-0.00561523856595,0.371933703705,0.928259295697,0.0,0.0,0.0,0.0,0.0,0.0,0.0,0.0,0.0,0.0,0.0,0.0,0.0,0.0,0.0,0.0,0.0,0.0,0.0,0.0,0.0,-0.00390625139698,0.00781250279397,0.00390625139698,0.0,0.0,0.0,0.0,0.0,0.0,0.0,0.0,0.0
1583763071234018646,187,1583763071081429082,imu,-0.017700208351,-0.0057983440347,0.341381687949,0.939924753974,0.0,0.0,0.0,0.0,0.0,0.0,0.0,0.0,0.0,0.0,0.0,0.0,0.0,0.0,0.0,0.0,0.0,0.0,0.0,0.0,0.0,0.289062589407,-0.109375037253,-0.0351562611759,0.0,0.0,0.0,0.0,0.0,0.0,0.0,0.0,0.0
1583763071334657657,188,1583763071181429082,imu,-0.0175171028823,-0.0061645549722,0.386429407719,0.922318986495,0.0,0.0,0.0,0.0,0.0,0.0,0.0,0.0,0.0,0.0,0.0,0.0,0.0,0.0,0.0,0.0,0.0,0.0,0.0,0.0,0.0,-0.0585937723517,-0.0625000223517,-0.0273437593132,0.0,0.0,0.0,0.0,0.0,0.0,0.0,0.0,0.0
1583763071434084926,189,1583763071242429082,imu,-0.0175781380385,-0.00665283668786,0.568578089588,0.822629294422,0.0,0.0,0.0,0.0,0.0,0.0,0.0,0.0,0.0,0.0,0.0,0.0,0.0,0.0,0.0,0.0,0.0,0.0,0.0,0.0,0.0,-0.0585937723517,-0.0625000223517,-0.0273437593132,0.0,0.0,0.0,0.0,0.0,0.0,0.0,0.0,0.0
1583763071534170476,190,1583763071382429082,imu,-0.0176391731948,-0.00720215355977,0.650536503128,0.759474988461,0.0,0.0,0.0,0.0,0.0,0.0,0.0,0.0,0.0,0.0,0.0,0.0,0.0,0.0,0.0,0.0,0.0,0.0,0.0,0.0,0.0,-0.0820312798023,-0.0156250055879,-0.0195312574506,0.0,0.0,0.0,0.0,0.0,0.0,0.0,0.0,0.0
1583763071633829164,191,1583763071481429082,imu,-0.0176391731948,-0.00762940011919,0.682320974345,0.731052725848,0.0,0.0,0.0,0.0,0.0,0.0,0.0,0.0,0.0,0.0,0.0,0.0,0.0,0.0,0.0,0.0,0.0,0.0,0.0,0.0,0.0,-0.0664062723517,-0.0156250055879,0.0585937723517,0.0,0.0,0.0,0.0,0.0,0.0,0.0,0.0,0.0
1583763071734876658,192,1583763071582429082,imu,-0.0175781380385,-0.00799561105669,0.696198743916,0.717849085094,0.0,0.0,0.0,0.0,0.0,0.0,0.0,0.0,0.0,0.0,0.0,0.0,0.0,0.0,0.0,0.0,0.0,0.0,0.0,0.0,0.0,-0.0273437593132,-0.0234375074506,0.0195312574506,0.0,0.0,0.0,0.0,0.0,0.0,0.0,0.0,0.0
1583763071834079857,193,1583763071681429082,imu,-0.0175171028823,-0.00842285715044,0.702860822432,0.711327395993,0.0,0.0,0.0,0.0,0.0,0.0,0.0,0.0,0.0,0.0,0.0,0.0,0.0,0.0,0.0,0.0,0.0,0.0,0.0,0.0,0.0,-0.148437559605,0.0976562872529,0.0195312574506,0.0,0.0,0.0,0.0,0.0,0.0,0.0,0.0,0.0
1583763071934051497,194,1583763071782429082,imu,-0.017456067726,-0.00860596355051,0.706211943275,0.708000488118,0.0,0.0,0.0,0.0,0.0,0.0,0.0,0.0,0.0,0.0,0.0,0.0,0.0,0.0,0.0,0.0,0.0,0.0,0.0,0.0,0.0,-0.0625000223517,0.00781250279397,-0.0351562611759,0.0,0.0,0.0,0.0,0.0,0.0,0.0,0.0,0.0
1583763072033901158,195,1583763071841429082,imu,-0.0172729622573,-0.00836182199419,0.70830352319,0.705908010322,0.0,0.0,0.0,0.0,0.0,0.0,0.0,0.0,0.0,0.0,0.0,0.0,0.0,0.0,0.0,0.0,0.0,0.0,0.0,0.0,0.0,-0.0625000223517,0.00781250279397,-0.0351562611759,0.0,0.0,0.0,0.0,0.0,0.0,0.0,0.0,0.0
1583763072134066690,196,1583763071981429082,imu,-0.0170288216323,-0.00817871652544,0.709936835638,0.704265354397,0.0,0.0,0.0,0.0,0.0,0.0,0.0,0.0,0.0,0.0,0.0,0.0,0.0,0.0,0.0,0.0,0.0,0.0,0.0,0.0,0.0,-0.0781250298023,0.0898437798023,0.0507812686265,0.0,0.0,0.0,0.0,0.0,0.0,0.0,0.0,0.0
1583763072233966335,197,1583763072084429082,imu,-0.0168457143009,-0.00811768136919,0.71101525276,0.703176585462,0.0,0.0,0.0,0.0,0.0,0.0,0.0,0.0,0.0,0.0,0.0,0.0,0.0,0.0,0.0,0.0,0.0,0.0,0.0,0.0,0.0,-0.00390625139698,0.00781250279397,-0.0273437593132,0.0,0.0,0.0,0.0,0.0,0.0,0.0,0.0,0.0
1583763072334707267,198,1583763072187635993,imu,-0.0169067494571,-0.00781250558794,0.71163008208,0.702554358237,0.0,0.0,0.0,0.0,0.0,0.0,0.0,0.0,0.0,0.0,0.0,0.0,0.0,0.0,0.0,0.0,0.0,0.0,0.0,0.0,0.0,0.00390625139698,0.0820312798023,0.0117187537253,0.0,0.0,0.0,0.0,0.0,0.0,0.0,0.0,0.0
1583763072434120467,199,1583763072287635993,imu,-0.0167846791446,-0.00781250558794,0.712215055075,0.701961334637,0.0,0.0,0.0,0.0,0.0,0.0,0.0,0.0,0.0,0.0,0.0,0.0,0.0,0.0,0.0,0.0,0.0,0.0,0.0,0.0,0.0,-0.0703125223517,-0.0312500111759,-0.0273437593132,0.0,0.0,0.0,0.0,0.0,0.0,0.0,0.0,0.0
1583763072534123236,200,1583763072387635993,imu,-0.0166626088321,-0.00781250558794,0.712668609258,0.701500857718,0.0,0.0,0.0,0.0,0.0,0.0,0.0,0.0,0.0,0.0,0.0,0.0,0.0,0.0,0.0,0.0,0.0,0.0,0.0,0.0,0.0,-0.0312500111759,0.0,-0.0195312574506,0.0,0.0,0.0,0.0,0.0,0.0,0.0,0.0,0.0
1583763072634069266,201,1583763072488635993,imu,-0.0164795033634,-0.00787354074419,0.713048869258,0.701114334506,0.0,0.0,0.0,0.0,0.0,0.0,0.0,0.0,0.0,0.0,0.0,0.0,0.0,0.0,0.0,0.0,0.0,0.0,0.0,0.0,0.0,0.00390625139698,-0.00781250279397,0.0195312574506,0.0,0.0,0.0,0.0,0.0,0.0,0.0,0.0,0.0
1583763072733982189,202,1583763072587635993,imu,-0.0164184682071,-0.00799561105669,0.713322602202,0.700835833265,0.0,0.0,0.0,0.0,0.0,0.0,0.0,0.0,0.0,0.0,0.0,0.0,0.0,0.0,0.0,0.0,0.0,0.0,0.0,0.0,0.0,-0.0312500111759,-0.00781250279397,-0.0195312574506,0.0,0.0,0.0,0.0,0.0,0.0,0.0,0.0,0.0
1583763072833908071,203,1583763072688635993,imu,-0.0162963978946,-0.00793457590044,0.713535832054,0.700618738241,0.0,0.0,0.0,0.0,0.0,0.0,0.0,0.0,0.0,0.0,0.0,0.0,0.0,0.0,0.0,0.0,0.0,0.0,0.0,0.0,0.0,-0.0312500111759,-0.00781250279397,0.0195312574506,0.0,0.0,0.0,0.0,0.0,0.0,0.0,0.0,0.0
1583763072934508310,204,1583763072747635993,imu,-0.0161743275821,-0.00793457590044,0.713716003692,0.700435197627,0.0,0.0,0.0,0.0,0.0,0.0,0.0,0.0,0.0,0.0,0.0,0.0,0.0,0.0,0.0,0.0,0.0,0.0,0.0,0.0,0.0,-0.0312500111759,-0.00781250279397,0.0195312574506,0.0,0.0,0.0,0.0,0.0,0.0,0.0,0.0,0.0
1583763073034259225,205,1583763072887635993,imu,-0.0161132924259,-0.00799561105669,0.71385772279,0.700290762193,0.0,0.0,0.0,0.0,0.0,0.0,0.0,0.0,0.0,0.0,0.0,0.0,0.0,0.0,0.0,0.0,0.0,0.0,0.0,0.0,0.0,-0.0312500111759,-0.00781250279397,0.0117187537253,0.0,0.0,0.0,0.0,0.0,0.0,0.0,0.0,0.0
1583763073136805383,206,1583763072948635993,imu,-0.0159912221134,-0.00805664621294,0.713986901281,0.700159056786,0.0,0.0,0.0,0.0,0.0,0.0,0.0,0.0,0.0,0.0,0.0,0.0,0.0,0.0,0.0,0.0,0.0,0.0,0.0,0.0,0.0,-0.0312500111759,-0.00781250279397,0.0117187537253,0.0,0.0,0.0,0.0,0.0,0.0,0.0,0.0,0.0
1583763073234814939,207,1583763073048635993,imu,-0.0159301869571,-0.00817871652544,0.714090275316,0.700053625588,0.0,0.0,0.0,0.0,0.0,0.0,0.0,0.0,0.0,0.0,0.0,0.0,0.0,0.0,0.0,0.0,0.0,0.0,0.0,0.0,0.0,-0.0234375074506,-0.00781250279397,0.00390625139698,0.0,0.0,0.0,0.0,0.0,0.0,0.0,0.0,0.0
1583763073334377125,208,1583763073147635993,imu,-0.0158691518009,-0.00817871652544,0.714172012242,0.699970240031,0.0,0.0,0.0,0.0,0.0,0.0,0.0,0.0,0.0,0.0,0.0,0.0,0.0,0.0,0.0,0.0,0.0,0.0,0.0,0.0,0.0,0.0195312574506,-0.00781250279397,0.00390625139698,0.0,0.0,0.0,0.0,0.0,0.0,0.0,0.0,0.0
1583763073433988495,209,1583763073288635993,imu,-0.0158081166446,-0.00842285715044,0.714256040408,0.699884496714,0.0,0.0,0.0,0.0,0.0,0.0,0.0,0.0,0.0,0.0,0.0,0.0,0.0,0.0,0.0,0.0,0.0,0.0,0.0,0.0,0.0,0.0820312798023,0.0468750149012,-0.0273437593132,0.0,0.0,0.0,0.0,0.0,0.0,0.0,0.0,0.0
1583763073534346115,210,1583763073347635993,imu,-0.0156860463321,-0.00878906901926,0.714340110603,0.699798689898,0.0,0.0,0.0,0.0,0.0,0.0,0.0,0.0,0.0,0.0,0.0,0.0,0.0,0.0,0.0,0.0,0.0,0.0,0.0,0.0,0.0,0.0820312798023,0.0468750149012,-0.0273437593132,0.0,0.0,0.0,0.0,0.0,0.0,0.0,0.0,0.0
