%time,field.x,field.y,field.z
1583762851048974279,-0.0376008568691,-0.00890955615797,0.00016752431855
1583762851049682008,-0.0374787846354,-0.00878752924919,0.000164693296035
1583762851049742554,-0.0377228882095,-0.00878748891766,0.000165765454948
1583762851049786135,-0.0377228681181,-0.00866544209083,0.00016346307163
1583762851049949047,-0.0377228681181,-0.00866544209083,0.00016346307163
1583762851050039128,-0.0377228483077,-0.00854339519938,0.000161160691964
1583762851050091703,-0.0377228483077,-0.00854339519938,0.000161160691964
1583762851050219180,-0.0376002754614,-0.00854570965492,3.85877587749e-05
1583762851050256311,-0.0377223148988,-0.00842364957603,3.68068948677e-05
1583762851050306778,-0.0378448606415,-0.00829928115711,0.000157062216751
1583762851050398278,-0.037844342628,-0.00817954406571,3.27014035832e-05
1583762851050452834,-0.037844342628,-0.00817954406571,3.27014035832e-05
1583762851050504591,-0.0378438433613,-0.00818185371173,-8.93495974154e-05
1583762851050535864,-0.0377217923058,-0.00818185767745,-8.98490055684e-05
1583762851050602448,-0.037721292756,-0.00818415981704,-0.000211900289651
1583762851050635277,-0.0377217963817,-0.00830390475775,-8.75467592441e-05
1583762851050685038,-0.0377166436827,-0.00844897031532,-0.00130575851777
1583762851050723089,-0.0374710805604,-0.00833364243582,-0.00167523501539
1583762851050820617,-0.0367360792747,-0.0084663423834,-0.00228632373704
1583762851050891604,-0.0356346535149,-0.00872014453408,-0.00289692715885
1583762851050984410,-0.03453419502,-0.00860501034644,-0.00339208447339
1583762851051065544,-0.0334298149615,-0.00886773205635,-0.00461336682476
1583762851051128512,-0.0323271813134,-0.00863048944148,-0.00523222373301
1583762851051190274,-0.0311003178728,-0.00913265742775,-0.0063284671645
1583762851051337181,-0.0302396534939,-0.00963297584725,-0.00730150236936
1583762851051497874,-0.0293814701155,-0.00940013721203,-0.00828572373958
1583762851051624179,-0.0292548367587,-0.00965444637926,-0.00901509636378
1583762851051697406,-0.0291288024429,-0.0102677242215,-0.00925093701707
1583762851051755063,-0.0303528953249,-0.00990157175563,-0.00888396110523
1583762851051828419,-0.030963006877,-0.00954374433761,-0.00925272772318
1583762851051917260,-0.030963006877,-0.00954374433761,-0.00925272772318
1583762851052041077,-0.0336520054939,-0.00859037634595,-0.00986695924403
1583762851052070652,-0.0349975905205,-0.00798664828286,-0.00987174373841
1583762851052140419,-0.0349975905205,-0.00798664828286,-0.00987174373841
1583762851052268049,-0.0370666747484,-0.00885783361034,-0.0102135986055
1583762851052325624,-0.0377972356563,-0.00898816306357,-0.0104520768999
1583762851052431190,-0.0388967750261,-0.00923846442789,-0.0104429134159
1583762851052496057,-0.0397486681917,-0.00961140700148,-0.0105536601986
1583762851052596285,-0.0410911806903,-0.00985743366697,-0.0102979570213
1583762851052720131,-0.0421871179514,-0.00999272978225,-0.0106559883518
1583762851052927539,-0.0431589864085,-0.0107326752871,-0.0107572561233
1583762851055548686,-0.0447540027494,-0.00976264166954,-0.0106489702026
1583762851055574982,-0.0449974510231,-0.010124547241,-0.0103954293269
1583762851055606817,-0.046221781192,-0.00904087503248,-0.0107805895929
1583762851055635796,-0.0473254517777,-0.00795126197367,-0.0109234909425
1583762851056726992,-0.0485459683652,-0.00783873920362,-0.0110434713259
1583762851056736999,-0.0492749849989,-0.00797976099107,-0.0116476542548
1583762851056748119,-0.0501345754529,-0.00750008267431,-0.0117790831711
1583762851056757877,-0.0507447787101,-0.00726884002573,-0.012148993248
1583762851056798762,-0.0507391630193,-0.00812614439188,-0.012249370415
1583762851056864413,-0.0506169162742,-0.00824435366726,-0.012124763864
1583762851056874909,-0.0506169162742,-0.00824435366726,-0.012124763864
1583762851056902136,-0.0497514167723,-0.00936181878955,-0.0130774101836
1583762851056912180,-0.048890249314,-0.009965872819,-0.0130658616274
1583762851056934118,-0.0486422228411,-0.0101011578799,-0.0136743173398
1583762851057068289,-0.0486422228411,-0.0101011578799,-0.0136743173398
1583762851057187891,-0.0475321755723,-0.0113285536468,-0.0142612568404
1583762851063581135,-0.0475321755723,-0.0113285536468,-0.0142612568404
1583762851147872129,-0.0476515413422,-0.0118146170275,-0.0141268958171
1583762851248313012,-0.0471562724834,-0.0121945595511,-0.0148534687593
1583762851348123029,-0.0471562724834,-0.0121945595511,-0.0148534687593
1583762851447507490,-0.0469080776128,-0.0124454106687,-0.0152153991164
1583762851548628501,-0.0467835511384,-0.012572227213,-0.0154574073865
1583762851648300622,-0.0470299983194,-0.011972530045,-0.0158362615418
1583762851748708687,-0.0466631335309,-0.0119725242607,-0.0159605585571
1583762851847591972,-0.0466616262703,-0.0119782076889,-0.016204633591
1583762851949247741,-0.0464165790092,-0.0120982934352,-0.0162033144308
1583762852048191834,-0.0464165790092,-0.0120982934352,-0.0162033144308
1583762852148407380,-0.0456862887421,-0.0118483997722,-0.0162134440153
1583762852247574459,-0.0458083286191,-0.011849372504,-0.0162126983555
1583762852348686464,-0.0459354566545,-0.0114758596192,-0.0158542271668
1583762852447802053,-0.0459354566545,-0.0114758596192,-0.0158542271668
1583762852548237110,-0.0463088346983,-0.0103860777494,-0.0161215209921
1583762852647344862,-0.0458210394872,-0.0104986509318,-0.0158772769901
1583762852748490455,-0.0458210394872,-0.0104986509318,-0.0158772769901
1583762852847573469,-0.0447273086557,-0.00952739925721,-0.0165152425133
1583762852948236202,-0.0447273086557,-0.00952739925721,-0.0165152425133
1583762853047871966,-0.0444939128295,-0.00853556325469,-0.0159279280512
1583762853149172941,-0.0451139623674,-0.00790269235391,-0.0147185564117
1583762853247539861,-0.0464622241589,-0.00729378488454,-0.0143610718476
1583762853349349703,-0.0464622241589,-0.00729378488454,-0.0143610718476
1583762853447205132,-0.0481792660155,-0.00631792005695,-0.0138899144587
1583762853548856498,-0.049650732973,-0.0059255700188,-0.0124297798341
1583762853647932326,-0.0513700842922,-0.00528869856181,-0.0109764833849
1583762853748399025,-0.0544245482078,-0.00561817084286,-0.00900564202205
1583762853848058526,-0.0544245482078,-0.00561817084286,-0.00900564202205
1583762853948324501,-0.0555267887874,-0.0059691408823,-0.00826063473451
1583762854047687628,-0.0555267887874,-0.0059691408823,-0.00826063473451
1583762854148289854,-0.0546698750333,-0.00572459788032,-0.0083914796828
1583762854247431939,-0.0546698750333,-0.00572459788032,-0.0083914796828
1583762854347830709,-0.0539377322936,-0.00572158253241,-0.00839365818653
1583762854447222700,-0.0532065818577,-0.00547451466228,-0.00840232578346
1583762854548578698,-0.0525964404236,-0.00547199529311,-0.00840406334148
1583762854647386964,-0.0512539203822,-0.00535067032249,-0.00865507415317
1583762854747991370,-0.0512539203822,-0.00535067032249,-0.00865507415317
1583762854847598123,-0.0502747625233,-0.00522721110501,-0.00878236784583
1583762854947746335,-0.0497866442288,-0.00522509945485,-0.00878369697329
1583762855047511968,-0.0492988480011,-0.00521997993255,-0.00866299327314
1583762855147669764,-0.048811443603,-0.00497681040452,-0.00879230720421
1583762855247648892,-0.048811443603,-0.00497681040452,-0.00879230720421
1583762855347974950,-0.0482007441459,-0.00509619851126,-0.00879094989606
1583762855447551612,-0.0482007441459,-0.00509619851126,-0.00879094989606
1583762855547779964,-0.0477126012292,-0.00509408257218,-0.00879224493918
1583762855648260859,-0.0474676675328,-0.00521795542079,-0.00891203363136
1583762855747778078,-0.0471010183702,-0.00533838302368,-0.00891015407234
1583762855847790329,-0.0468567509786,-0.00545648990861,-0.00878593382073
1583762855947363373,-0.0466123266574,-0.00545827649404,-0.00890866442027
1583762856047787139,-0.046368246639,-0.00545720473299,-0.00890935576257
1583762856147253487,-0.0463677108793,-0.00557924325159,-0.00890652737331
1583762856247971130,-0.0461227333525,-0.00570302451202,-0.00902646100446
1583762856347837060,-0.0461225587242,-0.00582225076871,-0.00890160651918
1583762856447632176,-0.0459999825093,-0.00594375519681,-0.00889916842641
1583762856548997973,-0.0457564336499,-0.00582064561696,-0.00890270965046
1583762856647813026,-0.0453870019621,-0.00594070634773,-0.0089005086534
1583762856748018577,-0.045142012547,-0.0060644241217,-0.00902054130835
1583762856847677897,-0.045142012547,-0.0060644241217,-0.00902054130835
1583762856947782910,-0.0452645910475,-0.00594293223402,-0.00902291956792
1583762857048037409,-0.0453877122708,-0.00569940680141,-0.00902808105521
1583762857148080254,-0.0453877122708,-0.00569940680141,-0.00902808105521
1583762857247563730,-0.045265316062,-0.00570162465817,-0.00915047726397
1583762857347766437,-0.0452642157894,-0.00594569295346,-0.00914495563213
1583762857447753102,-0.0452632831219,-0.00607048741053,-0.00926423096656
1583762857548147938,-0.0453853189661,-0.00607104428046,-0.00926384772746
1583762857647560318,-0.0453847622789,-0.00619307768583,-0.00926107968817
1583762857748618147,-0.045509017085,-0.00631606543427,-0.009258469689
1583762857847850584,-0.0453832441463,-0.00643991262157,-0.00937757959052
1583762857947982425,-0.0455080551676,-0.00644088189237,-0.00937773688771
1583762858048347489,-0.0455074920346,-0.00656292220059,-0.00937496131935
1583762858148578756,-0.0453850353509,-0.0065651272285,-0.00949741800303
1583762858248112619,-0.045506508128,-0.00668773784162,-0.00949422875095
1583762858348572268,-0.045506508128,-0.00668773784162,-0.00949422875095
1583762858448249280,-0.0453844650605,-0.00668716775927,-0.00949464999807
1583762858548562736,-0.0453844650605,-0.00668716775927,-0.00949464999807
1583762858648181979,-0.0453844650605,-0.00668716775927,-0.00949464999807
1583762858748100253,-0.0453844650605,-0.00668716775927,-0.00949464999807
1583762858847850016,-0.0453850353509,-0.0065651272285,-0.00949741800303
1583762858948249925,-0.0453844650605,-0.00668716775927,-0.00949464999807
1583762859048626387,-0.0453844650605,-0.00668716775927,-0.00949464999807
1583762859147858286,-0.0453844650605,-0.00668716775927,-0.00949464999807
1583762859247692374,-0.0453850353509,-0.0065651272285,-0.00949741800303
1583762859348517451,-0.0453850353509,-0.0065651272285,-0.00949741800303
1583762859448079095,-0.0453844650605,-0.00668716775927,-0.00949464999807
1583762859548201621,-0.0453844650605,-0.00668716775927,-0.00949464999807
1583762859647888076,-0.0453850353509,-0.0065651272285,-0.00949741800303
1583762859747884706,-0.0452606450517,-0.00656138286373,-0.00937522514925
1583762859848064430,-0.0453825389034,-0.00668121133364,-0.00925000818817
1583762859948209901,-0.0453825389034,-0.00668121133364,-0.00925000818817
1583762860047624611,-0.0452600822197,-0.00668341635982,-0.00937246487185
1583762860148117494,-0.0452606450517,-0.00656138286373,-0.00937522514925
1583762860249250139,-0.0452616139218,-0.00643658897483,-0.00925594936606
1583762860347941286,-0.0452627263859,-0.00619252115344,-0.00926147036975
1583762860447620449,-0.0453858759909,-0.00594901083299,-0.00926661583364
1583762860548368851,-0.045264397604,-0.00582641979931,-0.00926975236097
1583762860648013618,-0.0452649553522,-0.0057043854673,-0.00927251316921
1583762860747899657,-0.0451434774401,-0.00558179329663,-0.00927562743613
1583762860848182464,-0.0452660718546,-0.00546031761712,-0.00927803496596
1583762860948330035,-0.0451434774401,-0.00558179329663,-0.00927562743613
1583762861047472418,-0.045265725693,-0.00546307851959,-0.00940007071471
1583762861148235339,-0.0453892252322,-0.00521680884956,-0.00928322588957
1583762861247165960,-0.0453897846205,-0.00509477513289,-0.00928599446575
1583762861348020677,-0.0453903443486,-0.00497274091587,-0.00928876311989
1583762861447423125,-0.0452679925106,-0.00497494218854,-0.00941111495786
1583762861548083076,-0.0452679925106,-0.00497494218854,-0.00941111495786
1583762861648029095,-0.0453900278889,-0.00497550953882,-0.00941079836346
1583762861748200541,-0.0453894607184,-0.00509754368626,-0.00940802974996
1583762861847623324,-0.0453888938877,-0.00521957733338,-0.00940526121532
1583762861948015214,-0.0453883273947,-0.0053416109448,-0.00940249274891
1583762862047898840,-0.0453871954216,-0.00558567805686,-0.00939695602056
1583762862148090205,-0.0453866299415,-0.0057077115557,-0.00939418775849
1583762862247957187,-0.0452705032521,-0.00601802771419,-0.00694553429019
1583762862347255117,-0.0455607395967,-0.00616237985315,0.00819897029611
1583762862447796852,-0.0453942594133,-0.00720175747901,0.0270271788854
1583762862549060344,-0.0456243245464,-0.00832455015813,0.0473262436569
1583762862647619815,-0.0457469169378,-0.0089426807121,0.0683516932197
1583762862748899796,-0.0456177841779,-0.00895467934997,0.0896148204379
1583762862848141454,-0.045362351598,-0.00886032951995,0.110635860245
1583762862948876027,-0.0452126861843,-0.00838514200931,0.132278159225
1583762863047694289,-0.0451896971208,-0.00802337817971,0.154062234052
1583762863149027741,-0.0449175781799,-0.00769499729499,0.175368383567
1583762863248476215,-0.0448751579848,-0.00722469526028,0.196814428141
1583762863349013010,-0.0444806828829,-0.00690880996822,0.218663445715
1583762863447712108,-0.0444307699565,-0.00644482399857,0.240160017801
1583762863548120659,-0.0441634028321,-0.00626681030414,0.261191102733
1583762863647540611,-0.0439004737245,-0.00608364140995,0.282753498585
1583762863748888863,-0.0433978392979,-0.00594579673714,0.304230163057
1583762863847807340,-0.0433157552347,-0.00612325739143,0.325612566423
1583762863949688678,-0.0427200934463,-0.00615405109388,0.346667893744
1583762864047763507,-0.0425123393721,-0.00623971122972,0.368248472218
1583762864148713845,-0.0420254991457,-0.00614777765081,0.389388910916
1583762864247885414,-0.0419910593296,-0.00586523744386,0.409688741368
1583762864348404641,-0.0415967994849,-0.00567417323261,0.429416962812
1583762864447661213,-0.0412283480603,-0.00560714872135,0.449293084525
1583762864548136385,-0.0410140736627,-0.00561919297615,0.470112907821
1583762864647888355,-0.040712443489,-0.00579371334428,0.490460237764
1583762864749130974,-0.0403924325356,-0.00584522722423,0.511397163647
1583762864847679180,-0.0401078591098,-0.0060184178612,0.5324855686
1583762864948055575,-0.0400697728402,-0.00611487153351,0.554407507526
1583762865047461379,-0.0398027197178,-0.00630343990442,0.575273821872
1583762865147936629,-0.0395069183063,-0.00638537639665,0.595939102856
1583762865247297185,-0.0391766506439,-0.00637904080191,0.615516567197
1583762865348030435,-0.0388715642243,-0.00658708321723,0.630385835405
1583762865448164320,-0.0385828308708,-0.00631912485121,0.636171225263
1583762865548425529,-0.0386260306413,-0.00564823878207,0.63693060874
1583762865647672554,-0.0387048241549,-0.00471519071316,0.637260632082
1583762865748732165,-0.0386691061187,-0.00420821759714,0.637520884511
1583762865848203447,-0.0386321661498,-0.00408718436919,0.637788619257
1583762865948317709,-0.038903547295,-0.00412136763991,0.638060000402
1583762866047396669,-0.0390955117279,-0.00431251435911,0.638180068872
1583762866147462816,-0.0390557274708,-0.004580226086,0.638301142901
1583762866247389527,-0.0391323252387,-0.00481198739606,0.63830585367
1583762866347993590,-0.0392476768696,-0.00516200272792,0.638197069562
1583762866447553732,-0.0392466743283,-0.00554794870371,0.638204641548
1583762866548171631,-0.03920737907,-0.0058180107476,0.638209827435
1583762866647724857,-0.0392835688531,-0.00604738533402,0.638330486422
1583762866748533007,-0.039476448112,-0.00624324783372,0.638219005055
1583762866847618573,-0.0397072227997,-0.00655259810231,0.638225868322
1583762866948394552,-0.039822115231,-0.00690024195261,0.638233167844
1583762867047386531,-0.0398990621067,-0.00713445208977,0.638122170728
1583762867148138020,-0.0398597603757,-0.00740451523938,0.638127413583
1583762867247638313,-0.0398587533315,-0.00779046111927,0.638135102644
1583762867347460192,-0.0398194543767,-0.00806052255271,0.638140327148
1583762867447547396,-0.0399346170379,-0.00841064873283,0.638031843398
1583762867548805177,-0.0398950442469,-0.00867823432028,0.638152955587
1583762867648260498,-0.0397398624195,-0.00898659070246,0.63815840991
1583762867748335739,-0.0398557499943,-0.00894829525675,0.638158167573
1583762867847556675,-0.0397398624195,-0.00898659070246,0.63815840991
1583762867947857787,-0.0398557499943,-0.00894829525675,0.638158167573
1583762868047239482,-0.0399325768578,-0.00918255025724,0.63804724917
1583762868149093098,-0.0399300869351,-0.00918278250474,0.638008959885
1583762868247575081,-0.0401225468922,-0.00937625766121,0.638013725867
1583762868348326388,-0.0401991224673,-0.00960801722377,0.638018744008
1583762868447479233,-0.0402376172768,-0.00972641451546,0.637905372755
1583762868548116610,-0.0401982934956,-0.00999646254009,0.637910610035
1583762868647660840,-0.0403141825952,-0.00995818144191,0.637910417755
1583762868747845556,-0.0403141825952,-0.00995818144191,0.637910417755
1583762868848042965,-0.0401982934956,-0.00999646254009,0.637910610035
1583762868948456929,-0.0401206880189,-0.0101506290759,0.637913315112
1583762869047998512,-0.039888908631,-0.0102271922669,0.637913665531
1583762869148349234,-0.0397730185108,-0.010265474014,0.637913834086
1583762869248275635,-0.039657128107,-0.0103037558611,0.637913998205
1583762869347846559,-0.039657128107,-0.0103037558611,0.637913998205
1583762869447616785,-0.0398113024671,-0.0103813580433,0.63791633778
1583762869548000850,-0.0396954121777,-0.0104196401282,0.63791649592
1583762869647952458,-0.0396954121777,-0.0104196401282,0.63791649592
1583762869748313148,-0.0397336965322,-0.0105355241415,0.637918998071
1583762869847428001,-0.0397719811711,-0.0106514079,0.637921504659
1583762869948083352,-0.0399261560445,-0.0107290086034,0.637923875481
1583762870047785964,-0.0400803306921,-0.0108066086692,0.637926258262
1583762870148052717,-0.0400804714254,-0.0108091382153,0.637810366638
1583762870247699650,-0.0400421924202,-0.0106932510145,0.637807839106
1583762870348116134,-0.0401196504996,-0.0105365605116,0.637921052807
1583762870447263579,-0.040081366203,-0.0104206774697,0.637918528281
1583762870548038897,-0.040081366203,-0.0104206774697,0.637918528281
1583762870647569622,-0.0399270275358,-0.010340564358,0.638032062849
1583762870747634644,-0.0400429128195,-0.0103022764931,0.638031895552
1583762870848009747,-0.0399271924722,-0.0103430760578,0.637916175204
1583762870948129309,-0.0398111419673,-0.0103788523232,0.638032225709
1583762871047619292,-0.0398113024671,-0.0103813580433,0.63791633778
1583762871148600514,-0.0399271924722,-0.0103430760578,0.637916175204
1583762871247512881,-0.0399270275358,-0.010340564358,0.638032062849
1583762871348097918,-0.0398887377158,-0.0102246850005,0.638029553291
1583762871447251949,-0.0397347342539,-0.0101495879636,0.63791133479
1583762871548003888,-0.0398890792623,-0.010229699649,0.637797773335
1583762871647720305,-0.0397347342539,-0.0101495879636,0.63791133479
1583762871748137451,-0.039812341216,-0.00999542215863,0.637908659454
1583762871847945743,-0.0397740582248,-0.0098795376115,0.63790616309
1583762871947924413,-0.0396198849294,-0.00980193361,0.637903863634
1583762872047332758,-0.0395422770058,-0.00995609977993,0.63790653164
1583762872148230675,-0.0394263859749,-0.00999438101645,0.637906709261
1583762872247892852,-0.0394648385969,-0.0101127468498,0.637793294413
1583762872348072973,-0.039658167756,-0.00991781864468,0.637906349583
1583762872451537943,-0.0397740582248,-0.0098795376115,0.63790616309
1583762872548567484,-0.0397357755155,-0.00976365281434,0.637903671161
1583762872647623917,-0.0397357755155,-0.00976365281434,0.637903671161
1583762872749042304,-0.0398516658205,-0.00972537212225,0.637903474252
1583762872847620120,-0.0399677592658,-0.00968959314616,0.637787380807
1583762872947704742,-0.0400060357587,-0.00980548189895,0.637789884813
1583762873048477155,-0.0399666954894,-0.0100755339769,0.637795089256
1583762873148354584,-0.0398508011008,-0.0101138094039,0.637795267943
1583762873247371568,-0.0397350783211,-0.0101545820168,0.637679545163
1583762873348678883,-0.0396966290187,-0.0100361959656,0.637792947257
1583762873447640008,-0.0397742467953,-0.00988203169513,0.637790270544
1583762873548072386,-0.0398901414182,-0.00984375674523,0.637790079896
1583762873648138765,-0.0399284183122,-0.00995964548669,0.637792582358
1583762873747776650,-0.0399666954894,-0.0100755339769,0.637795089256
1583762873847619337,-0.040120867522,-0.0101531484186,0.637797423485
1583762873947958545,-0.0400432512801,-0.0103073119675,0.637800116397
1583762874048231977,-0.040003913702,-0.0105773635565,0.637805316009
1583762874148112773,-0.0400421924202,-0.0106932510145,0.637807839106
1583762874247905025,-0.040003913702,-0.0105773635565,0.637805316009
1583762874348085341,-0.040003913702,-0.0105773635565,0.637805316009
1583762874448306469,-0.0400040661081,-0.0105798843511,0.637689419722
1583762874549224357,-0.0399977106215,-0.0106005041862,0.636647435555
1583762874647809119,-0.0400735302809,-0.0104566351614,0.636142875229
1583762874749471439,-0.040020948582,-0.0103922127734,0.633554530735
1583762874847738497,-0.039695322971,-0.0101982328544,0.621887631968
1583762874948360741,-0.0390925986535,-0.00928065665022,0.605339329889
1583762875047839096,-0.0390534008833,-0.00868141754871,0.582697238857
1583762875148136855,-0.039191565203,-0.00813965186785,0.561437926656
1583762875247820690,-0.0393788426292,-0.00772067550583,0.540130736572
1583762875349235253,-0.0393398040683,-0.00737817755602,0.518353427873
1583762875447866671,-0.0398203372542,-0.00753346919205,0.496799838163
1583762875548357557,-0.0401180393627,-0.00800371968166,0.474778893065
1583762875647795075,-0.0401224688049,-0.00828957239846,0.453224077094
1583762875749188784,-0.0402163709098,-0.00843759333588,0.431336094388
1583762875847451675,-0.0403818714275,-0.00831627850645,0.409853061757
1583762875949851341,-0.0403625579149,-0.00848772864893,0.388305679783
1583762876048164497,-0.0405670206267,-0.00986388272266,0.366590711636
1583762876147469331,-0.0406942004928,-0.00951167975776,0.345244639411
1583762876247984994,-0.0407464511155,-0.0094432435764,0.322942643698
1583762876348689663,-0.0411920652867,-0.0094245598487,0.301566180329
1583762876447593812,-0.0414145372018,-0.00958607010529,0.279485934304
1583762876548678402,-0.0414869178619,-0.0095188214064,0.257797036511
1583762876647870232,-0.041719614504,-0.00967159701828,0.236644764161
1583762876750171849,-0.0417073273502,-0.00986881950199,0.214899875841
1583762876847975942,-0.0419163754064,-0.00979211735875,0.193540910709
1583762876949311751,-0.0419986519202,-0.00961998343226,0.17171661735
1583762877048748169,-0.0420239332748,-0.010184613356,0.150171152488
1583762877149110907,-0.0419052087769,-0.0105122626549,0.128759522878
1583762877248382595,-0.0418817675648,-0.010478572853,0.106739647308
1583762877347467754,-0.0418694558006,-0.0104330655357,0.0853487862082
1583762877449655316,-0.0419776747953,-0.0102671288091,0.0637172684211
1583762877548581368,-0.0419803289723,-0.0104733389795,0.0421017617936
1583762877647743692,-0.0417401608117,-0.0103101534357,0.0208506552156
1583762877752369734,-0.0418696409998,-0.0103968669379,-0.000881210711272
1583762877847616706,-0.041641644418,-0.00999545512452,-0.0226249798254
1583762877948790972,-0.041181396695,-0.00970463809297,-0.0442481279311
1583762878047417413,-0.0407233839525,-0.00964364285457,-0.0656239589815
1583762878148514692,-0.0408810520278,-0.00961130820136,-0.0874955125871
1583762878247497193,-0.041059746784,-0.00933274086391,-0.109017378905
1583762878348200767,-0.0408742730391,-0.00915430100465,-0.130423413688
1583762878447500482,-0.0409511817396,-0.00887586800253,-0.152097819756
1583762878548819346,-0.0409157049266,-0.00858690198903,-0.173660592924
1583762878647524324,-0.0410159923396,-0.00830897012962,-0.195133273973
1583762878747886790,-0.0409886161515,-0.00814703423394,-0.216859713189
1583762878847937081,-0.0410794399739,-0.00811210042538,-0.238123846269
1583762878948616499,-0.0411584141908,-0.00820661251201,-0.259657283911
1583762879047943835,-0.0408769192459,-0.00824757076064,-0.2809664096
1583762879149260875,-0.0408755263933,-0.0080925169692,-0.302933235698
1583762879247660128,-0.0409686665894,-0.00818553611744,-0.324208062895
1583762879348442055,-0.040718791357,-0.0081077548259,-0.345989481293
1583762879447712514,-0.0407499975426,-0.00856387899753,-0.367318798745
1583762879547935421,-0.0403897604056,-0.00845958472262,-0.389208636543
1583762879647637820,-0.0403438571031,-0.00865978049282,-0.410994569972
1583762879748234536,-0.0403438571031,-0.00865978049282,-0.410994569972
1583762879847956714,-0.0403803337549,-0.00907262143937,-0.453762255329
1583762879949106992,-0.0401610694583,-0.00948155674861,-0.475463435565
1583762880047895335,-0.0401159026583,-0.00967575517014,-0.496959135472
1583762880148778523,-0.0399843041666,-0.00972208142371,-0.518517242655
1583762880247689172,-0.0397071796422,-0.00985089583117,-0.540018437795
1583762880349260118,-0.0395827510345,-0.00989275517825,-0.561585664999
1583762880447867661,-0.0394275031823,-0.0100547634517,-0.583370276345
1583762880549368467,-0.0391943065936,-0.0100465923601,-0.604422039223
1583762880648437453,-0.0388535338481,-0.0103646253669,-0.618511439024
1583762880748723950,-0.0388256391974,-0.0108674316396,-0.624525454117
1583762880847644649,-0.0390161648533,-0.0118646752693,-0.626281604062
1583762880949545525,-0.0392533175603,-0.0127227658958,-0.626803219749
1583762881048842002,-0.0394878445527,-0.0131895069416,-0.627062460571
1583762881149437713,-0.0395680098642,-0.0137312003795,-0.627167352239
1583762881247399543,-0.0398002242414,-0.0138064612681,-0.627164259327
1583762881348050931,-0.0399513021539,-0.0133456726321,-0.627326244102
1583762881447668128,-0.0401380319014,-0.0127672764059,-0.627452744046
1583762881548668617,-0.0401710709549,-0.0122673576427,-0.627578708134
1583762881648373188,-0.0402056121135,-0.0117653484497,-0.627588589699
1583762881748681419,-0.0404723481371,-0.0113386550974,-0.627595656029
1583762881847743783,-0.0408144075219,-0.0106797911506,-0.627607163806
1583762881948185813,-0.040811299928,-0.0102938716391,-0.627615056655
1583762882047821360,-0.0408081953859,-0.00990795131247,-0.627622948291
1583762882148728676,-0.0408835218288,-0.00967577863407,-0.62762732176
1583762882247517348,-0.0411126040252,-0.00936518225488,-0.627632598768
1583762882347481098,-0.041150267934,-0.00924909664931,-0.627634811193
1583762882447238554,-0.0413806490728,-0.00893626930945,-0.627524086674
1583762882548542240,-0.0413385907513,-0.00866866986547,-0.627645938871
1583762882647761222,-0.04129783231,-0.00839883586989,-0.627651688281
1583762882748237191,-0.0413342386261,-0.00828499383687,-0.627770016319
1583762882847901282,-0.041371910688,-0.0081689133905,-0.627772261814
1583762882948676380,-0.041525666886,-0.00809050410478,-0.627773261789
1583762883047552507,-0.0416010116222,-0.00785834431722,-0.627777786682
1583762883148211484,-0.0417170948691,-0.00789601561766,-0.627776544476
1583762883247632902,-0.0416794226232,-0.00801209519921,-0.627774273818
1583762883348280460,-0.041603278547,-0.00785958441456,-0.627815461451
1583762883448021524,-0.041603278547,-0.00785958441456,-0.627815461451
1583762883548371137,-0.0419095733972,-0.0077050523803,-0.627933625434
1583762883647859003,-0.041793489172,-0.00766737042137,-0.627934860406
1583762883748175828,-0.0419472564641,-0.00758897177339,-0.627935915219
1583762883848084511,-0.0419484874863,-0.00758667975435,-0.627819829147
1583762883948367296,-0.0417924401564,-0.00766385638379,-0.627781098911
1583762884047720192,-0.0418313392586,-0.00754549117334,-0.627667298044
1583762884148184648,-0.0418301130554,-0.00754777717635,-0.62778338268
1583762884248103673,-0.0416386843145,-0.00774226460809,-0.627780055684
1583762884348160925,-0.0416763573677,-0.00762618458064,-0.627782329065
1583762884447619161,-0.0416386843145,-0.00774226460809,-0.627780055684
1583762884547929793,-0.0416409556101,-0.00774349868024,-0.62781773067
1583762884647719507,-0.0416397212779,-0.00774576990183,-0.627933817637
1583762884748113171,-0.0416761762046,-0.00763196358899,-0.628052173374
1583762884847512544,-0.0417150882528,-0.00751360711148,-0.62793836874
1583762884948613987,-0.0416774047283,-0.00762968822248,-0.627936091007
1583762885048087390,-0.0416761762046,-0.00763196358899,-0.628052173374
1583762885148998069,-0.0417138657547,-0.00751588685182,-0.628054450878
1583762885247589848,-0.041829945598,-0.00755357532711,-0.628053226085
1583762885348408521,-0.0418287185089,-0.00755586086354,-0.628169303632
1583762885448043743,-0.0417933043863,-0.00767316627607,-0.628204717755
1583762885548712660,-0.0416772226623,-0.00763546765583,-0.62820594902
1583762885647630052,-0.0415965673488,-0.00748047162647,-0.628171749284
1583762885748505959,-0.0415965673488,-0.00748047162647,-0.628171749284
1583762885847351617,-0.0415965673488,-0.00748047162647,-0.628171749284
1583762885948189722,-0.0415965673488,-0.00748047162647,-0.628171749284
1583762886047579391,-0.0415192511938,-0.00733018388044,-0.628329013322
1583762886147458485,-0.0413654667733,-0.00740855265691,-0.628327956067
1583762886248011085,-0.0414815445488,-0.00744625826611,-0.62832674373
1583762886348136611,-0.041480329916,-0.00744852549498,-0.628442819209
1583762886447623443,-0.0415180425849,-0.00733245548555,-0.628445088575
1583762886548403551,-0.0416341155421,-0.0073701671312,-0.62844387767
1583762886648168644,-0.0416341155421,-0.0073701671312,-0.62844387767
1583762886748804179,-0.0415192511938,-0.00733018388044,-0.628329013322
1583762886848101747,-0.0416353285254,-0.00736788950302,-0.628327802635
1583762886947976206,-0.0416353285254,-0.00736788950302,-0.628327802635
1583762887047269484,-0.0417124760658,-0.00752394804759,-0.628440380977
1583762887148356617,-0.0416747640692,-0.0076400176821,-0.628438103939
1583762887247904911,-0.0416370521466,-0.00775608788495,-0.628435831266
1583762887348131931,-0.0416747640692,-0.0076400176821,-0.628438103939
1583762887447750132,-0.0415574656272,-0.00760457542358,-0.628555402381
1583762887549068341,-0.0415597343354,-0.00760580085884,-0.628593122707
1583762887647524323,-0.0415207800694,-0.00772413721667,-0.628706929061
1583762887748515625,-0.0416745791082,-0.00764579682206,-0.62870796748
1583762887847672940,-0.0415585086423,-0.00760806949604,-0.62870919547
1583762887948651592,-0.0415585086423,-0.00760806949604,-0.62870919547
1583762888047414480,-0.0415585086423,-0.00760806949604,-0.62870919547
1583762888148205528,-0.0414801668325,-0.00745427452869,-0.628712683838
1583762888247774957,-0.0415962372883,-0.00749200234354,-0.628711466247
1583762888348523073,-0.041557282732,-0.00761033790534,-0.628825263856
1583762888447359913,-0.0414034816027,-0.00768866791112,-0.628824227528
1583762888548783393,-0.0412509093634,-0.00776475024937,-0.628707133978
1583762888647583488,-0.041018766012,-0.0076892949258,-0.628709583414
1583762888749308609,-0.0410971091134,-0.00784309097826,-0.628706121305
1583762888847895776,-0.0410971091134,-0.00784309097826,-0.628706121305
1583762888948903164,-0.0412521383505,-0.00776250241277,-0.628591060328
1583762889047544549,-0.0411348377947,-0.00772702270645,-0.628708360884
1583762889148555129,-0.041288638032,-0.00764868234848,-0.628709383957
1583762889247747029,-0.0411348377947,-0.00772702270645,-0.628708360884
1583762889348511044,-0.0411348377947,-0.00772702270645,-0.628708360884
1583762889448139134,-0.0410971091134,-0.00784309097826,-0.628706121305
1583762889549146018,-0.0410971091134,-0.00784309097826,-0.628706121305
1583762889647398895,-0.0412131809094,-0.00788081827311,-0.628704888376
1583762889748433906,-0.0412134069529,-0.00787509659085,-0.628435022133
1583762889848423530,-0.0412541910354,-0.00773735582841,-0.627395562405
1583762889950061192,-0.041572280021,-0.00753349377342,-0.6251196458
1583762890047600567,-0.0416231428454,-0.00775273221991,-0.62268210345
1583762890149850684,-0.0414065055907,-0.00799984375612,-0.619589108894
1583762890248325446,-0.0419946125766,-0.00756500126689,-0.597314772383
1583762890349509888,-0.0420102577304,-0.00777500025379,-0.577803322155
1583762890447564467,-0.0423286887945,-0.00736821057505,-0.555286156259
1583762890548379697,-0.0425777932219,-0.00721214446302,-0.533753350661
1583762890648686873,-0.0428250646781,-0.00706017792535,-0.512638060893
1583762890749041920,-0.0429586888644,-0.00686813527799,-0.49123124276
1583762890847975983,-0.0430911887608,-0.00666589677342,-0.469469364227
1583762890948317553,-0.0430525267152,-0.0066771509322,-0.447908059822
1583762891047478533,-0.0430955896123,-0.00633579160784,-0.426527142625
1583762891148378652,-0.0430187255354,-0.0059574790698,-0.404576436945
1583762891247833476,-0.0431550168153,-0.00575726989748,-0.383052870264
1583762891350021240,-0.0434079305664,-0.00558201867325,-0.361791808499
1583762891447352231,-0.0432266255959,-0.0050561071079,-0.339481627709
1583762891548378779,-0.0431001420896,-0.00494097782704,-0.31832770639
1583762891647584674,-0.0432707112344,-0.00449813563454,-0.296958075578
1583762891748230768,-0.0434040435037,-0.00429220774898,-0.275498972056
1583762891847653418,-0.0434033706405,-0.00418247208173,-0.253707905059
1583762891949611980,-0.0432958018054,-0.00393799803498,-0.231935221764
1583762892047950366,-0.0432849718406,-0.0039608173557,-0.210562894266
1583762892148789259,-0.0431567226762,-0.00396763152425,-0.188961150163
1583762892247825275,-0.0431452815714,-0.00410994498562,-0.167380122383
1583762892347576104,-0.0430208622054,-0.00424186795806,-0.145698809814
1583762892447387111,-0.0430410481017,-0.00414385185577,-0.124161987642
1583762892548816537,-0.0430479920541,-0.00439617391439,-0.101901327394
1583762892647353287,-0.0430717727205,-0.00451923987684,-0.0792890605863
1583762892749220064,-0.0432180904464,-0.00462414306499,-0.0613271111326
1583762892847757008,-0.0429929834184,-0.00433973239395,-0.0541257282244
1583762892948125729,-0.0425256292787,-0.00365671955823,-0.0513307588282
1583762893047830226,-0.0429205474935,-0.0026456518963,-0.0492767164501
1583762893148609741,-0.0429343156352,-0.0021340774741,-0.0481891000418
1583762893248305299,-0.0429355619652,-0.00199879850766,-0.0475787602855
1583762893348991924,-0.0428112295562,-0.00211007621648,-0.0472103187846
1583762893448341122,-0.0429219474195,-0.00259836104543,-0.0470776593618
1583762893548497336,-0.0431573537908,-0.00297011462272,-0.0470693301733
1583762893648107573,-0.0433898954238,-0.00346386882267,-0.0470582709935
1583762893748572586,-0.0436224415767,-0.00395761729145,-0.0470470970457
1583762893847786490,-0.0438573270799,-0.00445436422296,-0.0471606838598
1583762893948681957,-0.0439707249329,-0.00482326557808,-0.0471523193993
1583762894047616541,-0.0439621145556,-0.00518929469692,-0.0471442931209
1583762894148882275,-0.0438310935128,-0.00555512177579,-0.0472586835565
1583762894247639532,-0.0438253418516,-0.00579914087138,-0.0472533515306
1583762894348252009,-0.0439387283689,-0.00616804421888,-0.0472449166505
1583762894447327509,-0.0441770062488,-0.0064178098611,-0.047238663536
1583762894548531886,-0.0442903975453,-0.00678670796149,-0.0472301287483
1583762894647790725,-0.044284160004,-0.00703341561869,-0.0473467549528
1583762894748232554,-0.0445258023451,-0.00715847473292,-0.0472210514643
1583762894847622875,-0.0445258023451,-0.00715847473292,-0.0472210514643
1583762894948287539,-0.0445263030414,-0.00715576833324,-0.0470990409754
1583762895047717638,-0.0445234390967,-0.00727777631904,-0.0470963346357
1583762895148250121,-0.0445205754917,-0.00739978380081,-0.0470936286543
1583762895247824398,-0.0443957011775,-0.00751892817623,-0.047091445686
1583762895348385159,-0.0443957011775,-0.00751892817623,-0.047091445686
1583762895447505564,-0.0443957011775,-0.00751892817623,-0.047091445686
1583762895548033031,-0.0445177122154,-0.00752179124305,-0.0470909230209
1583762895647813239,-0.0443933679209,-0.00763823827557,-0.0469667363887
1583762895748030772,-0.0443962235047,-0.00751623019307,-0.0469694343103
1583762895847619569,-0.0441608000074,-0.00766813472883,-0.0430579235704
1583762895949247998,-0.044645884314,-0.00823981605227,-0.0408459368968
1583762896047694517,-0.0457540015149,-0.00841937834029,-0.0370504082531
1583762896147557317,-0.0465053372543,-0.00888399245206,-0.0301976861155
1583762896247574657,-0.0475193191673,-0.0094023403948,-0.0205353699598
1583762896349185372,-0.0480615596163,-0.00995940458885,-0.00794178143183
1583762896447767064,-0.0485688447266,-0.0108368388925,-0.00376632380089
1583762896548660306,-0.0500371452628,-0.0104580544337,-0.00315730611957
1583762896647374737,-0.0506452095384,-0.00988031301029,-0.004390112056
1583762896748870251,-0.0516267625205,-0.00961307484407,-0.0034152438078
1583762896847554699,-0.0524724083943,-0.0100221255,-0.00498792921717
1583762896948830496,-0.0524699577657,-0.00979407338357,-0.0056044964419
1583762897047706508,-0.0518547091884,-0.00969887855528,-0.00670900428909
1583762897148621696,-0.0516093129756,-0.0103050899334,-0.00657243423084
1583762897247840693,-0.050753630746,-0.0105495531904,-0.00669275485764
1583762897348324946,-0.0495298150381,-0.0106670031289,-0.00669588005493
1583762897447500223,-0.0490424993831,-0.0112636165323,-0.00619542276492
1583762897550270032,-0.0475776699675,-0.0113813097793,-0.00620087690288
1583762897648481316,-0.0472119071336,-0.0112581895097,-0.0062058665291
1583762897748618031,-0.0469700042707,-0.0105252513664,-0.00622444572245
1583762897848719275,-0.0462405475214,-0.00978801310246,-0.00612322909409
1583762897948711407,-0.0461190009048,-0.00942435029587,-0.00625431806362
1583762898047704561,-0.0456339595723,-0.00892636544434,-0.0059016502935
1583762898148491730,-0.0456337029641,-0.00879264630724,-0.00541593440594
1583762898247807457,-0.0451454238721,-0.00927400350889,-0.00516301586166
1583762898348318421,-0.0450248169727,-0.00914617381352,-0.00492225531963
1583762898447883603,-0.0450267756933,-0.0090158993111,-0.00455888150443
1583762898548269801,-0.0450281389351,-0.00888837076679,-0.00431754833015
1583762898648386384,-0.0445413087838,-0.00875989449132,-0.00407837588297
1583762898747874491,-0.0440534473325,-0.00887829664143,-0.00395580530981
1583762898847764643,-0.0434405813702,-0.00937325631078,-0.00431407349848
1583762898948037896,-0.0436827450802,-0.00853813901711,-0.00518587686605
1583762899047697902,-0.0429426898544,-0.00809529530915,-0.00739632704835
1583762899149094158,-0.0407355959472,-0.00837616008085,-0.00959730403714
1583762899247850414,-0.0391460224645,-0.0081436738828,-0.0105852896777
1583762899348090793,-0.0391460224645,-0.0081436738828,-0.0105852896777
1583762899447849872,-0.0360827632419,-0.00840652593101,-0.012545784446
1583762899551117022,-0.0360827632419,-0.00840652593101,-0.012545784446
1583762899647944035,-0.0348601935473,-0.00864518045042,-0.0126688522194
1583762899748453128,-0.0348601935473,-0.00864518045042,-0.0126688522194
1583762899847569899,-0.0332781769799,-0.00873701991733,-0.011453283156
1583762899948711295,-0.0332781769799,-0.00873701991733,-0.011453283156
1583762900047638191,-0.0346209447995,-0.00862466607146,-0.0115714490938
1583762900148202819,-0.0346209447995,-0.00862466607146,-0.0115714490938
1583762900249375774,-0.0346209447995,-0.00862466607146,-0.0115714490938
1583762900348582016,-0.0360855762228,-0.00863302572509,-0.0115649802514
1583762900447895068,-0.0360855762228,-0.00863302572509,-0.0115649802514
1583762900548103522,-0.0373067687132,-0.00851794091033,-0.0115618541602
1583762900647570666,-0.0373067687132,-0.00851794091033,-0.0115618541602
1583762900747558801,-0.0390191890548,-0.00828411559164,-0.0115598363448
1583762900847767347,-0.0390191890548,-0.00828411559164,-0.0115598363448
1583762900948289914,-0.0409714558479,-0.00829773389318,-0.0116735634337
1583762901047916800,-0.0409714558479,-0.00829773389318,-0.0116735634337
1583762901148504159,-0.0409714558479,-0.00829773389318,-0.0116735634337
1583762901247660332,-0.0418264772338,-0.00818060566325,-0.0116724644524
1583762901347988669,-0.0418264772338,-0.00818060566325,-0.0116724644524
1583762901447671457,-0.0425587387578,-0.00818481543905,-0.0116693783344
1583762901547972276,-0.0425587387578,-0.00818481543905,-0.0116693783344
1583762901647856754,-0.0431703509183,-0.00794424777535,-0.0116720677903
1583762901748265913,-0.0431703509183,-0.00794424777535,-0.0116720677903
1583762901847338778,-0.0431703509183,-0.00794424777535,-0.0116720677903
1583762901947959280,-0.0435364722414,-0.00794635275792,-0.0116705669902
1583762902047560907,-0.0435364722414,-0.00794635275792,-0.0116705669902
1583762902148011907,-0.0439030911353,-0.00794578071426,-0.0115470264071
1583762902247385940,-0.0439030911353,-0.00794578071426,-0.0115470264071
1583762902347738564,-0.044268516982,-0.00806989645742,-0.0115428261943
1583762902448404041,-0.044268516982,-0.00806989645742,-0.0115428261943
1583762902548790040,-0.044268516982,-0.00806989645742,-0.0115428261943
1583762902647566673,-0.044268516982,-0.00806989645742,-0.0115428261943
1583762902748047314,-0.044268516982,-0.00806989645742,-0.0115428261943
1583762902847518482,-0.0441474901493,-0.0080638202784,-0.0112992570654
1583762902948698986,-0.0441474901493,-0.0080638202784,-0.0112992570654
1583762903047870985,-0.0445141156643,-0.00806314201772,-0.0111756971721
1583762903148186974,-0.0445141156643,-0.00806314201772,-0.0111756971721
1583762903247934776,-0.0445141156643,-0.00806314201772,-0.0111756971721
1583762903347906529,-0.0445141156643,-0.00806314201772,-0.0111756971721
1583762903447397837,-0.0445141156643,-0.00806314201772,-0.0111756971721
1583762903548880910,-0.0445141156643,-0.00806314201772,-0.0111756971721
1583762903647805784,-0.0445141156643,-0.00806314201772,-0.0111756971721
1583762903747868148,-0.0448847986111,-0.00781884485862,-0.0110582752711
1583762903847413630,-0.0448847986111,-0.00781884485862,-0.0110582752711
1583762903947940222,-0.0448847986111,-0.00781884485862,-0.0110582752711
1583762904047673231,-0.0451290651962,-0.00770088429909,-0.011182085653
1583762904148370588,-0.0451290651962,-0.00770088429909,-0.011182085653
1583762904247650543,-0.0451279006769,-0.00782567593461,-0.0113013773369
1583762904348373166,-0.0451279006769,-0.00782567593461,-0.0113013773369
1583762904447336432,-0.0453719866103,-0.00782703348638,-0.0113003909711
1583762904548488470,-0.0452506227793,-0.00770431501968,-0.011303643236
1583762904647878616,-0.0452506227793,-0.00770431501968,-0.011303643236
1583762904747895792,-0.0452506227793,-0.00770431501968,-0.011303643236
1583762904847550288,-0.045128579706,-0.00770363587619,-0.0113041289348
1583762904947993358,-0.0451292590679,-0.00758159622972,-0.0113068806038
1583762905047590018,-0.045128579706,-0.00770363587619,-0.0113041289348
1583762905148450765,-0.045128579706,-0.00770363587619,-0.0113041289348
1583762905247424300,-0.0450051784531,-0.00794703693965,-0.0112991263351
1583762905348417578,-0.0450045000341,-0.00806907675824,-0.0112963823541
1583762905448010875,-0.0452485868912,-0.0080704330897,-0.0112953663776
1583762905548525120,-0.0454926724029,-0.00807178916566,-0.0112943500758
1583762905648240285,-0.0456140368892,-0.00819450518273,-0.0112910606865
1583762905748031930,-0.0457360788636,-0.00819518272075,-0.0112905448891
1583762905847821052,-0.0458586362468,-0.0081930642935,-0.0111679875059
1583762905948054902,-0.0457359246164,-0.00831443202428,-0.0111657145007
1583762906048101627,-0.0457359246164,-0.00831443202428,-0.0111657145007
1583762906147253512,-0.0457359246164,-0.00831443202428,-0.0111657145007
1583762906247640940,-0.045613882496,-0.00831376226934,-0.0111662374018
1583762906348229031,-0.0454923626481,-0.00831031889482,-0.0110447175538
1583762906447465722,-0.0453703197706,-0.00830965645157,-0.0110452399566
1583762906547693275,-0.0452482765559,-0.00830899394273,-0.01104576228
1583762906648150086,-0.0452482765559,-0.00830899394273,-0.01104576228
1583762906747920893,-0.0451261000225,-0.00842761963731,-0.0109214893867
1583762906847549030,-0.0451267550414,-0.0083055800781,-0.0109242407654
1583762906948289366,-0.0450058806786,-0.00818014091395,-0.0108054615704
1583762907047518388,-0.0451285729034,-0.00805874924742,-0.0108076991193
1583762907148121379,-0.0450060222492,-0.00806084491791,-0.0109302507009
1583762907247454940,-0.0450066783376,-0.00793880485114,-0.0109329948718
1583762907347185378,-0.0450066783376,-0.00793880485114,-0.0109329948718
1583762907447257073,-0.0450073347607,-0.00781676472887,-0.0109357391215
1583762907547920123,-0.0450068425772,-0.00781950890311,-0.0110577829602
1583762907647823741,-0.0448847986111,-0.00781884485862,-0.0110582752711
1583762907748219092,-0.0447600251376,-0.00781768860684,-0.0110581033845
1583762907847697597,-0.0446381674835,-0.007697711932,-0.0111833543431
1583762907948056034,-0.0446391366975,-0.00769226880446,-0.0109392797552
1583762908047953837,-0.0448966780994,-0.00773623398084,-0.00739647594428
1583762908148590566,-0.0463620113274,-0.00775331202991,-0.00787929360174
1583762908248808617,-0.0479509021536,-0.007625682347,-0.00738776867479
1583762908348876343,-0.0501528444767,-0.00712100391975,-0.00641517770123
1583762908447638298,-0.0521102481294,-0.00711481490393,-0.00592031234613
1583762908548299791,-0.0540654517007,-0.00674114356059,-0.00543500031302
1583762908648779859,-0.0556553751732,-0.00659612505256,-0.00445675987597
1583762908748547700,-0.0568823050437,-0.00657137598555,-0.00347672191942
1583762908847893380,-0.0577391580782,-0.00667013832131,-0.00261619716898
1583762908948762635,-0.0585937266056,-0.00703007019538,-0.00235855208989
1583762909047690607,-0.0590825483696,-0.0071453992295,-0.00210917969711
1583762909149913654,-0.0583492954923,-0.00739585762979,-0.00234873712504
1583762909247590662,-0.0573722182126,-0.00824895459288,-0.00232787420765
1583762909348430007,-0.0556598633175,-0.00788739265105,-0.00258908056177
1583762909449028700,-0.0540743775732,-0.00800093316496,-0.00234803768203
1583762909549192395,-0.0518766538244,-0.00909685691658,-0.00232840249629
1583762909648156819,-0.050534909097,-0.00931736037029,-0.00147402780288
1583762909748281874,-0.050534909097,-0.00931736037029,-0.00147402780288
1583762909848535456,-0.0491922114946,-0.00895343352413,-0.00161134762235
1583762909948136378,-0.0479713776753,-0.00883347384345,-0.00174180163312
1583762910047510888,-0.0463827837505,-0.0082362079082,-0.00237321327967
1583762910148567374,-0.0456457640294,-0.0075194060235,-0.00312505515312
1583762910247641404,-0.0449136480396,-0.00775965672046,-0.00300031314753
1583762910348587380,-0.0439370139418,-0.00872922510582,-0.00273860071694
1583762910447380483,-0.0440594454548,-0.00884873051697,-0.00261333315748
1583762910548203807,-0.0429624230746,-0.00908361799438,-0.00224684286466
1583762910647693348,-0.0429624230746,-0.00908361799438,-0.00224684286466
1583762910749202198,-0.0428420471534,-0.00907565067149,-0.00188126044062
1583762910848065905,-0.0427221500721,-0.00918716214044,-0.00139102238866
1583762910947678889,-0.0422361211388,-0.00942064658271,-0.000899924181118
1583762911048021410,-0.041628204825,-0.00916618141215,-0.000419685890514
1583762911149219525,-0.0401744028204,-0.00947518283263,0.00238802413624
1583762911247646430,-0.0401744028204,-0.00947518283263,0.00238802413624
1583762911349021290,-0.0389986808756,-0.00992329792895,0.0108161344663
1583762911447670416,-0.0351186283941,-0.0100938104996,0.0161710584555
1583762911547909986,-0.0351186283941,-0.0100938104996,0.0161710584555
1583762911647677947,-0.0333849848352,-0.0100674202222,0.0112783863299
1583762911747711590,-0.0318957303591,-0.00977729930291,0.0069926867172
1583762911847441896,-0.0294522730785,-0.0092995909994,0.00685161941061
1583762911948202154,-0.0294522730785,-0.0092995909994,0.00685161941061
1583762912047287027,-0.0289660373866,-0.00954186750048,0.0070970351023
1583762912148903963,-0.0290885397943,-0.00966348179931,0.00709938863742
1583762912247619877,-0.0294547206615,-0.00966215596976,0.00710113879347
1583762912347538116,-0.0299429587342,-0.00966038721146,0.00710347156469
1583762912447366517,-0.0304306121139,-0.00966047663197,0.00698374479898
1583762912548557810,-0.0310404649634,-0.00953624757588,0.00698476298925
1583762912647698432,-0.031285014081,-0.00965742875691,0.00698782509742
1583762912748775684,-0.031773238658,-0.00965568556743,0.00699015550241
1583762912847297753,-0.0326286485113,-0.00977268714289,0.00711827954723
1583762912947573892,-0.0334859561934,-0.010014273154,0.0071269399787
1583762913047237806,-0.0338525802074,-0.0101349902733,0.00713081979088
1583762913147795397,-0.0343414294737,-0.0101311089774,0.00725532219727
1583762913248151397,-0.0349521707202,-0.0102508916683,0.00726051049543
1583762913348719219,-0.0353181693476,-0.0103737367685,0.00714246553563
1583762913447186099,-0.0356852320057,-0.0106164928743,0.00714870204137
1583762913548031057,-0.035807735512,-0.0107380934384,0.00715152994916
1583762913647834422,-0.0359302391745,-0.010859693309,0.00715437274991
1583762913748089363,-0.0360520805678,-0.010983496096,0.00703517493885
1583762913847271831,-0.0361743490713,-0.0108587961562,0.00715568244383
1583762913948823958,-0.036296403615,-0.0108583474614,0.00715633720648
1583762914047577491,-0.0364180091841,-0.0107358517041,0.00715476681159
1583762914148365998,-0.0365400631066,-0.0107354031232,0.00715541401556
1583762914247294706,-0.0366632200457,-0.0108547609743,0.00728035472013
1583762914347625953,-0.0369073265665,-0.0108538479834,0.00728166318995
1583762914447269067,-0.0371503286089,-0.0107331590492,0.00715864919208
1583762914548292498,-0.0371514319851,-0.0108529346771,0.00728297143095
1583762914647615978,-0.0373950795175,-0.0107299763251,0.00728199469507
1583762914748271096,-0.0376398288015,-0.0107267634301,0.00740533879541
1583762914847626392,-0.0376398288015,-0.0107267634301,0.00740533879541
1583762914947875101,-0.0377616906622,-0.0108506500329,0.00728624103162
1583762915047520645,-0.0378841989319,-0.0109722373253,0.0072892093857
1583762915147767996,-0.0380055883719,-0.0109741016817,0.00716781994569
1583762915248777260,-0.0380055883719,-0.0109741016817,0.00716781994569
1583762915347784720,-0.0381278424931,-0.0108492783015,0.00728820210448
1583762915447334983,-0.0381269282847,-0.0106051921334,0.00728354331787
1583762915547960175,-0.0381253912494,-0.0103634347,0.00715683485462
1583762915647371173,-0.0381253912494,-0.0103634347,0.00715683485462
1583762915747735184,-0.0382476087666,-0.0102386062963,0.00727717191614
1583762915847435632,-0.0383681449698,-0.00999640820532,0.00715105109799
1583762915947572077,-0.0384903399573,-0.00987156612057,0.00727135019768
1583762916047346924,-0.0384903399573,-0.00987156612057,0.00727135019768
1583762916147324260,-0.0384907954275,-0.00999360886247,0.00727370155568
