%time,field.header.seq,field.header.stamp,field.header.frame_id,field.pose.pose.position.x,field.pose.pose.position.y,field.pose.pose.position.z,field.pose.pose.orientation.x,field.pose.pose.orientation.y,field.pose.pose.orientation.z,field.pose.pose.orientation.w,field.pose.covariance0,field.pose.covariance1,field.pose.covariance2,field.pose.covariance3,field.pose.covariance4,field.pose.covariance5,field.pose.covariance6,field.pose.covariance7,field.pose.covariance8,field.pose.covariance9,field.pose.covariance10,field.pose.covariance11,field.pose.covariance12,field.pose.covariance13,field.pose.covariance14,field.pose.covariance15,field.pose.covariance16,field.pose.covariance17,field.pose.covariance18,field.pose.covariance19,field.pose.covariance20,field.pose.covariance21,field.pose.covariance22,field.pose.covariance23,field.pose.covariance24,field.pose.covariance25,field.pose.covariance26,field.pose.covariance27,field.pose.covariance28,field.pose.covariance29,field.pose.covariance30,field.pose.covariance31,field.pose.covariance32,field.pose.covariance33,field.pose.covariance34,field.pose.covariance35
1583762851049379438,1,1583762845989366024,odom,0.0,0.0,0.0,0.00426019215969,-0.018801557787,-0.985030729355,0.172378833465,9.99984331429e-06,0.0,0.0,0.0,0.0,0.0,0.0,9.99984331429e-06,0.0,0.0,0.0,0.0,0.0,0.0,206000000.0,0.0,0.0,0.0,0.0,0.0,0.0,2.32830643654e-10,0.0,0.0,0.0,0.0,0.0,0.0,2.32830643654e-10,0.0,0.0,0.0,0.0,0.0,0.0,2.88991648108e-10
1583762851049407602,2,1583762846088366024,odom,0.0,0.0,0.0,0.00419911322903,-0.0188625361319,-0.985698697246,0.168517293618,9.80100594461e-06,0.0,0.0,0.0,0.0,0.0,0.0,9.80100594461e-06,0.0,0.0,0.0,0.0,0.0,0.0,207000000.0,0.0,0.0,0.0,0.0,0.0,0.0,2.32830643654e-10,0.0,0.0,0.0,0.0,0.0,0.0,2.32830643654e-10,0.0,0.0,0.0,0.0,0.0,0.0,2.8324071435e-10
1583762851049439522,3,1583762846141850013,odom,0.0,0.0,0.0,0.004185611911,-0.0188760153066,-0.985844907358,0.167659830123,2.86044087261e-06,0.0,0.0,0.0,0.0,0.0,0.0,2.86044087261e-06,0.0,0.0,0.0,0.0,0.0,0.0,208000000.0,0.0,0.0,0.0,0.0,0.0,0.0,0.0,0.0,0.0,0.0,0.0,0.0,0.0,0.0,0.0,0.0,0.0,0.0,0.0,0.0,8.26671324329e-11
1583762851049470935,4,1583762846289366024,odom,0.0,0.0,0.0,0.00407700104314,-0.0189234791927,-0.986869223524,0.161521316431,2.17609340325e-05,0.0,0.0,0.0,0.0,0.0,0.0,2.17609340325e-05,0.0,0.0,0.0,0.0,0.0,0.0,209000000.0,0.0,0.0,0.0,0.0,0.0,0.0,6.98491930962e-10,0.0,0.0,0.0,0.0,0.0,0.0,6.98491930962e-10,0.0,0.0,0.0,0.0,0.0,0.0,6.28873959604e-10
1583762851049509402,5,1583762846341856325,odom,0.0,0.0,0.0,0.00407700104314,-0.0189234791927,-0.986869223524,0.161521316431,2.75520142168e-06,0.0,0.0,0.0,0.0,0.0,0.0,2.75520142168e-06,0.0,0.0,0.0,0.0,0.0,0.0,210000000.0,0.0,0.0,0.0,0.0,0.0,0.0,2.32830643654e-10,0.0,0.0,0.0,0.0,0.0,0.0,2.32830643654e-10,0.0,0.0,0.0,0.0,0.0,0.0,7.96238949476e-11
1583762851049537590,6,1583762846493629114,odom,0.0,0.0,0.0,0.00407700105375,-0.0189234790798,-0.986866599753,0.161537346434,2.30348668993e-05,0.0,0.0,0.0,0.0,0.0,0.0,2.30348668993e-05,0.0,0.0,0.0,0.0,0.0,0.0,211000000.0,0.0,0.0,0.0,0.0,0.0,0.0,6.98491930962e-10,0.0,0.0,0.0,0.0,0.0,0.0,6.98491930962e-10,0.0,0.0,0.0,0.0,0.0,0.0,6.6569166851e-10
1583762851049577406,7,1583762846592629114,odom,0.0,0.0,0.0,0.00407704554755,-0.0188624659893,-0.986754466926,0.162220904945,9.80100594461e-06,0.0,0.0,0.0,0.0,0.0,0.0,9.80100594461e-06,0.0,0.0,0.0,0.0,0.0,0.0,212000000.0,0.0,0.0,0.0,0.0,0.0,0.0,2.32830643654e-10,0.0,0.0,0.0,0.0,0.0,0.0,2.32830643654e-10,0.0,0.0,0.0,0.0,0.0,0.0,2.8324071435e-10
1583762851049623062,8,1583762846693629114,odom,0.0,0.0,0.0,0.00407704554287,-0.0188624658064,-0.986754881436,0.162218383553,1.02010089904e-05,0.0,0.0,0.0,0.0,0.0,0.0,1.02010089904e-05,0.0,0.0,0.0,0.0,0.0,0.0,213000000.0,0.0,0.0,0.0,0.0,0.0,0.0,4.65661287308e-10,0.0,0.0,0.0,0.0,0.0,0.0,4.65661287308e-10,0.0,0.0,0.0,0.0,0.0,0.0,2.94800380276e-10
1583762851049841920,9,1583762846741909922,odom,0.0,0.0,0.0,0.00408546904115,-0.0188624706774,-0.986682806232,0.162656201502,2.33086757362e-06,0.0,0.0,0.0,0.0,0.0,0.0,2.33086757362e-06,0.0,0.0,0.0,0.0,0.0,0.0,214000000.0,0.0,0.0,0.0,0.0,0.0,0.0,2.32830643654e-10,0.0,0.0,0.0,0.0,0.0,0.0,2.32830643654e-10,0.0,0.0,0.0,0.0,0.0,0.0,6.7365005581e-11
1583762851049870962,10,1583762846893629114,odom,0.000885780855598,-3.21277782575e-07,0.0,0.00419911239662,-0.0188625310441,-0.985842037941,0.167676701509,2.30188015848e-05,0.0,0.0,0.0,0.0,0.0,0.0,2.30188015848e-05,0.0,0.0,0.0,0.0,0.0,0.0,215000000.0,0.0,0.0,0.0,0.0,0.0,0.0,6.98491930962e-10,0.0,0.0,0.0,0.0,0.0,0.0,6.98491930962e-10,0.0,0.0,0.0,0.0,0.0,0.0,6.65221587159e-10
1583762851050062574,11,1583762846992629114,odom,0.00303773381775,-3.71182122044e-06,0.0,0.00413816705907,-0.0187404664849,-0.986246755518,0.165279572937,9.80100594461e-06,0.0,0.0,0.0,0.0,0.0,0.0,9.80100594461e-06,0.0,0.0,0.0,0.0,0.0,0.0,216000000.0,0.0,0.0,0.0,0.0,0.0,0.0,2.32830643654e-10,0.0,0.0,0.0,0.0,0.0,0.0,2.32830643654e-10,0.0,0.0,0.0,0.0,0.0,0.0,2.8324071435e-10
1583762851050195427,12,1583762847092629114,odom,0.0068974104534,-1.13678986126e-05,0.0,0.00419946698406,-0.0183744103867,-0.985220102373,0.171293169389,9.99984331429e-06,0.0,0.0,0.0,0.0,0.0,0.0,9.99984331429e-06,0.0,0.0,0.0,0.0,0.0,0.0,217000000.0,0.0,0.0,0.0,0.0,0.0,0.0,2.32830643654e-10,0.0,0.0,0.0,0.0,0.0,0.0,2.32830643654e-10,0.0,0.0,0.0,0.0,0.0,0.0,2.88991648012e-10
1583762851050387848,13,1583762847193629114,odom,0.0126578155618,-2.66292215496e-05,0.0,0.00432193530717,-0.0178253319069,-0.983192065707,0.182574264155,1.02010089904e-05,0.0,0.0,0.0,0.0,0.0,0.0,1.02010089904e-05,0.0,0.0,0.0,0.0,0.0,0.0,218000000.0,0.0,0.0,0.0,0.0,0.0,0.0,4.65661287308e-10,0.0,0.0,0.0,0.0,0.0,0.0,4.65661287308e-10,0.0,0.0,0.0,0.0,0.0,0.0,2.94800380276e-10
1583762851050575702,14,1583762847241850218,odom,0.0158522796311,-3.72800612404e-05,0.0,0.00431362693277,-0.0177500819137,-0.983147059192,0.182816465345,2.32539605349e-06,0.0,0.0,0.0,0.0,0.0,0.0,2.32539605349e-06,0.0,0.0,0.0,0.0,0.0,0.0,219000000.0,0.0,0.0,0.0,0.0,0.0,0.0,2.32830643654e-10,0.0,0.0,0.0,0.0,0.0,0.0,2.32830643654e-10,0.0,0.0,0.0,0.0,0.0,0.0,6.71985017387e-11
1583762851050618098,15,1583762847393629114,odom,0.029760159967,-8.57283962314e-05,0.0,0.00438376243719,-0.0167270079769,-0.98150512409,0.191435867552,2.3036962375e-05,0.0,0.0,0.0,0.0,0.0,0.0,2.3036962375e-05,0.0,0.0,0.0,0.0,0.0,0.0,220000000.0,0.0,0.0,0.0,0.0,0.0,0.0,6.98491930962e-10,0.0,0.0,0.0,0.0,0.0,0.0,6.98491930962e-10,0.0,0.0,0.0,0.0,0.0,0.0,6.65745241606e-10
1583762851050643926,16,1583762847493629114,odom,0.0411655716291,-0.000143615460201,0.0,0.00426182405694,-0.0161767505731,-0.982375067843,0.186920373636,9.99984331429e-06,0.0,0.0,0.0,0.0,0.0,0.0,9.99984331429e-06,0.0,0.0,0.0,0.0,0.0,0.0,221000000.0,0.0,0.0,0.0,0.0,0.0,0.0,2.32830643654e-10,0.0,0.0,0.0,0.0,0.0,0.0,2.32830643654e-10,0.0,0.0,0.0,0.0,0.0,0.0,2.88991648108e-10
1583762851050704561,17,1583762847541851012,odom,0.0471103413338,-0.000177670112748,0.0,0.00429590534164,-0.0160917354609,-0.982010387199,0.188826903359,2.32539605349e-06,0.0,0.0,0.0,0.0,0.0,0.0,2.32539605349e-06,0.0,0.0,0.0,0.0,0.0,0.0,222000000.0,0.0,0.0,0.0,0.0,0.0,0.0,0.0,0.0,0.0,0.0,0.0,0.0,0.0,0.0,0.0,0.0,0.0,0.0,0.0,0.0,6.7200714747e-11
1583762851050833945,18,1583762847693629114,odom,0.0697341073006,-0.000313256424637,0.0,0.00475082198345,-0.0151396565935,-0.977683606841,0.210082757301,2.30364967138e-05,0.0,0.0,0.0,0.0,0.0,0.0,2.30364967138e-05,0.0,0.0,0.0,0.0,0.0,0.0,223000000.0,0.0,0.0,0.0,0.0,0.0,0.0,6.98491930962e-10,0.0,0.0,0.0,0.0,0.0,0.0,6.98491930962e-10,0.0,0.0,0.0,0.0,0.0,0.0,6.65738276206e-10
1583762851050951748,19,1583762847792629114,odom,0.0867223231967,-0.000448842482611,0.0,0.00462905494759,-0.0147124086881,-0.9811651576,0.193170736686,9.80112235993e-06,0.0,0.0,0.0,0.0,0.0,0.0,9.80112235993e-06,0.0,0.0,0.0,0.0,0.0,0.0,224000000.0,0.0,0.0,0.0,0.0,0.0,0.0,2.32830643654e-10,0.0,0.0,0.0,0.0,0.0,0.0,2.32830643654e-10,0.0,0.0,0.0,0.0,0.0,0.0,2.8324071435e-10
1583762851051151885,20,1583762847841861483,odom,0.0956329946813,-0.000528843226566,0.0,0.00464784333768,-0.0147030265936,-0.981253301766,0.192722489018,2.42399983108e-06,0.0,0.0,0.0,0.0,0.0,0.0,2.42399983108e-06,0.0,0.0,0.0,0.0,0.0,0.0,225000000.0,0.0,0.0,0.0,0.0,0.0,0.0,0.0,0.0,0.0,0.0,0.0,0.0,0.0,0.0,0.0,0.0,0.0,0.0,0.0,0.0,7.00465516503e-11
1583762851051214231,21,1583762847993629114,odom,0.125338061263,-0.000793655708984,0.0,0.00505636594321,-0.0145905817628,-0.978178067299,0.207768305225,2.30334699154e-05,0.0,0.0,0.0,0.0,0.0,0.0,2.30334699154e-05,0.0,0.0,0.0,0.0,0.0,0.0,226000000.0,0.0,0.0,0.0,0.0,0.0,0.0,6.98491930962e-10,0.0,0.0,0.0,0.0,0.0,0.0,6.98491930962e-10,0.0,0.0,0.0,0.0,0.0,0.0,6.65646422246e-10
1583762851051503427,22,1583762848092629114,odom,0.145145137487,-0.000989551505339,0.0,0.00487282843645,-0.0152006978447,-0.981058284365,0.193712783986,9.80088952929e-06,0.0,0.0,0.0,0.0,0.0,0.0,9.80088952929e-06,0.0,0.0,0.0,0.0,0.0,0.0,227000000.0,0.0,0.0,0.0,0.0,0.0,0.0,2.32830643654e-10,0.0,0.0,0.0,0.0,0.0,0.0,2.32830643654e-10,0.0,0.0,0.0,0.0,0.0,0.0,2.8324071435e-10
1583762851051552693,23,1583762848141885052,odom,0.155056341847,-0.00108261723727,0.0,0.00484546024052,-0.0152462281427,-0.981709916583,0.190382876546,2.42609530687e-06,0.0,0.0,0.0,0.0,0.0,0.0,2.42609530687e-06,0.0,0.0,0.0,0.0,0.0,0.0,228000000.0,0.0,0.0,0.0,0.0,0.0,0.0,0.0,0.0,0.0,0.0,0.0,0.0,0.0,0.0,0.0,0.0,0.0,0.0,0.0,0.0,7.01136344464e-11
1583762851051714309,24,1583762848293629114,odom,0.185738909782,-0.00137565870471,0.0,0.00438389892758,-0.0161156743205,-0.989936131338,0.141514860954,2.30262521654e-05,0.0,0.0,0.0,0.0,0.0,0.0,2.30262521654e-05,0.0,0.0,0.0,0.0,0.0,0.0,229000000.0,0.0,0.0,0.0,0.0,0.0,0.0,6.98491930962e-10,0.0,0.0,0.0,0.0,0.0,0.0,6.98491930962e-10,0.0,0.0,0.0,0.0,0.0,0.0,6.65439693064e-10
1583762851051775249,25,1583762848392629114,odom,0.205770675022,-0.00157677759932,0.0,0.00420052629552,-0.0168487777974,-0.992963278136,0.118422667908,9.80088952929e-06,0.0,0.0,0.0,0.0,0.0,0.0,9.80088952929e-06,0.0,0.0,0.0,0.0,0.0,0.0,230000000.0,0.0,0.0,0.0,0.0,0.0,0.0,2.32830643654e-10,0.0,0.0,0.0,0.0,0.0,0.0,2.32830643654e-10,0.0,0.0,0.0,0.0,0.0,0.0,2.8324071435e-10
1583762851051840326,26,1583762848493629114,odom,0.226218832766,-0.00179056594594,0.0,0.0038948669678,-0.017519799706,-0.995387276321,0.095938366354,1.02010089904e-05,0.0,0.0,0.0,0.0,0.0,0.0,1.02010089904e-05,0.0,0.0,0.0,0.0,0.0,0.0,231000000.0,0.0,0.0,0.0,0.0,0.0,0.0,4.65661287308e-10,0.0,0.0,0.0,0.0,0.0,0.0,4.65661287308e-10,0.0,0.0,0.0,0.0,0.0,0.0,2.94800380276e-10
1583762851052153117,27,1583762848541867130,odom,0.235986779559,-0.00189279014865,0.0,0.0039780353021,-0.0175475664801,-0.995020453243,0.0996709467628,2.32690945268e-06,0.0,0.0,0.0,0.0,0.0,0.0,2.32690945268e-06,0.0,0.0,0.0,0.0,0.0,0.0,232000000.0,0.0,0.0,0.0,0.0,0.0,0.0,2.32830643654e-10,0.0,0.0,0.0,0.0,0.0,0.0,2.32830643654e-10,0.0,0.0,0.0,0.0,0.0,0.0,6.72456454259e-11
1583762851052225448,28,1583762848693629114,odom,0.266721476497,-0.0022165529832,0.0,0.00432134838684,-0.0185572874973,-0.993913600214,0.110162404248,2.30318401009e-05,0.0,0.0,0.0,0.0,0.0,0.0,2.30318401009e-05,0.0,0.0,0.0,0.0,0.0,0.0,233000000.0,0.0,0.0,0.0,0.0,0.0,0.0,6.98491930962e-10,0.0,0.0,0.0,0.0,0.0,0.0,6.98491930962e-10,0.0,0.0,0.0,0.0,0.0,0.0,6.6559688823e-10
1583762851052286123,29,1583762848793629114,odom,0.286971702053,-0.00243685789419,0.0,0.00438211005957,-0.0189233864968,-0.994133463076,0.108160332809,9.99995972961e-06,0.0,0.0,0.0,0.0,0.0,0.0,9.99995972961e-06,0.0,0.0,0.0,0.0,0.0,0.0,234000000.0,0.0,0.0,0.0,0.0,0.0,0.0,2.32830643654e-10,0.0,0.0,0.0,0.0,0.0,0.0,2.32830643654e-10,0.0,0.0,0.0,0.0,0.0,0.0,2.88991648108e-10
1583762851052458732,30,1583762848892629114,odom,0.307006220425,-0.00266016643913,0.0,0.00450404466221,-0.0194737435513,-0.993717553028,0.111917044295,9.80088952929e-06,0.0,0.0,0.0,0.0,0.0,0.0,9.80088952929e-06,0.0,0.0,0.0,0.0,0.0,0.0,235000000.0,0.0,0.0,0.0,0.0,0.0,0.0,2.32830643654e-10,0.0,0.0,0.0,0.0,0.0,0.0,2.32830643654e-10,0.0,0.0,0.0,0.0,0.0,0.0,2.8324071435e-10
1583762851052556578,31,1583762848999294006,odom,0.328605441666,-0.00290240584828,0.0,0.00468683211158,-0.0199009327491,-0.99304878442,0.117703490863,1.13773858175e-05,0.0,0.0,0.0,0.0,0.0,0.0,1.13773858175e-05,0.0,0.0,0.0,0.0,0.0,0.0,236000000.0,0.0,0.0,0.0,0.0,0.0,0.0,4.65661287308e-10,0.0,0.0,0.0,0.0,0.0,0.0,4.65661287308e-10,0.0,0.0,0.0,0.0,0.0,0.0,3.28797334203e-10
1583762851052781752,32,1583762849041857065,odom,0.337234618123,-0.00299958631513,0.0,0.00469202535027,-0.0199296050953,-0.993019934562,0.117946638627,1.81153882295e-06,0.0,0.0,0.0,0.0,0.0,0.0,1.81153882295e-06,0.0,0.0,0.0,0.0,0.0,0.0,237000000.0,0.0,0.0,0.0,0.0,0.0,0.0,0.0,0.0,0.0,0.0,0.0,0.0,0.0,0.0,0.0,0.0,0.0,0.0,0.0,0.0,5.23541313525e-11
1583762851052941447,33,1583762849199294006,odom,0.36914326224,-0.00335357913134,0.0,0.00486901825526,-0.0211212250757,-0.992943552983,0.118587944538,2.47864518315e-05,0.0,0.0,0.0,0.0,0.0,0.0,2.47864518315e-05,0.0,0.0,0.0,0.0,0.0,0.0,238000000.0,0.0,0.0,0.0,0.0,0.0,0.0,6.98491930962e-10,0.0,0.0,0.0,0.0,0.0,0.0,6.98491930962e-10,0.0,0.0,0.0,0.0,0.0,0.0,7.16305981123e-10
1583762851055795694,34,1583762849298294006,odom,0.389159820411,-0.00358281044205,0.0,0.00523484250801,-0.021609469179,-0.991228793525,0.1321570236,9.80088952929e-06,0.0,0.0,0.0,0.0,0.0,0.0,9.80088952929e-06,0.0,0.0,0.0,0.0,0.0,0.0,239000000.0,0.0,0.0,0.0,0.0,0.0,0.0,2.32830643654e-10,0.0,0.0,0.0,0.0,0.0,0.0,2.32830643654e-10,0.0,0.0,0.0,0.0,0.0,0.0,2.8324071435e-10
1583762851055840417,35,1583762849341868478,odom,0.397973206375,-0.00368501177212,0.0,0.00520621346965,-0.0216560060242,-0.991439254945,0.130568770208,1.89885031432e-06,0.0,0.0,0.0,0.0,0.0,0.0,1.89885031432e-06,0.0,0.0,0.0,0.0,0.0,0.0,240000000.0,0.0,0.0,0.0,0.0,0.0,0.0,0.0,0.0,0.0,0.0,0.0,0.0,0.0,0.0,0.0,0.0,0.0,0.0,0.0,0.0,5.48718444343e-11
1583762851055867896,36,1583762849499294006,odom,0.429892265658,-0.00405515184159,0.0,0.00492928935965,-0.0225257587525,-0.993233154988,0.11613741788,2.47829593718e-05,0.0,0.0,0.0,0.0,0.0,0.0,2.47829593718e-05,0.0,0.0,0.0,0.0,0.0,0.0,241000000.0,0.0,0.0,0.0,0.0,0.0,0.0,6.98491930962e-10,0.0,0.0,0.0,0.0,0.0,0.0,6.98491930962e-10,0.0,0.0,0.0,0.0,0.0,0.0,7.1620213113e-10
1583762851055923660,37,1583762849598294006,odom,0.449946003867,-0.00428088623447,0.0,0.004379507268,-0.0231354811132,-0.996421175592,0.0845271603227,9.80100594461e-06,0.0,0.0,0.0,0.0,0.0,0.0,9.80100594461e-06,0.0,0.0,0.0,0.0,0.0,0.0,242000000.0,0.0,0.0,0.0,0.0,0.0,0.0,2.32830643654e-10,0.0,0.0,0.0,0.0,0.0,0.0,2.32830643654e-10,0.0,0.0,0.0,0.0,0.0,0.0,2.8324071435e-10
1583762851055934388,38,1583762849641858362,odom,0.458775819585,-0.00438280295906,0.0,0.00434738587711,-0.0231675435222,-0.996559562379,0.082879663551,1.89780257642e-06,0.0,0.0,0.0,0.0,0.0,0.0,1.89780257642e-06,0.0,0.0,0.0,0.0,0.0,0.0,243000000.0,0.0,0.0,0.0,0.0,0.0,0.0,0.0,0.0,0.0,0.0,0.0,0.0,0.0,0.0,0.0,0.0,0.0,0.0,0.0,0.0,5.48463698835e-11
1583762851055975973,39,1583762849798294006,odom,0.490462662221,-0.00474647714826,0.0,0.00376829536379,-0.024294141103,-0.998673886055,0.0514827088717,2.44721304625e-05,0.0,0.0,0.0,0.0,0.0,0.0,2.44721304625e-05,0.0,0.0,0.0,0.0,0.0,0.0,244000000.0,0.0,0.0,0.0,0.0,0.0,0.0,6.98491930962e-10,0.0,0.0,0.0,0.0,0.0,0.0,6.98491930962e-10,0.0,0.0,0.0,0.0,0.0,0.0,7.07223560879e-10
1583762851056003712,40,1583762849898294006,odom,0.510678169626,-0.00498586654737,0.0,0.00382904921925,-0.0246601165807,-0.998874267083,0.047436257849,9.99995972961e-06,0.0,0.0,0.0,0.0,0.0,0.0,9.99995972961e-06,0.0,0.0,0.0,0.0,0.0,0.0,245000000.0,0.0,0.0,0.0,0.0,0.0,0.0,2.32830643654e-10,0.0,0.0,0.0,0.0,0.0,0.0,2.32830643654e-10,0.0,0.0,0.0,0.0,0.0,0.0,2.88991648108e-10
1583762851056025128,41,1583762849999294006,odom,0.531143370696,-0.00524122815048,0.0,0.00358481852104,-0.0250884726509,-0.999381552497,0.0351640800905,1.02010089904e-05,0.0,0.0,0.0,0.0,0.0,0.0,1.02010089904e-05,0.0,0.0,0.0,0.0,0.0,0.0,246000000.0,0.0,0.0,0.0,0.0,0.0,0.0,4.65661287308e-10,0.0,0.0,0.0,0.0,0.0,0.0,4.65661287308e-10,0.0,0.0,0.0,0.0,0.0,0.0,2.94800380276e-10
1583762851056129412,42,1583762850099294006,odom,0.551406797757,-0.00549659708619,0.0,0.00346251715206,-0.0253933639851,-0.999657516186,0.0261696452723,9.99984331429e-06,0.0,0.0,0.0,0.0,0.0,0.0,9.99984331429e-06,0.0,0.0,0.0,0.0,0.0,0.0,247000000.0,0.0,0.0,0.0,0.0,0.0,0.0,2.32830643654e-10,0.0,0.0,0.0,0.0,0.0,0.0,2.32830643654e-10,0.0,0.0,0.0,0.0,0.0,0.0,2.88991648108e-10
1583762851056183244,43,1583762850198294006,odom,0.571437753398,-0.00575775950093,0.0,0.00388976353073,-0.0253935928197,-0.999088243987,0.042692865053,9.80100594461e-06,0.0,0.0,0.0,0.0,0.0,0.0,9.80100594461e-06,0.0,0.0,0.0,0.0,0.0,0.0,248000000.0,0.0,0.0,0.0,0.0,0.0,0.0,2.32830643654e-10,0.0,0.0,0.0,0.0,0.0,0.0,2.32830643654e-10,0.0,0.0,0.0,0.0,0.0,0.0,2.8324071435e-10
1583762851056282464,44,1583762850299294006,odom,0.591902995122,-0.00602576221523,0.0,0.00395084607064,-0.0253326391912,-0.998917881734,0.0465087685527,1.02010089904e-05,0.0,0.0,0.0,0.0,0.0,0.0,1.02010089904e-05,0.0,0.0,0.0,0.0,0.0,0.0,249000000.0,0.0,0.0,0.0,0.0,0.0,0.0,4.65661287308e-10,0.0,0.0,0.0,0.0,0.0,0.0,4.65661287308e-10,0.0,0.0,0.0,0.0,0.0,0.0,2.94800380276e-10
1583762851056402162,45,1583762850399294006,odom,0.612166662138,-0.00628900438419,0.0,0.00425615664529,-0.0251497852086,-0.998428469306,0.0560409821386,9.99984331429e-06,0.0,0.0,0.0,0.0,0.0,0.0,9.99984331429e-06,0.0,0.0,0.0,0.0,0.0,0.0,250000000.0,0.0,0.0,0.0,0.0,0.0,0.0,2.32830643654e-10,0.0,0.0,0.0,0.0,0.0,0.0,2.32830643654e-10,0.0,0.0,0.0,0.0,0.0,0.0,2.88991648108e-10
1583762851056445955,46,1583762850441856901,odom,0.620782839058,-0.00640386144839,0.0,0.00427066471586,-0.0251353015733,-0.998412833077,0.0563188667151,1.81165523827e-06,0.0,0.0,0.0,0.0,0.0,0.0,1.81165523827e-06,0.0,0.0,0.0,0.0,0.0,0.0,251000000.0,0.0,0.0,0.0,0.0,0.0,0.0,0.0,0.0,0.0,0.0,0.0,0.0,0.0,0.0,0.0,0.0,0.0,0.0,0.0,0.0,5.23537279127e-11
1583762851056457781,47,1583762850541880412,odom,0.641031869902,-0.006675722887,0.0,0.00451871883741,-0.0248802723926,-0.99811259629,0.0614104643161,1.00046163425e-05,0.0,0.0,0.0,0.0,0.0,0.0,1.00046163425e-05,0.0,0.0,0.0,0.0,0.0,0.0,252000000.0,0.0,0.0,0.0,0.0,0.0,0.0,2.32830643654e-10,0.0,0.0,0.0,0.0,0.0,0.0,2.32830643654e-10,0.0,0.0,0.0,0.0,0.0,0.0,2.89127553794e-10
1583762851056614655,48,1583762850698294006,odom,0.672681157246,-0.00712016865085,0.0,0.00486680366393,-0.024355533687,-0.997493457571,0.0707587599033,2.44652619585e-05,0.0,0.0,0.0,0.0,0.0,0.0,2.44652619585e-05,0.0,0.0,0.0,0.0,0.0,0.0,253000000.0,0.0,0.0,0.0,0.0,0.0,0.0,6.98491930962e-10,0.0,0.0,0.0,0.0,0.0,0.0,6.98491930962e-10,0.0,0.0,0.0,0.0,0.0,0.0,7.07024205058e-10
1583762851056684627,49,1583762850741850846,odom,0.681481292441,-0.00725090329936,0.0,0.00488851424095,-0.024351928078,-0.997437261233,0.0715465575919,1.89710408449e-06,0.0,0.0,0.0,0.0,0.0,0.0,1.89710408449e-06,0.0,0.0,0.0,0.0,0.0,0.0,254000000.0,0.0,0.0,0.0,0.0,0.0,0.0,0.0,0.0,0.0,0.0,0.0,0.0,0.0,0.0,0.0,0.0,0.0,0.0,0.0,0.0,5.48274465898e-11
1583762851076358942,50,1583762850841870385,odom,0.701785922535,-0.00754739517609,0.0,0.00524737266448,-0.02426610472,-0.996421439188,0.0845240529518,1.00040342659e-05,0.0,0.0,0.0,0.0,0.0,0.0,1.00040342659e-05,0.0,0.0,0.0,0.0,0.0,0.0,255000000.0,0.0,0.0,0.0,0.0,0.0,0.0,2.32830643654e-10,0.0,0.0,0.0,0.0,0.0,0.0,2.32830643654e-10,0.0,0.0,0.0,0.0,0.0,0.0,2.89104591338e-10
1583762851176392391,51,1583762850998294006,odom,0.733440510302,-0.00802358567292,0.0,0.00572162197213,-0.023867954662,-0.994569232911,0.104077091368,2.44682887569e-05,0.0,0.0,0.0,0.0,0.0,0.0,2.44682887569e-05,0.0,0.0,0.0,0.0,0.0,0.0,256000000.0,0.0,0.0,0.0,0.0,0.0,0.0,6.98491930962e-10,0.0,0.0,0.0,0.0,0.0,0.0,6.98491930962e-10,0.0,0.0,0.0,0.0,0.0,0.0,7.07114856499e-10
1583762851276951510,52,1583762851041867072,odom,0.742256851121,-0.00815880914756,0.0,0.00573253350244,-0.0238570600857,-0.994551595191,0.104245501119,1.89861748368e-06,0.0,0.0,0.0,0.0,0.0,0.0,1.89861748368e-06,0.0,0.0,0.0,0.0,0.0,0.0,257000000.0,0.0,0.0,0.0,0.0,0.0,0.0,0.0,0.0,0.0,0.0,0.0,0.0,0.0,0.0,0.0,0.0,0.0,0.0,0.0,0.0,5.48683034411e-11
1583762851376408970,53,1583762851041867072,odom,0.69953893018,-0.00815880914756,0.0,0.00573253350244,-0.0238570600857,0.727325411204,0.686292755474,1.89861748368e-06,0.0,0.0,0.0,0.0,0.0,0.0,1.89861748368e-06,0.0,0.0,0.0,0.0,0.0,0.0,257000000.0,0.0,0.0,0.0,0.0,0.0,0.0,0.0,0.0,0.0,0.0,0.0,0.0,0.0,0.0,0.0,0.0,0.0,0.0,0.0,0.0,5.48683034411e-11
1583762851476740787,54,1583762851041867072,odom,0.659279485393,-0.00815880914756,0.0,0.00573253350244,-0.0238570600857,0.727409328222,0.68620381026,1.89861748368e-06,0.0,0.0,0.0,0.0,0.0,0.0,1.89861748368e-06,0.0,0.0,0.0,0.0,0.0,0.0,257000000.0,0.0,0.0,0.0,0.0,0.0,0.0,0.0,0.0,0.0,0.0,0.0,0.0,0.0,0.0,0.0,0.0,0.0,0.0,0.0,0.0,5.48683034411e-11
1583762851577824833,55,1583762851341854831,odom,0.802950632861,-0.0090994547864,0.0,0.00585468369619,-0.0236740775841,-0.99518552708,0.0980090133166,8.99926526472e-05,0.0,0.0,0.0,0.0,0.0,0.0,8.99926526472e-05,0.0,0.0,0.0,0.0,0.0,0.0,258000000.0,0.0,0.0,0.0,0.0,0.0,0.0,2.56113708019e-09,0.0,0.0,0.0,0.0,0.0,0.0,2.56113708019e-09,0.0,0.0,0.0,0.0,0.0,0.0,2.6007125848e-09
1583762851677078687,56,1583762851341854831,odom,0.756739699809,-0.0090994547864,0.0,0.00585468369619,-0.0236740775841,0.727323471941,0.686294810678,8.99926526472e-05,0.0,0.0,0.0,0.0,0.0,0.0,8.99926526472e-05,0.0,0.0,0.0,0.0,0.0,0.0,258000000.0,0.0,0.0,0.0,0.0,0.0,0.0,2.56113708019e-09,0.0,0.0,0.0,0.0,0.0,0.0,2.56113708019e-09,0.0,0.0,0.0,0.0,0.0,0.0,2.6007125848e-09
1583762851776983595,57,1583762851605005067,odom,0.856259935924,-0.00997642664959,0.0,0.00578285723853,-0.023562834152,-0.996398357301,0.0847957166777,1.13872811198e-05,0.0,0.0,0.0,0.0,0.0,0.0,1.13872811198e-05,0.0,0.0,0.0,0.0,0.0,0.0,260000000.0,0.0,0.0,0.0,0.0,0.0,0.0,4.65661287308e-10,0.0,0.0,0.0,0.0,0.0,0.0,4.65661287308e-10,0.0,0.0,0.0,0.0,0.0,0.0,3.29082030154e-10
1583762851876964636,58,1583762851705005067,odom,0.876526082838,-0.0103226039216,0.0,0.00578299863453,-0.0233798217278,-0.996526132707,0.0832806510027,9.99984331429e-06,0.0,0.0,0.0,0.0,0.0,0.0,9.99984331429e-06,0.0,0.0,0.0,0.0,0.0,0.0,261000000.0,0.0,0.0,0.0,0.0,0.0,0.0,2.32830643654e-10,0.0,0.0,0.0,0.0,0.0,0.0,2.32830643654e-10,0.0,0.0,0.0,0.0,0.0,0.0,2.88991648108e-10
1583762851977011617,59,1583762851741862008,odom,0.88399648894,-0.0104510256594,0.0,0.00578299864196,-0.0233798217259,-0.996526131888,0.0832806608018,1.3584503904e-06,0.0,0.0,0.0,0.0,0.0,0.0,1.3584503904e-06,0.0,0.0,0.0,0.0,0.0,0.0,262000000.0,0.0,0.0,0.0,0.0,0.0,0.0,0.0,0.0,0.0,0.0,0.0,0.0,0.0,0.0,0.0,0.0,0.0,0.0,0.0,0.0,3.92576109549e-11
1583762852076899242,60,1583762851741862008,odom,0.833121253406,-0.0104510256594,0.0,0.00578299864196,-0.0233798217259,0.727320886416,0.686297550763,1.3584503904e-06,0.0,0.0,0.0,0.0,0.0,0.0,1.3584503904e-06,0.0,0.0,0.0,0.0,0.0,0.0,262000000.0,0.0,0.0,0.0,0.0,0.0,0.0,0.0,0.0,0.0,0.0,0.0,0.0,0.0,0.0,0.0,0.0,0.0,0.0,0.0,0.0,3.92576109549e-11
1583762852176665709,61,1583762852005005067,odom,0.937300022831,-0.0113707170693,0.0,0.006027409961,-0.0230139159893,-0.995793012927,0.0916311923206,1.02010089904e-05,0.0,0.0,0.0,0.0,0.0,0.0,1.02010089904e-05,0.0,0.0,0.0,0.0,0.0,0.0,264000000.0,0.0,0.0,0.0,0.0,0.0,0.0,3.49245965481e-10,0.0,0.0,0.0,0.0,0.0,0.0,3.49245965481e-10,0.0,0.0,0.0,0.0,0.0,0.0,2.94800380276e-10
1583762852276660991,62,1583762852041848110,odom,0.944755725326,-0.011501475277,0.0,0.00602740994963,-0.0230139159923,-0.995793014393,0.0916311763866,1.35751906782e-06,0.0,0.0,0.0,0.0,0.0,0.0,1.35751906782e-06,0.0,0.0,0.0,0.0,0.0,0.0,265000000.0,0.0,0.0,0.0,0.0,0.0,0.0,0.0,0.0,0.0,0.0,0.0,0.0,0.0,0.0,0.0,0.0,0.0,0.0,0.0,0.0,3.92280101273e-11
1583762852376904645,63,1583762852041848110,odom,0.890383710675,-0.011501475277,0.0,0.00602740994963,-0.0230139159923,0.727317458584,0.686301183475,1.35751906782e-06,0.0,0.0,0.0,0.0,0.0,0.0,1.35751906782e-06,0.0,0.0,0.0,0.0,0.0,0.0,265000000.0,0.0,0.0,0.0,0.0,0.0,0.0,0.0,0.0,0.0,0.0,0.0,0.0,0.0,0.0,0.0,0.0,0.0,0.0,0.0,0.0,3.92280101273e-11
1583762852477309255,64,1583762852141877167,odom,0.96502129138,-0.0118549229019,0.0,0.00572234395946,-0.0228917535933,-0.99701753862,0.0771753048905,1.00056640804e-05,0.0,0.0,0.0,0.0,0.0,0.0,1.00056640804e-05,0.0,0.0,0.0,0.0,0.0,0.0,266000000.0,0.0,0.0,0.0,0.0,0.0,0.0,2.32830643654e-10,0.0,0.0,0.0,0.0,0.0,0.0,2.32830643654e-10,0.0,0.0,0.0,0.0,0.0,0.0,2.89159617218e-10
1583762852577542413,65,1583762852341860451,odom,1.00548444143,-0.0125607719761,0.0,0.00553915874104,-0.0230136972584,-0.997253792984,0.0740599242458,1.35833397508e-06,0.0,0.0,0.0,0.0,0.0,0.0,1.35833397508e-06,0.0,0.0,0.0,0.0,0.0,0.0,268000000.0,0.0,0.0,0.0,0.0,0.0,0.0,0.0,0.0,0.0,0.0,0.0,0.0,0.0,0.0,0.0,0.0,0.0,0.0,0.0,0.0,3.92542940967e-11
1583762852676905929,66,1583762852504005067,odom,1.03833206975,-0.0131223538452,0.0,0.00498971567219,-0.0231963892878,-0.999017384366,0.0443200376139,2.62910034508e-05,0.0,0.0,0.0,0.0,0.0,0.0,2.62910034508e-05,0.0,0.0,0.0,0.0,0.0,0.0,269000000.0,0.0,0.0,0.0,0.0,0.0,0.0,9.31322574615e-10,0.0,0.0,0.0,0.0,0.0,0.0,9.31322574615e-10,0.0,0.0,0.0,0.0,0.0,0.0,7.59784373031e-10
1583762852777085454,67,1583762852541855560,odom,1.04599643056,-0.013254074079,0.0,0.00498971570197,-0.0231963892814,-0.999017382528,0.0443200790397,1.4326069504e-06,0.0,0.0,0.0,0.0,0.0,0.0,1.4326069504e-06,0.0,0.0,0.0,0.0,0.0,0.0,270000000.0,0.0,0.0,0.0,0.0,0.0,0.0,0.0,0.0,0.0,0.0,0.0,0.0,0.0,0.0,0.0,0.0,0.0,0.0,0.0,0.0,4.14026722266e-11
1583762852876929158,68,1583762852641864948,odom,1.06626799311,-0.0136052461082,0.0,0.00505094114383,-0.0229524360489,-0.998703995378,0.0508952808734,1.00018223748e-05,0.0,0.0,0.0,0.0,0.0,0.0,1.00018223748e-05,0.0,0.0,0.0,0.0,0.0,0.0,271000000.0,0.0,0.0,0.0,0.0,0.0,0.0,2.32830643654e-10,0.0,0.0,0.0,0.0,0.0,0.0,2.32830643654e-10,0.0,0.0,0.0,0.0,0.0,0.0,2.89045911714e-10
1583762852976300918,69,1583762852741852627,odom,1.0864764727,-0.0139501699013,0.0,0.00474604229094,-0.0225862048598,-0.999610060347,0.0279235967096,9.99751500785e-06,0.0,0.0,0.0,0.0,0.0,0.0,9.99751500785e-06,0.0,0.0,0.0,0.0,0.0,0.0,272000000.0,0.0,0.0,0.0,0.0,0.0,0.0,2.32830643654e-10,0.0,0.0,0.0,0.0,0.0,0.0,2.32830643654e-10,0.0,0.0,0.0,0.0,0.0,0.0,2.88920439189e-10
1583762853076599056,70,1583762852841850868,odom,1.10675956959,-0.0143063600662,0.0,0.00456307594615,-0.022403079437,-0.999863604008,0.0165158523712,9.99961048365e-06,0.0,0.0,0.0,0.0,0.0,0.0,9.99961048365e-06,0.0,0.0,0.0,0.0,0.0,0.0,273000000.0,0.0,0.0,0.0,0.0,0.0,0.0,2.32830643654e-10,0.0,0.0,0.0,0.0,0.0,0.0,2.32830643654e-10,0.0,0.0,0.0,0.0,0.0,0.0,2.88981481472e-10
1583762853176262188,71,1583762853005005067,odom,1.13823372867,-0.0148572981878,0.0,0.00407489984929,-0.022280853636,-0.999995875945,0.00287194923441,2.66194110736e-05,0.0,0.0,0.0,0.0,0.0,0.0,2.66194110736e-05,0.0,0.0,0.0,0.0,0.0,0.0,274000000.0,0.0,0.0,0.0,0.0,0.0,0.0,9.31322574615e-10,0.0,0.0,0.0,0.0,0.0,0.0,9.31322574615e-10,0.0,0.0,0.0,0.0,0.0,0.0,7.69275325566e-10
1583762853276653571,72,1583762853104005067,odom,1.15482757563,-0.0151349079359,0.0,0.00376951683123,-0.0225858145771,-0.9999646721,0.00840562619858,9.80088952929e-06,0.0,0.0,0.0,0.0,0.0,0.0,9.80088952929e-06,0.0,0.0,0.0,0.0,0.0,0.0,275000000.0,0.0,0.0,0.0,0.0,0.0,0.0,2.32830643654e-10,0.0,0.0,0.0,0.0,0.0,0.0,2.32830643654e-10,0.0,0.0,0.0,0.0,0.0,0.0,2.8324071435e-10
1583762853376901767,73,1583762853141884916,odom,1.16083612632,-0.0152274825972,0.0,0.00376951689701,-0.0225858145661,-0.999964671339,0.00840571675072,1.43481884152e-06,0.0,0.0,0.0,0.0,0.0,0.0,1.43481884152e-06,0.0,0.0,0.0,0.0,0.0,0.0,276000000.0,0.0,0.0,0.0,0.0,0.0,0.0,0.0,0.0,0.0,0.0,0.0,0.0,0.0,0.0,0.0,0.0,0.0,0.0,0.0,0.0,4.14669191041e-11
1583762853476698589,74,1583762853241863745,odom,1.17400652398,-0.0154305432058,0.0,0.00346385414653,-0.0232567112068,-0.99999983496,0.000574525609962,9.9956523627e-06,0.0,0.0,0.0,0.0,0.0,0.0,9.9956523627e-06,0.0,0.0,0.0,0.0,0.0,0.0,277000000.0,0.0,0.0,0.0,0.0,0.0,0.0,2.32830643654e-10,0.0,0.0,0.0,0.0,0.0,0.0,2.32830643654e-10,0.0,0.0,0.0,0.0,0.0,0.0,2.88869296156e-10
1583762853578075467,75,1583762853341885242,odom,1.18437443378,-0.0155861761087,0.0,0.00297496449018,-0.0241104785457,-0.999908235505,-0.0135469763546,1.00043835118e-05,0.0,0.0,0.0,0.0,0.0,0.0,1.00043835118e-05,0.0,0.0,0.0,0.0,0.0,0.0,278000000.0,0.0,0.0,0.0,0.0,0.0,0.0,2.32830643654e-10,0.0,0.0,0.0,0.0,0.0,0.0,2.32830643654e-10,0.0,0.0,0.0,0.0,0.0,0.0,2.89115910635e-10
1583762853676959736,76,1583762853441880647,odom,1.1918934574,-0.0156950534953,0.0,0.00279134918467,-0.0248424605256,-0.999991392792,-0.00414901696885,9.99902840704e-06,0.0,0.0,0.0,0.0,0.0,0.0,9.99902840704e-06,0.0,0.0,0.0,0.0,0.0,0.0,279000000.0,0.0,0.0,0.0,0.0,0.0,0.0,2.32830643654e-10,0.0,0.0,0.0,0.0,0.0,0.0,2.32830643654e-10,0.0,0.0,0.0,0.0,0.0,0.0,2.88965090375e-10
1583762853778786837,77,1583762853541851014,odom,1.19655742496,-0.015755257957,0.0,0.0024857352148,-0.0256978751723,-0.9999951725,-0.00310724589885,9.9940225482e-06,0.0,0.0,0.0,0.0,0.0,0.0,9.9940225482e-06,0.0,0.0,0.0,0.0,0.0,0.0,280000000.0,0.0,0.0,0.0,0.0,0.0,0.0,2.32830643654e-10,0.0,0.0,0.0,0.0,0.0,0.0,2.32830643654e-10,0.0,0.0,0.0,0.0,0.0,0.0,2.88820399685e-10
1583762853876965788,78,1583762853704005067,odom,1.1992223277,-0.0157856463948,0.0,0.00266775272538,-0.027222921368,-0.999862961779,0.016554687042,2.62939138338e-05,0.0,0.0,0.0,0.0,0.0,0.0,2.62939138338e-05,0.0,0.0,0.0,0.0,0.0,0.0,281000000.0,0.0,0.0,0.0,0.0,0.0,0.0,9.31322574615e-10,0.0,0.0,0.0,0.0,0.0,0.0,9.31322574615e-10,0.0,0.0,0.0,0.0,0.0,0.0,7.59872816193e-10
1583762853976929300,79,1583762853704005067,odom,1.13020540383,-0.0157856463948,0.0,0.00266775272538,-0.027222921368,0.727359556594,0.686256566767,2.62939138338e-05,0.0,0.0,0.0,0.0,0.0,0.0,2.62939138338e-05,0.0,0.0,0.0,0.0,0.0,0.0,281000000.0,0.0,0.0,0.0,0.0,0.0,0.0,9.31322574615e-10,0.0,0.0,0.0,0.0,0.0,0.0,9.31322574615e-10,0.0,0.0,0.0,0.0,0.0,0.0,7.59872816193e-10
1583762854076777082,80,1583762853741852054,odom,1.19956637558,-0.0157889113468,0.0,0.00266775274867,-0.0272229213657,-0.99986296159,0.0165546984257,1.43225770444e-06,0.0,0.0,0.0,0.0,0.0,0.0,1.43225770444e-06,0.0,0.0,0.0,0.0,0.0,0.0,282000000.0,0.0,0.0,0.0,0.0,0.0,0.0,0.0,0.0,0.0,0.0,0.0,0.0,0.0,0.0,0.0,0.0,0.0,0.0,0.0,0.0,4.13950025493e-11
1583762854176378044,81,1583762854003005067,odom,1.20019961115,-0.015794747969,0.0,0.00278955685952,-0.027588957794,-0.999711510302,0.0240186629368,2.59649241343e-05,0.0,0.0,0.0,0.0,0.0,0.0,2.59649241343e-05,0.0,0.0,0.0,0.0,0.0,0.0,284000000.0,0.0,0.0,0.0,0.0,0.0,0.0,6.98491930962e-10,0.0,0.0,0.0,0.0,0.0,0.0,6.98491930962e-10,0.0,0.0,0.0,0.0,0.0,0.0,7.50364150647e-10
1583762854276853602,82,1583762854109508073,odom,1.20025786783,-0.0157952680026,0.0,0.00272870110447,-0.0273449704432,-0.999752775272,0.0222348450818,1.13429268822e-05,0.0,0.0,0.0,0.0,0.0,0.0,1.13429268822e-05,0.0,0.0,0.0,0.0,0.0,0.0,285000000.0,0.0,0.0,0.0,0.0,0.0,0.0,4.65661287308e-10,0.0,0.0,0.0,0.0,0.0,0.0,4.65661287308e-10,0.0,0.0,0.0,0.0,0.0,0.0,3.27800056001e-10
1583762854377208194,83,1583762854141861430,odom,1.20027026949,-0.0157953786961,0.0,0.00272870110519,-0.0273449704431,-0.999752775265,0.0222348454061,1.04669015855e-06,0.0,0.0,0.0,0.0,0.0,0.0,1.04669015855e-06,0.0,0.0,0.0,0.0,0.0,0.0,286000000.0,0.0,0.0,0.0,0.0,0.0,0.0,0.0,0.0,0.0,0.0,0.0,0.0,0.0,0.0,0.0,0.0,0.0,0.0,0.0,0.0,3.02499032341e-11
1583762854476593417,84,1583762854141861430,odom,1.1311930351,-0.0157953786961,0.0,0.00272870110519,-0.0273449704431,0.727360712405,0.686255341727,1.04669015855e-06,0.0,0.0,0.0,0.0,0.0,0.0,1.04669015855e-06,0.0,0.0,0.0,0.0,0.0,0.0,286000000.0,0.0,0.0,0.0,0.0,0.0,0.0,0.0,0.0,0.0,0.0,0.0,0.0,0.0,0.0,0.0,0.0,0.0,0.0,0.0,0.0,3.02499032341e-11
1583762854576551156,85,1583762854341886524,odom,1.20029398255,-0.0157955903922,0.0,0.00260716320415,-0.0266130193145,-0.999818694968,0.0190414598476,1.00068282336e-05,0.0,0.0,0.0,0.0,0.0,0.0,1.00068282336e-05,0.0,0.0,0.0,0.0,0.0,0.0,288000000.0,0.0,0.0,0.0,0.0,0.0,0.0,2.32830643654e-10,0.0,0.0,0.0,0.0,0.0,0.0,2.32830643654e-10,0.0,0.0,0.0,0.0,0.0,0.0,2.89191716916e-10
1583762854676660054,86,1583762854441892364,odom,1.2002967729,-0.0157956152734,0.0,0.00260738318613,-0.0263080563983,-0.999806819342,0.0196551264927,1.00012402982e-05,0.0,0.0,0.0,0.0,0.0,0.0,1.00012402982e-05,0.0,0.0,0.0,0.0,0.0,0.0,289000000.0,0.0,0.0,0.0,0.0,0.0,0.0,2.32830643654e-10,0.0,0.0,0.0,0.0,0.0,0.0,2.32830643654e-10,0.0,0.0,0.0,0.0,0.0,0.0,2.89025403315e-10
1583762854777094147,87,1583762854608508073,odom,1.20029818663,-0.015795627877,0.0,0.00254682882386,-0.0256370629487,-0.999856110414,0.0169634450445,2.77607468888e-05,0.0,0.0,0.0,0.0,0.0,0.0,2.77607468888e-05,0.0,0.0,0.0,0.0,0.0,0.0,290000000.0,0.0,0.0,0.0,0.0,0.0,0.0,9.31322574615e-10,0.0,0.0,0.0,0.0,0.0,0.0,9.31322574615e-10,0.0,0.0,0.0,0.0,0.0,0.0,8.02263775073e-10
1583762854876959056,88,1583762854641856026,odom,1.2002983355,-0.0157956292418,0.0,0.00254682882388,-0.0256370629487,-0.999856110414,0.0169634450521,1.11211556941e-06,0.0,0.0,0.0,0.0,0.0,0.0,1.11211556941e-06,0.0,0.0,0.0,0.0,0.0,0.0,291000000.0,0.0,0.0,0.0,0.0,0.0,0.0,0.0,0.0,0.0,0.0,0.0,0.0,0.0,0.0,0.0,0.0,0.0,0.0,0.0,0.0,3.21383556415e-11
1583762854976415038,89,1583762854741848373,odom,1.20029851409,-0.0157956308789,0.0,0.00254700383495,-0.0253930747101,-0.999848277209,0.0174190287105,9.99844633043e-06,0.0,0.0,0.0,0.0,0.0,0.0,9.99844633043e-06,0.0,0.0,0.0,0.0,0.0,0.0,292000000.0,0.0,0.0,0.0,0.0,0.0,0.0,2.32830643654e-10,0.0,0.0,0.0,0.0,0.0,0.0,2.32830643654e-10,0.0,0.0,0.0,0.0,0.0,0.0,2.88947416754e-10
1583762855076838643,90,1583762854909508073,odom,1.20029860477,-0.0157956377897,0.0,0.00248616373037,-0.0249035224318,-0.999888599679,0.0149260923017,2.8109876439e-05,0.0,0.0,0.0,0.0,0.0,0.0,2.8109876439e-05,0.0,0.0,0.0,0.0,0.0,0.0,293000000.0,0.0,0.0,0.0,0.0,0.0,0.0,9.31322574615e-10,0.0,0.0,0.0,0.0,0.0,0.0,9.31322574615e-10,0.0,0.0,0.0,0.0,0.0,0.0,8.12349020618e-10
1583762855176978174,91,1583762854909508073,odom,1.13121973965,-0.0157956377897,0.0,0.00248616373037,-0.0249035224318,0.727338203419,0.686279198175,2.8109876439e-05,0.0,0.0,0.0,0.0,0.0,0.0,2.8109876439e-05,0.0,0.0,0.0,0.0,0.0,0.0,293000000.0,0.0,0.0,0.0,0.0,0.0,0.0,9.31322574615e-10,0.0,0.0,0.0,0.0,0.0,0.0,9.31322574615e-10,0.0,0.0,0.0,0.0,0.0,0.0,8.12349020618e-10
1583762855277043295,92,1583762855041848705,odom,1.20029862552,-0.0157956319024,0.0,0.00248633853977,-0.0246595404106,-0.999868258637,0.0162316163706,1.1115334928e-06,0.0,0.0,0.0,0.0,0.0,0.0,1.1115334928e-06,0.0,0.0,0.0,0.0,0.0,0.0,295000000.0,0.0,0.0,0.0,0.0,0.0,0.0,0.0,0.0,0.0,0.0,0.0,0.0,0.0,0.0,0.0,0.0,0.0,0.0,0.0,0.0,3.21242464983e-11
1583762855376637586,93,1583762855041848705,odom,1.1312197592,-0.0157956319024,0.0,0.00248633853977,-0.0246595404106,0.72733605595,0.686281474116,1.1115334928e-06,0.0,0.0,0.0,0.0,0.0,0.0,1.1115334928e-06,0.0,0.0,0.0,0.0,0.0,0.0,295000000.0,0.0,0.0,0.0,0.0,0.0,0.0,0.0,0.0,0.0,0.0,0.0,0.0,0.0,0.0,0.0,0.0,0.0,0.0,0.0,0.0,3.21242464983e-11
1583762855476492661,94,1583762855308508073,odom,1.20029863241,-0.0157956321189,0.0,0.00242569445983,-0.0241105111992,-0.999906498922,0.013674553469,9.99984331429e-06,0.0,0.0,0.0,0.0,0.0,0.0,9.99984331429e-06,0.0,0.0,0.0,0.0,0.0,0.0,297000000.0,0.0,0.0,0.0,0.0,0.0,0.0,2.32830643654e-10,0.0,0.0,0.0,0.0,0.0,0.0,2.32830643654e-10,0.0,0.0,0.0,0.0,0.0,0.0,2.88991648012e-10
1583762855577070085,95,1583762855341876815,odom,1.20029863265,-0.0157956319678,0.0,0.00242569445983,-0.0241105111992,-0.999906498922,0.013674553469,1.11339613795e-06,0.0,0.0,0.0,0.0,0.0,0.0,1.11339613795e-06,0.0,0.0,0.0,0.0,0.0,0.0,298000000.0,0.0,0.0,0.0,0.0,0.0,0.0,0.0,0.0,0.0,0.0,0.0,0.0,0.0,0.0,0.0,0.0,0.0,0.0,0.0,0.0,3.2178438022e-11
1583762855677053777,96,1583762855341876815,odom,1.13121976593,-0.0157956319678,0.0,0.00242569445983,-0.0241105111992,0.727331336355,0.686286476011,1.11339613795e-06,0.0,0.0,0.0,0.0,0.0,0.0,1.11339613795e-06,0.0,0.0,0.0,0.0,0.0,0.0,298000000.0,0.0,0.0,0.0,0.0,0.0,0.0,0.0,0.0,0.0,0.0,0.0,0.0,0.0,0.0,0.0,0.0,0.0,0.0,0.0,0.0,3.2178438022e-11
1583762855778231420,97,1583762855541874637,odom,1.20029863306,-0.0157956319717,0.0,0.00248698914754,-0.0237445377596,-0.999872082404,0.0159943374099,1.11316330731e-06,0.0,0.0,0.0,0.0,0.0,0.0,1.11316330731e-06,0.0,0.0,0.0,0.0,0.0,0.0,300000000.0,0.0,0.0,0.0,0.0,0.0,0.0,0.0,0.0,0.0,0.0,0.0,0.0,0.0,0.0,0.0,0.0,0.0,0.0,0.0,0.0,3.21742375669e-11
1583762855876779631,98,1583762855641875525,odom,1.20029863311,-0.0157956319721,0.0,0.00254815485332,-0.0235615688225,-0.99981937543,0.0190056968793,1.00000761449e-05,0.0,0.0,0.0,0.0,0.0,0.0,1.00000761449e-05,0.0,0.0,0.0,0.0,0.0,0.0,301000000.0,0.0,0.0,0.0,0.0,0.0,0.0,2.32830643654e-10,0.0,0.0,0.0,0.0,0.0,0.0,2.32830643654e-10,0.0,0.0,0.0,0.0,0.0,0.0,2.88996780572e-10
1583762855976762990,99,1583762855808508073,odom,1.20029863313,-0.0157956319739,0.0,0.00260936447706,-0.0233175944999,-0.999754008685,0.0221793173334,2.77664512396e-05,0.0,0.0,0.0,0.0,0.0,0.0,2.77664512396e-05,0.0,0.0,0.0,0.0,0.0,0.0,302000000.0,0.0,0.0,0.0,0.0,0.0,0.0,9.31322574615e-10,0.0,0.0,0.0,0.0,0.0,0.0,9.31322574615e-10,0.0,0.0,0.0,0.0,0.0,0.0,8.02425944765e-10
1583762856076589925,100,1583762855841848576,odom,1.20029863314,-0.0157956319723,0.0,0.00260936447706,-0.0233175944999,-0.999754008685,0.0221793173334,1.11141707748e-06,0.0,0.0,0.0,0.0,0.0,0.0,1.11141707748e-06,0.0,0.0,0.0,0.0,0.0,0.0,303000000.0,0.0,0.0,0.0,0.0,0.0,0.0,0.0,0.0,0.0,0.0,0.0,0.0,0.0,0.0,0.0,0.0,0.0,0.0,0.0,0.0,3.21239977245e-11
1583762856176339526,101,1583762856007508073,odom,1.20029863314,-0.0157956319726,0.0,0.00267048749912,-0.0231956237726,-0.999683420428,0.0251606621848,2.74429330602e-05,0.0,0.0,0.0,0.0,0.0,0.0,2.74429330602e-05,0.0,0.0,0.0,0.0,0.0,0.0,304000000.0,0.0,0.0,0.0,0.0,0.0,0.0,9.31322574615e-10,0.0,0.0,0.0,0.0,0.0,0.0,9.31322574615e-10,0.0,0.0,0.0,0.0,0.0,0.0,7.93081772468e-10
1583762856276842078,102,1583762856109508073,odom,1.20029863314,-0.0157956319725,0.0,0.00273161008011,-0.0230736455539,-0.999631657569,0.0271394396776,1.04040373117e-05,0.0,0.0,0.0,0.0,0.0,0.0,1.04040373117e-05,0.0,0.0,0.0,0.0,0.0,0.0,305000000.0,0.0,0.0,0.0,0.0,0.0,0.0,3.49245965481e-10,0.0,0.0,0.0,0.0,0.0,0.0,3.49245965481e-10,0.0,0.0,0.0,0.0,0.0,0.0,3.00666910758e-10
1583762856377838157,103,1583762856141863865,odom,1.20029863314,-0.0157956319724,0.0,0.00273161008011,-0.0230736455539,-0.999631657569,0.0271394396776,1.04680657387e-06,0.0,0.0,0.0,0.0,0.0,0.0,1.04680657387e-06,0.0,0.0,0.0,0.0,0.0,0.0,306000000.0,0.0,0.0,0.0,0.0,0.0,0.0,0.0,0.0,0.0,0.0,0.0,0.0,0.0,0.0,0.0,0.0,0.0,0.0,0.0,0.0,3.02544568454e-11
1583762856476831455,104,1583762856141863865,odom,1.13121976638,-0.0157956319724,0.0,0.00273161008011,-0.0230736455539,0.727322402701,0.686295943838,1.04680657387e-06,0.0,0.0,0.0,0.0,0.0,0.0,1.04680657387e-06,0.0,0.0,0.0,0.0,0.0,0.0,306000000.0,0.0,0.0,0.0,0.0,0.0,0.0,0.0,0.0,0.0,0.0,0.0,0.0,0.0,0.0,0.0,0.0,0.0,0.0,0.0,0.0,3.02544568454e-11
1583762856576384153,105,1583762856141863865,odom,1.06611648512,-0.0157956319724,0.0,0.00273161008011,-0.0230736455539,0.727405482669,0.68620788671,1.04680657387e-06,0.0,0.0,0.0,0.0,0.0,0.0,1.04680657387e-06,0.0,0.0,0.0,0.0,0.0,0.0,306000000.0,0.0,0.0,0.0,0.0,0.0,0.0,0.0,0.0,0.0,0.0,0.0,0.0,0.0,0.0,0.0,0.0,0.0,0.0,0.0,0.0,3.02544568454e-11
1583762856676659849,106,1583762856441845569,odom,1.20029863314,-0.0157956319724,0.0,0.00279277829493,-0.0228906743119,-0.999508282533,0.0313559108981,8.99889273569e-05,0.0,0.0,0.0,0.0,0.0,0.0,8.99889273569e-05,0.0,0.0,0.0,0.0,0.0,0.0,307000000.0,0.0,0.0,0.0,0.0,0.0,0.0,2.56113708019e-09,0.0,0.0,0.0,0.0,0.0,0.0,2.56113708019e-09,0.0,0.0,0.0,0.0,0.0,0.0,2.60060759949e-09
1583762856776803336,107,1583762856441845569,odom,1.13121976639,-0.0157956319724,0.0,0.00279277829493,-0.0228906743119,0.727320868098,0.686297570176,8.99889273569e-05,0.0,0.0,0.0,0.0,0.0,0.0,8.99889273569e-05,0.0,0.0,0.0,0.0,0.0,0.0,307000000.0,0.0,0.0,0.0,0.0,0.0,0.0,2.56113708019e-09,0.0,0.0,0.0,0.0,0.0,0.0,2.56113708019e-09,0.0,0.0,0.0,0.0,0.0,0.0,2.60060759949e-09
1583762856876773823,108,1583762856541854010,odom,1.20029863314,-0.0157956319724,0.0,0.00285377180841,-0.0227063087867,-0.999401674443,0.034587470566,1.00017059594e-05,0.0,0.0,0.0,0.0,0.0,0.0,1.00017059594e-05,0.0,0.0,0.0,0.0,0.0,0.0,308000000.0,0.0,0.0,0.0,0.0,0.0,0.0,2.32830643654e-10,0.0,0.0,0.0,0.0,0.0,0.0,2.32830643654e-10,0.0,0.0,0.0,0.0,0.0,0.0,2.89040437884e-10
1583762856976688515,109,1583762856641857264,odom,1.20029863314,-0.0157956319724,0.0,0.00291489154244,-0.0225843339396,-0.999328724188,0.0366346968512,1.00005418062e-05,0.0,0.0,0.0,0.0,0.0,0.0,1.00005418062e-05,0.0,0.0,0.0,0.0,0.0,0.0,309000000.0,0.0,0.0,0.0,0.0,0.0,0.0,2.32830643654e-10,0.0,0.0,0.0,0.0,0.0,0.0,2.32830643654e-10,0.0,0.0,0.0,0.0,0.0,0.0,2.89010456128e-10
1583762857076703592,110,1583762856641857264,odom,1.13121976639,-0.0157956319724,0.0,0.00291489154244,-0.0225843339396,0.727318295597,0.686300296437,1.00005418062e-05,0.0,0.0,0.0,0.0,0.0,0.0,1.00005418062e-05,0.0,0.0,0.0,0.0,0.0,0.0,309000000.0,0.0,0.0,0.0,0.0,0.0,0.0,2.32830643654e-10,0.0,0.0,0.0,0.0,0.0,0.0,2.32830643654e-10,0.0,0.0,0.0,0.0,0.0,0.0,2.89010456128e-10
1583762857176223788,111,1583762856741871858,odom,1.20029863314,-0.0157956319724,0.0,0.00285381478983,-0.0226453004424,-0.999433021477,0.033669505212,1.00027536973e-05,0.0,0.0,0.0,0.0,0.0,0.0,1.00027536973e-05,0.0,0.0,0.0,0.0,0.0,0.0,310000000.0,0.0,0.0,0.0,0.0,0.0,0.0,2.32830643654e-10,0.0,0.0,0.0,0.0,0.0,0.0,2.32830643654e-10,0.0,0.0,0.0,0.0,0.0,0.0,2.89076005138e-10
1583762857276672916,112,1583762856941849965,odom,1.20029863314,-0.0157956319724,0.0,0.0027317050061,-0.0227062306936,-0.999610310994,0.0279146225975,3.99913406e-05,0.0,0.0,0.0,0.0,0.0,0.0,3.99913406e-05,0.0,0.0,0.0,0.0,0.0,0.0,311000000.0,0.0,0.0,0.0,0.0,0.0,0.0,1.16415321827e-09,0.0,0.0,0.0,0.0,0.0,0.0,1.16415321827e-09,0.0,0.0,0.0,0.0,0.0,0.0,1.15571353063e-09
1583762857376720433,113,1583762856941849965,odom,1.13121976639,-0.0157956319724,0.0,0.0027317050061,-0.0227062306936,0.72731941196,0.686299113351,3.99913406e-05,0.0,0.0,0.0,0.0,0.0,0.0,3.99913406e-05,0.0,0.0,0.0,0.0,0.0,0.0,311000000.0,0.0,0.0,0.0,0.0,0.0,0.0,1.16415321827e-09,0.0,0.0,0.0,0.0,0.0,0.0,1.16415321827e-09,0.0,0.0,0.0,0.0,0.0,0.0,1.15571353063e-09
1583762857476666495,114,1583762857141857638,odom,1.20029863314,-0.0157956319724,0.0,0.00273174784221,-0.0226452222611,-0.999636595288,0.0269569538692,4.00030985475e-05,0.0,0.0,0.0,0.0,0.0,0.0,4.00030985475e-05,0.0,0.0,0.0,0.0,0.0,0.0,312000000.0,0.0,0.0,0.0,0.0,0.0,0.0,1.16415321827e-09,0.0,0.0,0.0,0.0,0.0,0.0,1.16415321827e-09,0.0,0.0,0.0,0.0,0.0,0.0,1.1560552917e-09
1583762857576417711,115,1583762857241859716,odom,1.20029863314,-0.0157956319724,0.0,0.00285381402718,-0.0226452940685,-0.999468972519,0.032584858027,1.00004253909e-05,0.0,0.0,0.0,0.0,0.0,0.0,1.00004253909e-05,0.0,0.0,0.0,0.0,0.0,0.0,313000000.0,0.0,0.0,0.0,0.0,0.0,0.0,1.16415321827e-10,0.0,0.0,0.0,0.0,0.0,0.0,1.16415321827e-10,0.0,0.0,0.0,0.0,0.0,0.0,2.89003658768e-10
1583762857676631091,116,1583762857513428007,odom,1.20029863314,-0.0157956319724,0.0,0.0029758351413,-0.0227063610612,-0.999316584369,0.0369643639946,2.94391065836e-05,0.0,0.0,0.0,0.0,0.0,0.0,2.94391065836e-05,0.0,0.0,0.0,0.0,0.0,0.0,315000000.0,0.0,0.0,0.0,0.0,0.0,0.0,8.14907252789e-10,0.0,0.0,0.0,0.0,0.0,0.0,8.14907252789e-10,0.0,0.0,0.0,0.0,0.0,0.0,8.50767832401e-10
1583762857776662013,117,1583762857613428007,odom,1.20029863314,-0.0157956319724,0.0,0.00303700921197,-0.0227687876454,-0.999215079747,0.039613437198,1.00000761449e-05,0.0,0.0,0.0,0.0,0.0,0.0,1.00000761449e-05,0.0,0.0,0.0,0.0,0.0,0.0,316000000.0,0.0,0.0,0.0,0.0,0.0,0.0,3.49245965481e-10,0.0,0.0,0.0,0.0,0.0,0.0,3.49245965481e-10,0.0,0.0,0.0,0.0,0.0,0.0,2.88991648012e-10
1583762857876539822,118,1583762857641848667,odom,1.20029863314,-0.0157956319724,0.0,0.00303700921197,-0.0227687876454,-0.999215079747,0.039613437198,8.07689502835e-07,0.0,0.0,0.0,0.0,0.0,0.0,8.07689502835e-07,0.0,0.0,0.0,0.0,0.0,0.0,317000000.0,0.0,0.0,0.0,0.0,0.0,0.0,0.0,0.0,0.0,0.0,0.0,0.0,0.0,0.0,0.0,0.0,0.0,0.0,0.0,0.0,2.33428354938e-11
1583762857977689865,119,1583762857741902350,odom,1.20029863314,-0.0157956319724,0.0,0.00309790000686,-0.0227064256099,-0.999139678096,0.0414717211506,1.00109027699e-05,0.0,0.0,0.0,0.0,0.0,0.0,1.00109027699e-05,0.0,0.0,0.0,0.0,0.0,0.0,318000000.0,0.0,0.0,0.0,0.0,0.0,0.0,2.32830643654e-10,0.0,0.0,0.0,0.0,0.0,0.0,2.32830643654e-10,0.0,0.0,0.0,0.0,0.0,0.0,2.8930201014e-10
1583762858076771613,120,1583762857913428007,odom,1.20029863314,-0.0157956319724,0.0,0.00315908127006,-0.022768851986,-0.999026612133,0.0441115432709,2.94210622087e-05,0.0,0.0,0.0,0.0,0.0,0.0,2.94210622087e-05,0.0,0.0,0.0,0.0,0.0,0.0,319000000.0,0.0,0.0,0.0,0.0,0.0,0.0,9.31322574615e-10,0.0,0.0,0.0,0.0,0.0,0.0,9.31322574615e-10,0.0,0.0,0.0,0.0,0.0,0.0,8.50243802227e-10
1583762858176524550,121,1583762858013428007,odom,1.20029863314,-0.0157956319724,0.0,0.00315912455631,-0.0227078399453,-0.99906817549,0.0431599435129,9.99984331429e-06,0.0,0.0,0.0,0.0,0.0,0.0,9.99984331429e-06,0.0,0.0,0.0,0.0,0.0,0.0,320000000.0,0.0,0.0,0.0,0.0,0.0,0.0,2.32830643654e-10,0.0,0.0,0.0,0.0,0.0,0.0,2.32830643654e-10,0.0,0.0,0.0,0.0,0.0,0.0,2.88991648012e-10
1583762858276743665,122,1583762858112428007,odom,1.20029863314,-0.0157956319724,0.0,0.00322011664671,-0.0227688806542,-0.998950668946,0.0457991376868,9.80100594461e-06,0.0,0.0,0.0,0.0,0.0,0.0,9.80100594461e-06,0.0,0.0,0.0,0.0,0.0,0.0,321000000.0,0.0,0.0,0.0,0.0,0.0,0.0,2.32830643654e-10,0.0,0.0,0.0,0.0,0.0,0.0,2.32830643654e-10,0.0,0.0,0.0,0.0,0.0,0.0,2.8324071435e-10
1583762858376343138,123,1583762858213428007,odom,1.20029863314,-0.0157956319724,0.0,0.00322011664671,-0.0227688806542,-0.998950668946,0.0457991376868,1.02010089904e-05,0.0,0.0,0.0,0.0,0.0,0.0,1.02010089904e-05,0.0,0.0,0.0,0.0,0.0,0.0,322000000.0,0.0,0.0,0.0,0.0,0.0,0.0,4.65661287308e-10,0.0,0.0,0.0,0.0,0.0,0.0,4.65661287308e-10,0.0,0.0,0.0,0.0,0.0,0.0,2.94800380276e-10
1583762858477546320,124,1583762858313428007,odom,1.20029863314,-0.0157956319724,0.0,0.00322016090132,-0.0227078752898,-0.998942943674,0.0459673284485,9.99984331429e-06,0.0,0.0,0.0,0.0,0.0,0.0,9.99984331429e-06,0.0,0.0,0.0,0.0,0.0,0.0,323000000.0,0.0,0.0,0.0,0.0,0.0,0.0,2.32830643654e-10,0.0,0.0,0.0,0.0,0.0,0.0,2.32830643654e-10,0.0,0.0,0.0,0.0,0.0,0.0,2.88991648108e-10
1583762858577299632,125,1583762858413428007,odom,1.20029863314,-0.0157956319724,0.0,0.00322016090132,-0.0227078752898,-0.998942943674,0.0459673284485,9.99984331429e-06,0.0,0.0,0.0,0.0,0.0,0.0,9.99984331429e-06,0.0,0.0,0.0,0.0,0.0,0.0,324000000.0,0.0,0.0,0.0,0.0,0.0,0.0,2.32830643654e-10,0.0,0.0,0.0,0.0,0.0,0.0,2.32830643654e-10,0.0,0.0,0.0,0.0,0.0,0.0,2.88991648012e-10
1583762858676919776,126,1583762858513428007,odom,1.20029863314,-0.0157956319724,0.0,0.00322016090132,-0.0227078752898,-0.998942943674,0.0459673284485,9.99984331429e-06,0.0,0.0,0.0,0.0,0.0,0.0,9.99984331429e-06,0.0,0.0,0.0,0.0,0.0,0.0,325000000.0,0.0,0.0,0.0,0.0,0.0,0.0,2.32830643654e-10,0.0,0.0,0.0,0.0,0.0,0.0,2.32830643654e-10,0.0,0.0,0.0,0.0,0.0,0.0,2.88991648012e-10
1583762858776627316,127,1583762858613428007,odom,1.20029863314,-0.0157956319724,0.0,0.00322016090132,-0.0227078752898,-0.998942943674,0.0459673284485,9.99984331429e-06,0.0,0.0,0.0,0.0,0.0,0.0,9.99984331429e-06,0.0,0.0,0.0,0.0,0.0,0.0,326000000.0,0.0,0.0,0.0,0.0,0.0,0.0,2.32830643654e-10,0.0,0.0,0.0,0.0,0.0,0.0,2.32830643654e-10,0.0,0.0,0.0,0.0,0.0,0.0,2.88991648012e-10
1583762858876708087,128,1583762858713428007,odom,1.20029863314,-0.0157956319724,0.0,0.00315912455631,-0.0227078399453,-0.99906817549,0.0431599435129,9.99984331429e-06,0.0,0.0,0.0,0.0,0.0,0.0,9.99984331429e-06,0.0,0.0,0.0,0.0,0.0,0.0,327000000.0,0.0,0.0,0.0,0.0,0.0,0.0,2.32830643654e-10,0.0,0.0,0.0,0.0,0.0,0.0,2.32830643654e-10,0.0,0.0,0.0,0.0,0.0,0.0,2.88991648012e-10
1583762858976730067,129,1583762858812428007,odom,1.20029863314,-0.0157956319724,0.0,0.00322016090132,-0.0227078752898,-0.998942943674,0.0459673284484,9.80100594461e-06,0.0,0.0,0.0,0.0,0.0,0.0,9.80100594461e-06,0.0,0.0,0.0,0.0,0.0,0.0,328000000.0,0.0,0.0,0.0,0.0,0.0,0.0,2.32830643654e-10,0.0,0.0,0.0,0.0,0.0,0.0,2.32830643654e-10,0.0,0.0,0.0,0.0,0.0,0.0,2.8324071435e-10
1583762859076688332,130,1583762858852428007,odom,1.20029863314,-0.0157956319724,0.0,0.00322016090132,-0.0227078752898,-0.998942943674,0.0459673284484,1.60001218319e-06,0.0,0.0,0.0,0.0,0.0,0.0,1.60001218319e-06,0.0,0.0,0.0,0.0,0.0,0.0,329000000.0,0.0,0.0,0.0,0.0,0.0,0.0,0.0,0.0,0.0,0.0,0.0,0.0,0.0,0.0,0.0,0.0,0.0,0.0,0.0,0.0,4.62386637128e-11
1583762859179705602,131,1583762859013428007,odom,1.20029863314,-0.0157956319724,0.0,0.00322016090132,-0.0227078752898,-0.998942943674,0.0459673284484,2.59209191427e-05,0.0,0.0,0.0,0.0,0.0,0.0,2.59209191427e-05,0.0,0.0,0.0,0.0,0.0,0.0,330000000.0,0.0,0.0,0.0,0.0,0.0,0.0,6.98491930962e-10,0.0,0.0,0.0,0.0,0.0,0.0,6.98491930962e-10,0.0,0.0,0.0,0.0,0.0,0.0,7.4909525108e-10
1583762859276726659,132,1583762859053428007,odom,1.20029863314,-0.0157956319724,0.0,0.00322016090132,-0.0227078752898,-0.998942943674,0.0459673284484,1.60001218319e-06,0.0,0.0,0.0,0.0,0.0,0.0,1.60001218319e-06,0.0,0.0,0.0,0.0,0.0,0.0,331000000.0,0.0,0.0,0.0,0.0,0.0,0.0,0.0,0.0,0.0,0.0,0.0,0.0,0.0,0.0,0.0,0.0,0.0,0.0,0.0,0.0,4.62386637128e-11
1583762859376864272,133,1583762859216889921,odom,1.20029863314,-0.0157956319724,0.0,0.00315912455631,-0.0227078399453,-0.99906817549,0.0431599435129,2.6719761081e-05,0.0,0.0,0.0,0.0,0.0,0.0,2.6719761081e-05,0.0,0.0,0.0,0.0,0.0,0.0,332000000.0,0.0,0.0,0.0,0.0,0.0,0.0,9.31322574615e-10,0.0,0.0,0.0,0.0,0.0,0.0,9.31322574615e-10,0.0,0.0,0.0,0.0,0.0,0.0,7.72179826767e-10
1583762859476902167,134,1583762859256889921,odom,1.20029863314,-0.0157956319724,0.0,0.00315912455631,-0.0227078399453,-0.99906817549,0.0431599435129,1.59989576787e-06,0.0,0.0,0.0,0.0,0.0,0.0,1.59989576787e-06,0.0,0.0,0.0,0.0,0.0,0.0,333000000.0,0.0,0.0,0.0,0.0,0.0,0.0,0.0,0.0,0.0,0.0,0.0,0.0,0.0,0.0,0.0,0.0,0.0,0.0,0.0,0.0,4.62386636156e-11
1583762859576253250,135,1583762859417889921,odom,1.20029863314,-0.0157956319724,0.0,0.00322016090132,-0.0227078752898,-0.998942943674,0.0459673284484,2.5921035558e-05,0.0,0.0,0.0,0.0,0.0,0.0,2.5921035558e-05,0.0,0.0,0.0,0.0,0.0,0.0,334000000.0,0.0,0.0,0.0,0.0,0.0,0.0,6.98491930962e-10,0.0,0.0,0.0,0.0,0.0,0.0,6.98491930962e-10,0.0,0.0,0.0,0.0,0.0,0.0,7.4909525108e-10
1583762859676670659,136,1583762859516889921,odom,1.20029863314,-0.0157956319724,0.0,0.00315912455631,-0.0227078399453,-0.99906817549,0.0431599435129,9.80088952929e-06,0.0,0.0,0.0,0.0,0.0,0.0,9.80088952929e-06,0.0,0.0,0.0,0.0,0.0,0.0,335000000.0,0.0,0.0,0.0,0.0,0.0,0.0,2.32830643654e-10,0.0,0.0,0.0,0.0,0.0,0.0,2.32830643654e-10,0.0,0.0,0.0,0.0,0.0,0.0,2.8324071435e-10
1583762859777088034,137,1583762859541850413,odom,1.20029863314,-0.0157956319724,0.0,0.00315912455631,-0.0227078399453,-0.99906817549,0.0431599435129,6.22938387096e-07,0.0,0.0,0.0,0.0,0.0,0.0,6.22938387096e-07,0.0,0.0,0.0,0.0,0.0,0.0,336000000.0,0.0,0.0,0.0,0.0,0.0,0.0,0.0,0.0,0.0,0.0,0.0,0.0,0.0,0.0,0.0,0.0,0.0,0.0,0.0,0.0,1.80049357308e-11
1583762859876670007,138,1583762859717889921,odom,1.20029863314,-0.0157956319724,0.0,0.00321996620921,-0.0227065029413,-0.998838462829,0.0481842834642,3.09898750857e-05,0.0,0.0,0.0,0.0,0.0,0.0,3.09898750857e-05,0.0,0.0,0.0,0.0,0.0,0.0,337000000.0,0.0,0.0,0.0,0.0,0.0,0.0,9.31322574615e-10,0.0,0.0,0.0,0.0,0.0,0.0,9.31322574615e-10,0.0,0.0,0.0,0.0,0.0,0.0,8.95582469635e-10
1583762859976437538,139,1583762859757889921,odom,1.20029863314,-0.0157956319724,0.0,0.00321996620921,-0.0227065029413,-0.998838462829,0.0481842834642,1.59989576787e-06,0.0,0.0,0.0,0.0,0.0,0.0,1.59989576787e-06,0.0,0.0,0.0,0.0,0.0,0.0,338000000.0,0.0,0.0,0.0,0.0,0.0,0.0,0.0,0.0,0.0,0.0,0.0,0.0,0.0,0.0,0.0,0.0,0.0,0.0,0.0,0.0,4.62386637128e-11
1583762860076858329,140,1583762859841822899,odom,1.20029863314,-0.0157956319724,0.0,0.00321996620921,-0.0227065029413,-0.998838462829,0.0481842834642,7.04475678504e-06,0.0,0.0,0.0,0.0,0.0,0.0,7.04475678504e-06,0.0,0.0,0.0,0.0,0.0,0.0,339000000.0,0.0,0.0,0.0,0.0,0.0,0.0,2.32830643654e-10,0.0,0.0,0.0,0.0,0.0,0.0,2.32830643654e-10,0.0,0.0,0.0,0.0,0.0,0.0,2.03587240942e-10
1583762860176702760,141,1583762859956889921,odom,1.20029863314,-0.0157956319724,0.0,0.00322000955934,-0.0226454944631,-0.998882705332,0.04725823726,1.32403802127e-05,0.0,0.0,0.0,0.0,0.0,0.0,1.32403802127e-05,0.0,0.0,0.0,0.0,0.0,0.0,340000000.0,0.0,0.0,0.0,0.0,0.0,0.0,4.65661287308e-10,0.0,0.0,0.0,0.0,0.0,0.0,4.65661287308e-10,0.0,0.0,0.0,0.0,0.0,0.0,3.82637066807e-10
1583762860276651798,142,1583762860056889921,odom,1.20029863314,-0.0157956319724,0.0,0.00315897683618,-0.0226454591082,-0.999011843469,0.0444447590779,9.99984331429e-06,0.0,0.0,0.0,0.0,0.0,0.0,9.99984331429e-06,0.0,0.0,0.0,0.0,0.0,0.0,341000000.0,0.0,0.0,0.0,0.0,0.0,0.0,2.32830643654e-10,0.0,0.0,0.0,0.0,0.0,0.0,2.32830643654e-10,0.0,0.0,0.0,0.0,0.0,0.0,2.88991648108e-10
1583762860378153507,143,1583762860141850171,odom,1.20029863314,-0.0157956319724,0.0,0.00309794493199,-0.0226454302119,-0.99908620833,0.0427404764147,7.21821561456e-06,0.0,0.0,0.0,0.0,0.0,0.0,7.21821561456e-06,0.0,0.0,0.0,0.0,0.0,0.0,342000000.0,0.0,0.0,0.0,0.0,0.0,0.0,2.32830643654e-10,0.0,0.0,0.0,0.0,0.0,0.0,2.32830643654e-10,0.0,0.0,0.0,0.0,0.0,0.0,2.08601225316e-10
1583762860476971958,144,1583762860257889921,odom,1.20029863314,-0.0157956319724,0.0,0.00297587904327,-0.0226453590797,-0.999311054217,0.0371135678671,1.34650617838e-05,0.0,0.0,0.0,0.0,0.0,0.0,1.34650617838e-05,0.0,0.0,0.0,0.0,0.0,0.0,343000000.0,0.0,0.0,0.0,0.0,0.0,0.0,4.65661287308e-10,0.0,0.0,0.0,0.0,0.0,0.0,4.65661287308e-10,0.0,0.0,0.0,0.0,0.0,0.0,3.89133715365e-10
1583762860577041743,145,1583762860356889921,odom,1.20029863314,-0.0157956319724,0.0,0.00285376952083,-0.0227062896136,-0.999508438918,0.0313509255318,9.80100594461e-06,0.0,0.0,0.0,0.0,0.0,0.0,9.80100594461e-06,0.0,0.0,0.0,0.0,0.0,0.0,344000000.0,0.0,0.0,0.0,0.0,0.0,0.0,2.32830643654e-10,0.0,0.0,0.0,0.0,0.0,0.0,2.32830643654e-10,0.0,0.0,0.0,0.0,0.0,0.0,2.83240714252e-10
1583762860676758096,146,1583762860456889921,odom,1.20029863314,-0.0157956319724,0.0,0.00279278031088,-0.0226452517489,-0.999588949232,0.0286693664443,9.99984331429e-06,0.0,0.0,0.0,0.0,0.0,0.0,9.99984331429e-06,0.0,0.0,0.0,0.0,0.0,0.0,345000000.0,0.0,0.0,0.0,0.0,0.0,0.0,2.32830643654e-10,0.0,0.0,0.0,0.0,0.0,0.0,2.32830643654e-10,0.0,0.0,0.0,0.0,0.0,0.0,2.88991648012e-10
1583762860778140774,147,1583762860557889921,odom,1.20029863314,-0.0157956319724,0.0,0.00273174710371,-0.0226452158031,-0.999665733001,0.0258538635935,1.02010089904e-05,0.0,0.0,0.0,0.0,0.0,0.0,1.02010089904e-05,0.0,0.0,0.0,0.0,0.0,0.0,346000000.0,0.0,0.0,0.0,0.0,0.0,0.0,4.65661287308e-10,0.0,0.0,0.0,0.0,0.0,0.0,4.65661287308e-10,0.0,0.0,0.0,0.0,0.0,0.0,2.94800380276e-10
1583762860876964746,148,1583762860656889921,odom,1.20029863314,-0.0157956319724,0.0,0.00267075756863,-0.0225841774856,-0.999732041744,0.0231483198335,9.80100594461e-06,0.0,0.0,0.0,0.0,0.0,0.0,9.80100594461e-06,0.0,0.0,0.0,0.0,0.0,0.0,347000000.0,0.0,0.0,0.0,0.0,0.0,0.0,2.32830643654e-10,0.0,0.0,0.0,0.0,0.0,0.0,2.32830643654e-10,0.0,0.0,0.0,0.0,0.0,0.0,2.83240714252e-10
1583762860976356262,149,1583762860741877593,odom,1.20029863314,-0.0157956319724,0.0,0.00260968106379,-0.0226451436586,-0.999795511506,0.0202221456141,7.22287222743e-06,0.0,0.0,0.0,0.0,0.0,0.0,7.22287222743e-06,0.0,0.0,0.0,0.0,0.0,0.0,348000000.0,0.0,0.0,0.0,0.0,0.0,0.0,2.32830643654e-10,0.0,0.0,0.0,0.0,0.0,0.0,2.32830643654e-10,0.0,0.0,0.0,0.0,0.0,0.0,2.08735904433e-10
1583762861076924809,150,1583762860857889921,odom,1.20029863314,-0.0157956319724,0.0,0.00267075756863,-0.0225841774856,-0.999732041744,0.0231483198335,1.34590081871e-05,0.0,0.0,0.0,0.0,0.0,0.0,1.34590081871e-05,0.0,0.0,0.0,0.0,0.0,0.0,349000000.0,0.0,0.0,0.0,0.0,0.0,0.0,4.65661287308e-10,0.0,0.0,0.0,0.0,0.0,0.0,4.65661287308e-10,0.0,0.0,0.0,0.0,0.0,0.0,3.88949820542e-10
1583762861176400784,151,1583762860956889921,odom,1.20029863314,-0.0157956319724,0.0,0.00260968035037,-0.0226451371165,-0.999817561952,0.0191008589425,9.80088952929e-06,0.0,0.0,0.0,0.0,0.0,0.0,9.80088952929e-06,0.0,0.0,0.0,0.0,0.0,0.0,350000000.0,0.0,0.0,0.0,0.0,0.0,0.0,2.32830643654e-10,0.0,0.0,0.0,0.0,0.0,0.0,2.32830643654e-10,0.0,0.0,0.0,0.0,0.0,0.0,2.83240714252e-10
1583762861276771714,152,1583762861056889921,odom,1.20029863314,-0.0157956319724,0.0,0.0024875716804,-0.0227060732403,-0.999894824872,0.0145030753411,9.99995972961e-06,0.0,0.0,0.0,0.0,0.0,0.0,9.99995972961e-06,0.0,0.0,0.0,0.0,0.0,0.0,351000000.0,0.0,0.0,0.0,0.0,0.0,0.0,2.32830643654e-10,0.0,0.0,0.0,0.0,0.0,0.0,2.32830643654e-10,0.0,0.0,0.0,0.0,0.0,0.0,2.88991648012e-10
1583762861376225829,153,1583762861156889921,odom,1.20029863314,-0.0157956319724,0.0,0.00242653864414,-0.022706036882,-0.999931614612,0.0116947039214,9.99995972961e-06,0.0,0.0,0.0,0.0,0.0,0.0,9.99995972961e-06,0.0,0.0,0.0,0.0,0.0,0.0,352000000.0,0.0,0.0,0.0,0.0,0.0,0.0,2.32830643654e-10,0.0,0.0,0.0,0.0,0.0,0.0,2.32830643654e-10,0.0,0.0,0.0,0.0,0.0,0.0,2.88991648012e-10
1583762861476739361,154,1583762861256889921,odom,1.20029863314,-0.0157956319724,0.0,0.00236550534783,-0.0227060004389,-0.999960515302,0.00888638497539,9.99995972961e-06,0.0,0.0,0.0,0.0,0.0,0.0,9.99995972961e-06,0.0,0.0,0.0,0.0,0.0,0.0,353000000.0,0.0,0.0,0.0,0.0,0.0,0.0,2.32830643654e-10,0.0,0.0,0.0,0.0,0.0,0.0,2.32830643654e-10,0.0,0.0,0.0,0.0,0.0,0.0,2.88991648012e-10
1583762861577266616,155,1583762861357889921,odom,1.20029863314,-0.0157956319724,0.0,0.00236554776236,-0.0226449918154,-0.999969329039,0.00783204838826,1.02010089904e-05,0.0,0.0,0.0,0.0,0.0,0.0,1.02010089904e-05,0.0,0.0,0.0,0.0,0.0,0.0,354000000.0,0.0,0.0,0.0,0.0,0.0,0.0,4.65661287308e-10,0.0,0.0,0.0,0.0,0.0,0.0,4.65661287308e-10,0.0,0.0,0.0,0.0,0.0,0.0,2.94800380276e-10
1583762861676642500,156,1583762861457889921,odom,1.20029863314,-0.0157956319724,0.0,0.00236554776236,-0.0226449918154,-0.999969329039,0.00783204838826,9.99984331429e-06,0.0,0.0,0.0,0.0,0.0,0.0,9.99984331429e-06,0.0,0.0,0.0,0.0,0.0,0.0,355000000.0,0.0,0.0,0.0,0.0,0.0,0.0,2.32830643654e-10,0.0,0.0,0.0,0.0,0.0,0.0,2.32830643654e-10,0.0,0.0,0.0,0.0,0.0,0.0,2.88991648108e-10
1583762861776950812,157,1583762861556889921,odom,1.20029863314,-0.0157956319724,0.0,0.002365504705,-0.0227059938797,-0.999969837468,0.00776686259046,9.80100594461e-06,0.0,0.0,0.0,0.0,0.0,0.0,9.80100594461e-06,0.0,0.0,0.0,0.0,0.0,0.0,356000000.0,0.0,0.0,0.0,0.0,0.0,0.0,2.32830643654e-10,0.0,0.0,0.0,0.0,0.0,0.0,2.32830643654e-10,0.0,0.0,0.0,0.0,0.0,0.0,2.8324071435e-10
1583762861876917359,158,1583762861641856378,odom,1.20029863314,-0.0157956319724,0.0,0.00242653798369,-0.0227060303226,-0.999944070835,0.0105761619407,7.21937976778e-06,0.0,0.0,0.0,0.0,0.0,0.0,7.21937976778e-06,0.0,0.0,0.0,0.0,0.0,0.0,357000000.0,0.0,0.0,0.0,0.0,0.0,0.0,2.32830643654e-10,0.0,0.0,0.0,0.0,0.0,0.0,2.32830643654e-10,0.0,0.0,0.0,0.0,0.0,0.0,2.0863170637e-10
1583762861976354668,159,1583762861762181926,odom,1.20029863314,-0.0157956319724,0.0,0.00248757100234,-0.0227060666808,-0.999910409219,0.0133855719219,1.4478340745e-05,0.0,0.0,0.0,0.0,0.0,0.0,1.4478340745e-05,0.0,0.0,0.0,0.0,0.0,0.0,358000000.0,0.0,0.0,0.0,0.0,0.0,0.0,4.65661287308e-10,0.0,0.0,0.0,0.0,0.0,0.0,4.65661287308e-10,0.0,0.0,0.0,0.0,0.0,0.0,4.18408971761e-10
1583762862076740771,160,1583762861862181926,odom,1.20029863314,-0.0157956319724,0.0,0.00254860399307,-0.0227061029543,-0.99986885179,0.0161950369133,9.99984331429e-06,0.0,0.0,0.0,0.0,0.0,0.0,9.99984331429e-06,0.0,0.0,0.0,0.0,0.0,0.0,359000000.0,0.0,0.0,0.0,0.0,0.0,0.0,2.32830643654e-10,0.0,0.0,0.0,0.0,0.0,0.0,2.32830643654e-10,0.0,0.0,0.0,0.0,0.0,0.0,2.88991648012e-10
1583762862176867967,161,1583762861962181926,odom,1.20029382554,-0.0157955819961,0.0,0.00267066996446,-0.0227061752387,-0.999762047889,0.0218139313369,9.99984331429e-06,0.0,0.0,0.0,0.0,0.0,0.0,9.99984331429e-06,0.0,0.0,0.0,0.0,0.0,0.0,360000000.0,0.0,0.0,0.0,0.0,0.0,0.0,2.32830643654e-10,0.0,0.0,0.0,0.0,0.0,0.0,2.32830643654e-10,0.0,0.0,0.0,0.0,0.0,0.0,2.88991648012e-10
1583762862276971398,162,1583762862062181926,odom,1.20025777005,-0.0157951950564,0.0,0.00273170361313,-0.0227062111686,-0.999696788281,0.0246237994807,9.99984331429e-06,0.0,0.0,0.0,0.0,0.0,0.0,9.99984331429e-06,0.0,0.0,0.0,0.0,0.0,0.0,361000000.0,0.0,0.0,0.0,0.0,0.0,0.0,2.32830643654e-10,0.0,0.0,0.0,0.0,0.0,0.0,2.32830643654e-10,0.0,0.0,0.0,0.0,0.0,0.0,2.88991648012e-10
