%time,field.header.seq,field.header.stamp,field.header.frame_id,field.pose.pose.position.x,field.pose.pose.position.y,field.pose.pose.position.z,field.pose.pose.orientation.x,field.pose.pose.orientation.y,field.pose.pose.orientation.z,field.pose.pose.orientation.w,field.pose.covariance0,field.pose.covariance1,field.pose.covariance2,field.pose.covariance3,field.pose.covariance4,field.pose.covariance5,field.pose.covariance6,field.pose.covariance7,field.pose.covariance8,field.pose.covariance9,field.pose.covariance10,field.pose.covariance11,field.pose.covariance12,field.pose.covariance13,field.pose.covariance14,field.pose.covariance15,field.pose.covariance16,field.pose.covariance17,field.pose.covariance18,field.pose.covariance19,field.pose.covariance20,field.pose.covariance21,field.pose.covariance22,field.pose.covariance23,field.pose.covariance24,field.pose.covariance25,field.pose.covariance26,field.pose.covariance27,field.pose.covariance28,field.pose.covariance29,field.pose.covariance30,field.pose.covariance31,field.pose.covariance32,field.pose.covariance33,field.pose.covariance34,field.pose.covariance35
1583762851048810017,196,1583762845089366024,odom,0.0,0.0,0.0,0.00438230445487,-0.0187406140107,0.000205354307022,0.999814754154,2.17601191252e-05,0.0,0.0,0.0,0.0,0.0,0.0,2.17601191252e-05,0.0,0.0,0.0,0.0,0.0,0.0,197000000.0,0.0,0.0,0.0,0.0,0.0,0.0,6.98491930962e-10,0.0,0.0,0.0,0.0,0.0,0.0,6.98491930962e-10,0.0,0.0,0.0,0.0,0.0,0.0,6.28850905011e-10
1583762851048867928,197,1583762845189366024,odom,0.0,0.0,0.0,0.00438230445487,-0.0187406140107,0.000205354307022,0.999814754154,1.00000761449e-05,0.0,0.0,0.0,0.0,0.0,0.0,1.00000761449e-05,0.0,0.0,0.0,0.0,0.0,0.0,198000000.0,0.0,0.0,0.0,0.0,0.0,0.0,2.32830643654e-10,0.0,0.0,0.0,0.0,0.0,0.0,2.32830643654e-10,0.0,0.0,0.0,0.0,0.0,0.0,2.88991648108e-10
1583762851048991562,198,1583762845289366024,odom,0.0,0.0,0.0,0.00444329338365,-0.0188016621858,0.000144320882242,0.999813349488,9.99984331429e-06,0.0,0.0,0.0,0.0,0.0,0.0,9.99984331429e-06,0.0,0.0,0.0,0.0,0.0,0.0,199000000.0,0.0,0.0,0.0,0.0,0.0,0.0,2.32830643654e-10,0.0,0.0,0.0,0.0,0.0,0.0,2.32830643654e-10,0.0,0.0,0.0,0.0,0.0,0.0,2.88991648012e-10
1583762851049695760,199,1583762845389366024,odom,0.0,0.0,0.0,0.0043823044961,-0.0187406140379,0.000144321045648,0.999814764826,9.99984331429e-06,0.0,0.0,0.0,0.0,0.0,0.0,9.99984331429e-06,0.0,0.0,0.0,0.0,0.0,0.0,200000000.0,0.0,0.0,0.0,0.0,0.0,0.0,2.32830643654e-10,0.0,0.0,0.0,0.0,0.0,0.0,2.32830643654e-10,0.0,0.0,0.0,0.0,0.0,0.0,2.88991648012e-10
1583762851049752504,200,1583762845489366024,odom,0.0,0.0,0.0,0.00438221485319,-0.018862640693,0.000144320729882,0.999812470492,9.99984331429e-06,0.0,0.0,0.0,0.0,0.0,0.0,9.99984331429e-06,0.0,0.0,0.0,0.0,0.0,0.0,201000000.0,0.0,0.0,0.0,0.0,0.0,0.0,2.32830643654e-10,0.0,0.0,0.0,0.0,0.0,0.0,2.32830643654e-10,0.0,0.0,0.0,0.0,0.0,0.0,2.88991648012e-10
1583762851049795777,201,1583762845589366024,odom,0.0,0.0,0.0,0.00432118117335,-0.0188626059238,0.000144320735028,0.999812736798,9.99984331429e-06,0.0,0.0,0.0,0.0,0.0,0.0,9.99984331429e-06,0.0,0.0,0.0,0.0,0.0,0.0,202000000.0,0.0,0.0,0.0,0.0,0.0,0.0,2.32830643654e-10,0.0,0.0,0.0,0.0,0.0,0.0,2.32830643654e-10,0.0,0.0,0.0,0.0,0.0,0.0,2.88991648012e-10
1583762851049862506,202,1583762845689366024,odom,0.0,0.0,0.0,0.00432118117335,-0.0188626059238,0.000144320735027,0.999812736798,9.99984331429e-06,0.0,0.0,0.0,0.0,0.0,0.0,9.99984331429e-06,0.0,0.0,0.0,0.0,0.0,0.0,203000000.0,0.0,0.0,0.0,0.0,0.0,0.0,2.32830643654e-10,0.0,0.0,0.0,0.0,0.0,0.0,2.32830643654e-10,0.0,0.0,0.0,0.0,0.0,0.0,2.88991648012e-10
1583762851050092703,203,1583762845741883007,odom,0.0,0.0,0.0,0.00430823273167,-0.0188625985385,0.00014432073605,0.999812792816,2.7579953894e-06,0.0,0.0,0.0,0.0,0.0,0.0,2.7579953894e-06,0.0,0.0,0.0,0.0,0.0,0.0,204000000.0,0.0,0.0,0.0,0.0,0.0,0.0,0.0,0.0,0.0,0.0,0.0,0.0,0.0,0.0,0.0,0.0,0.0,0.0,0.0,0.0,7.97048647468e-11
1583762851050099159,204,1583762845889366024,odom,0.0,0.0,0.0,0.00426014744514,-0.0188625710844,0.000144320739636,0.999812999379,2.17513879761e-05,0.0,0.0,0.0,0.0,0.0,0.0,2.17513879761e-05,0.0,0.0,0.0,0.0,0.0,0.0,205000000.0,0.0,0.0,0.0,0.0,0.0,0.0,6.98491930962e-10,0.0,0.0,0.0,0.0,0.0,0.0,6.98491930962e-10,0.0,0.0,0.0,0.0,0.0,0.0,6.28592678468e-10
1583762851050281708,205,1583762845989366024,odom,0.0,0.0,0.0,0.00426019215969,-0.018801557787,8.32876737065e-05,0.999814155356,9.99984331429e-06,0.0,0.0,0.0,0.0,0.0,0.0,9.99984331429e-06,0.0,0.0,0.0,0.0,0.0,0.0,206000000.0,0.0,0.0,0.0,0.0,0.0,0.0,2.32830643654e-10,0.0,0.0,0.0,0.0,0.0,0.0,2.32830643654e-10,0.0,0.0,0.0,0.0,0.0,0.0,2.88991648108e-10
1583762851050408014,206,1583762846088366024,odom,0.0,0.0,0.0,0.00419911322903,-0.0188625361319,8.32875737555e-05,0.999813265186,9.80100594461e-06,0.0,0.0,0.0,0.0,0.0,0.0,9.80100594461e-06,0.0,0.0,0.0,0.0,0.0,0.0,207000000.0,0.0,0.0,0.0,0.0,0.0,0.0,2.32830643654e-10,0.0,0.0,0.0,0.0,0.0,0.0,2.32830643654e-10,0.0,0.0,0.0,0.0,0.0,0.0,2.8324071435e-10
1583762851050462982,207,1583762846141850013,odom,0.0,0.0,0.0,0.004185611911,-0.0188760153066,9.67788606598e-05,0.999813066194,2.86044087261e-06,0.0,0.0,0.0,0.0,0.0,0.0,2.86044087261e-06,0.0,0.0,0.0,0.0,0.0,0.0,208000000.0,0.0,0.0,0.0,0.0,0.0,0.0,0.0,0.0,0.0,0.0,0.0,0.0,0.0,0.0,0.0,0.0,0.0,0.0,0.0,0.0,8.26671324329e-11
1583762851050511616,208,1583762846289366024,odom,0.0,0.0,0.0,0.00407700104314,-0.0189234791927,8.32874605001e-05,0.999812618975,2.17609340325e-05,0.0,0.0,0.0,0.0,0.0,0.0,2.17609340325e-05,0.0,0.0,0.0,0.0,0.0,0.0,209000000.0,0.0,0.0,0.0,0.0,0.0,0.0,6.98491930962e-10,0.0,0.0,0.0,0.0,0.0,0.0,6.98491930962e-10,0.0,0.0,0.0,0.0,0.0,0.0,6.28873959604e-10
1583762851050684736,209,1583762846341856325,odom,0.0,0.0,0.0,0.00407700104314,-0.0189234791927,8.32874605001e-05,0.999812618975,2.75520142168e-06,0.0,0.0,0.0,0.0,0.0,0.0,2.75520142168e-06,0.0,0.0,0.0,0.0,0.0,0.0,210000000.0,0.0,0.0,0.0,0.0,0.0,0.0,2.32830643654e-10,0.0,0.0,0.0,0.0,0.0,0.0,2.32830643654e-10,0.0,0.0,0.0,0.0,0.0,0.0,7.96238949476e-11
1583762851050757016,210,1583762846493629114,odom,0.0,0.0,0.0,0.00407700105375,-0.0189234790798,2.22543301385e-05,0.999812622198,2.30348668993e-05,0.0,0.0,0.0,0.0,0.0,0.0,2.30348668993e-05,0.0,0.0,0.0,0.0,0.0,0.0,211000000.0,0.0,0.0,0.0,0.0,0.0,0.0,6.98491930962e-10,0.0,0.0,0.0,0.0,0.0,0.0,6.98491930962e-10,0.0,0.0,0.0,0.0,0.0,0.0,6.6569166851e-10
1583762851050835192,211,1583762846592629114,odom,0.0,0.0,0.0,0.00407704554755,-0.0188624659893,2.225434862e-05,0.999813774951,9.80100594461e-06,0.0,0.0,0.0,0.0,0.0,0.0,9.80100594461e-06,0.0,0.0,0.0,0.0,0.0,0.0,212000000.0,0.0,0.0,0.0,0.0,0.0,0.0,2.32830643654e-10,0.0,0.0,0.0,0.0,0.0,0.0,2.32830643654e-10,0.0,0.0,0.0,0.0,0.0,0.0,2.8324071435e-10
1583762851051082221,212,1583762846693629114,odom,0.0,0.0,0.0,0.00407704554287,-0.0188624658064,-3.87788512898e-05,0.99981377445,1.02010089904e-05,0.0,0.0,0.0,0.0,0.0,0.0,1.02010089904e-05,0.0,0.0,0.0,0.0,0.0,0.0,213000000.0,0.0,0.0,0.0,0.0,0.0,0.0,4.65661287308e-10,0.0,0.0,0.0,0.0,0.0,0.0,4.65661287308e-10,0.0,0.0,0.0,0.0,0.0,0.0,2.94800380276e-10
1583762851051142398,213,1583762846741909922,odom,0.0,0.0,0.0,0.00408546904115,-0.0188624706774,-3.03554439906e-05,0.999813740264,2.33086757362e-06,0.0,0.0,0.0,0.0,0.0,0.0,2.33086757362e-06,0.0,0.0,0.0,0.0,0.0,0.0,214000000.0,0.0,0.0,0.0,0.0,0.0,0.0,2.32830643654e-10,0.0,0.0,0.0,0.0,0.0,0.0,2.32830643654e-10,0.0,0.0,0.0,0.0,0.0,0.0,6.7365005581e-11
1583762851051387971,214,1583762846893629114,odom,0.000939871793112,-3.21277782575e-07,0.0,0.00419911239662,-0.0188625310441,-0.000588081383219,0.999813095802,2.30188015848e-05,0.0,0.0,0.0,0.0,0.0,0.0,2.30188015848e-05,0.0,0.0,0.0,0.0,0.0,0.0,215000000.0,0.0,0.0,0.0,0.0,0.0,0.0,6.98491930962e-10,0.0,0.0,0.0,0.0,0.0,0.0,6.98491930962e-10,0.0,0.0,0.0,0.0,0.0,0.0,6.65221587159e-10
1583762851051626311,215,1583762846992629114,odom,0.00322323553533,-3.71182122044e-06,0.0,0.00413816705907,-0.0187404664849,-0.000771187346022,0.999815520863,9.80100594461e-06,0.0,0.0,0.0,0.0,0.0,0.0,9.80100594461e-06,0.0,0.0,0.0,0.0,0.0,0.0,216000000.0,0.0,0.0,0.0,0.0,0.0,0.0,2.32830643654e-10,0.0,0.0,0.0,0.0,0.0,0.0,2.32830643654e-10,0.0,0.0,0.0,0.0,0.0,0.0,2.8324071435e-10
1583762851051815656,216,1583762847092629114,odom,0.00731860650374,-1.13678986126e-05,0.0,0.00419946698406,-0.0183744103867,-0.00107636577164,0.999821777597,9.99984331429e-06,0.0,0.0,0.0,0.0,0.0,0.0,9.99984331429e-06,0.0,0.0,0.0,0.0,0.0,0.0,217000000.0,0.0,0.0,0.0,0.0,0.0,0.0,2.32830643654e-10,0.0,0.0,0.0,0.0,0.0,0.0,2.32830643654e-10,0.0,0.0,0.0,0.0,0.0,0.0,2.88991648012e-10
1583762851051936541,217,1583762847193629114,odom,0.0134307754946,-2.66292215496e-05,0.0,0.00432193530717,-0.0178253319069,-0.00138155249111,0.999830820554,1.02010089904e-05,0.0,0.0,0.0,0.0,0.0,0.0,1.02010089904e-05,0.0,0.0,0.0,0.0,0.0,0.0,218000000.0,0.0,0.0,0.0,0.0,0.0,0.0,4.65661287308e-10,0.0,0.0,0.0,0.0,0.0,0.0,4.65661287308e-10,0.0,0.0,0.0,0.0,0.0,0.0,2.94800380276e-10
1583762851052253701,218,1583762847241850218,odom,0.0168203121433,-3.72800612404e-05,0.0,0.00431362693277,-0.0177500819137,-0.00141500902808,0.999832148395,2.32539605349e-06,0.0,0.0,0.0,0.0,0.0,0.0,2.32539605349e-06,0.0,0.0,0.0,0.0,0.0,0.0,219000000.0,0.0,0.0,0.0,0.0,0.0,0.0,2.32830643654e-10,0.0,0.0,0.0,0.0,0.0,0.0,2.32830643654e-10,0.0,0.0,0.0,0.0,0.0,0.0,6.71985017387e-11
1583762851052376696,219,1583762847393629114,odom,0.0315774886471,-8.57283962314e-05,0.0,0.00438376243719,-0.0167270079769,-0.00223608159212,0.999847983331,2.3036962375e-05,0.0,0.0,0.0,0.0,0.0,0.0,2.3036962375e-05,0.0,0.0,0.0,0.0,0.0,0.0,220000000.0,0.0,0.0,0.0,0.0,0.0,0.0,6.98491930962e-10,0.0,0.0,0.0,0.0,0.0,0.0,6.98491930962e-10,0.0,0.0,0.0,0.0,0.0,0.0,6.65745241606e-10
1583762851052612873,220,1583762847493629114,odom,0.0436793811663,-0.000143615460201,0.0,0.00426182405694,-0.0161767505731,-0.00254112143592,0.999856835901,9.99984331429e-06,0.0,0.0,0.0,0.0,0.0,0.0,9.99984331429e-06,0.0,0.0,0.0,0.0,0.0,0.0,221000000.0,0.0,0.0,0.0,0.0,0.0,0.0,2.32830643654e-10,0.0,0.0,0.0,0.0,0.0,0.0,2.32830643654e-10,0.0,0.0,0.0,0.0,0.0,0.0,2.88991648108e-10
1583762851052687051,221,1583762847541851012,odom,0.0499871731295,-0.000177670112748,0.0,0.00429590534164,-0.0160917354609,-0.00261767272477,0.999857864417,2.32539605349e-06,0.0,0.0,0.0,0.0,0.0,0.0,2.32539605349e-06,0.0,0.0,0.0,0.0,0.0,0.0,222000000.0,0.0,0.0,0.0,0.0,0.0,0.0,0.0,0.0,0.0,0.0,0.0,0.0,0.0,0.0,0.0,0.0,0.0,0.0,0.0,0.0,6.7200714747e-11
1583762851052736438,222,1583762847693629114,odom,0.073992477999,-0.000313256424637,0.0,0.00475082198345,-0.0151396565935,-0.00357871646917,0.999867697887,2.30364967138e-05,0.0,0.0,0.0,0.0,0.0,0.0,2.30364967138e-05,0.0,0.0,0.0,0.0,0.0,0.0,223000000.0,0.0,0.0,0.0,0.0,0.0,0.0,6.98491930962e-10,0.0,0.0,0.0,0.0,0.0,0.0,6.98491930962e-10,0.0,0.0,0.0,0.0,0.0,0.0,6.65738276206e-10
1583762851052876787,223,1583762847792629114,odom,0.0920180932909,-0.000448842482611,0.0,0.00462905494759,-0.0147124086881,-0.00406700456464,0.999872780085,9.80112235993e-06,0.0,0.0,0.0,0.0,0.0,0.0,9.80112235993e-06,0.0,0.0,0.0,0.0,0.0,0.0,224000000.0,0.0,0.0,0.0,0.0,0.0,0.0,2.32830643654e-10,0.0,0.0,0.0,0.0,0.0,0.0,2.32830643654e-10,0.0,0.0,0.0,0.0,0.0,0.0,2.8324071435e-10
1583762851052931855,224,1583762847841861483,odom,0.101472902269,-0.000528843226566,0.0,0.00464784333768,-0.0147030265936,-0.00412335438811,0.99987260014,2.42399983108e-06,0.0,0.0,0.0,0.0,0.0,0.0,2.42399983108e-06,0.0,0.0,0.0,0.0,0.0,0.0,225000000.0,0.0,0.0,0.0,0.0,0.0,0.0,0.0,0.0,0.0,0.0,0.0,0.0,0.0,0.0,0.0,0.0,0.0,0.0,0.0,0.0,7.00465516503e-11
1583762851055563329,225,1583762847993629114,odom,0.132991933208,-0.000793655708984,0.0,0.00505636594321,-0.0145905817628,-0.00455526154568,0.99987039044,2.30334699154e-05,0.0,0.0,0.0,0.0,0.0,0.0,2.30334699154e-05,0.0,0.0,0.0,0.0,0.0,0.0,226000000.0,0.0,0.0,0.0,0.0,0.0,0.0,6.98491930962e-10,0.0,0.0,0.0,0.0,0.0,0.0,6.98491930962e-10,0.0,0.0,0.0,0.0,0.0,0.0,6.65646422246e-10
1583762851055595677,226,1583762848092629114,odom,0.154008544856,-0.000989551505339,0.0,0.00487282843645,-0.0152006978447,-0.00437213110209,0.999863030018,9.80088952929e-06,0.0,0.0,0.0,0.0,0.0,0.0,9.80088952929e-06,0.0,0.0,0.0,0.0,0.0,0.0,227000000.0,0.0,0.0,0.0,0.0,0.0,0.0,2.32830643654e-10,0.0,0.0,0.0,0.0,0.0,0.0,2.32830643654e-10,0.0,0.0,0.0,0.0,0.0,0.0,2.8324071435e-10
1583762851055624423,227,1583762848141885052,odom,0.164524985073,-0.00108261723727,0.0,0.00484546024052,-0.0152462281427,-0.00439946179047,0.999862349915,2.42609530687e-06,0.0,0.0,0.0,0.0,0.0,0.0,2.42609530687e-06,0.0,0.0,0.0,0.0,0.0,0.0,228000000.0,0.0,0.0,0.0,0.0,0.0,0.0,0.0,0.0,0.0,0.0,0.0,0.0,0.0,0.0,0.0,0.0,0.0,0.0,0.0,0.0,7.01136344464e-11
1583762851055673276,228,1583762848293629114,odom,0.197081209291,-0.00137565870471,0.0,0.00438389892758,-0.0161156743205,-0.00467722997018,0.999849583683,2.30262521654e-05,0.0,0.0,0.0,0.0,0.0,0.0,2.30262521654e-05,0.0,0.0,0.0,0.0,0.0,0.0,229000000.0,0.0,0.0,0.0,0.0,0.0,0.0,6.98491930962e-10,0.0,0.0,0.0,0.0,0.0,0.0,6.98491930962e-10,0.0,0.0,0.0,0.0,0.0,0.0,6.65439693064e-10
1583762851055683734,229,1583762848392629114,odom,0.218336230774,-0.00157677759932,0.0,0.00420052629552,-0.0168487777974,-0.00486057062954,0.999837411342,9.80088952929e-06,0.0,0.0,0.0,0.0,0.0,0.0,9.80088952929e-06,0.0,0.0,0.0,0.0,0.0,0.0,230000000.0,0.0,0.0,0.0,0.0,0.0,0.0,2.32830643654e-10,0.0,0.0,0.0,0.0,0.0,0.0,2.32830643654e-10,0.0,0.0,0.0,0.0,0.0,0.0,2.8324071435e-10
1583762851055715129,230,1583762848493629114,odom,0.240033072112,-0.00179056594594,0.0,0.0038948669678,-0.017519799706,-0.00486052046212,0.999827116041,1.02010089904e-05,0.0,0.0,0.0,0.0,0.0,0.0,1.02010089904e-05,0.0,0.0,0.0,0.0,0.0,0.0,231000000.0,0.0,0.0,0.0,0.0,0.0,0.0,4.65661287308e-10,0.0,0.0,0.0,0.0,0.0,0.0,4.65661287308e-10,0.0,0.0,0.0,0.0,0.0,0.0,2.94800380276e-10
1583762851055733785,231,1583762848541867130,odom,0.250397506622,-0.00189279014865,0.0,0.0039780353021,-0.0175475664801,-0.00489748793213,0.999826121262,2.32690945268e-06,0.0,0.0,0.0,0.0,0.0,0.0,2.32690945268e-06,0.0,0.0,0.0,0.0,0.0,0.0,232000000.0,0.0,0.0,0.0,0.0,0.0,0.0,2.32830643654e-10,0.0,0.0,0.0,0.0,0.0,0.0,2.32830643654e-10,0.0,0.0,0.0,0.0,0.0,0.0,6.72456454259e-11
1583762851055756661,232,1583762848693629114,odom,0.283009043142,-0.0022165529832,0.0,0.00432134838684,-0.0185572874973,-0.00504351368428,0.999805739131,2.30318401009e-05,0.0,0.0,0.0,0.0,0.0,0.0,2.30318401009e-05,0.0,0.0,0.0,0.0,0.0,0.0,233000000.0,0.0,0.0,0.0,0.0,0.0,0.0,6.98491930962e-10,0.0,0.0,0.0,0.0,0.0,0.0,6.98491930962e-10,0.0,0.0,0.0,0.0,0.0,0.0,6.6559688823e-10
1583762851056111739,233,1583762848793629114,odom,0.304495865401,-0.00243685789419,0.0,0.00438211005957,-0.0189233864968,-0.00516553873555,0.999797989478,9.99995972961e-06,0.0,0.0,0.0,0.0,0.0,0.0,9.99995972961e-06,0.0,0.0,0.0,0.0,0.0,0.0,234000000.0,0.0,0.0,0.0,0.0,0.0,0.0,2.32830643654e-10,0.0,0.0,0.0,0.0,0.0,0.0,2.32830643654e-10,0.0,0.0,0.0,0.0,0.0,0.0,2.88991648108e-10
1583762851056165495,234,1583762848892629114,odom,0.325753808139,-0.00266016643913,0.0,0.00450404466221,-0.0194737435513,-0.00516580623639,0.999786877959,9.80088952929e-06,0.0,0.0,0.0,0.0,0.0,0.0,9.80088952929e-06,0.0,0.0,0.0,0.0,0.0,0.0,235000000.0,0.0,0.0,0.0,0.0,0.0,0.0,2.32830643654e-10,0.0,0.0,0.0,0.0,0.0,0.0,2.32830643654e-10,0.0,0.0,0.0,0.0,0.0,0.0,2.8324071435e-10
1583762851056192121,235,1583762848999294006,odom,0.348672003615,-0.00290240584828,0.0,0.00468683211158,-0.0199009327491,-0.0052267914922,0.99977730877,1.13773858175e-05,0.0,0.0,0.0,0.0,0.0,0.0,1.13773858175e-05,0.0,0.0,0.0,0.0,0.0,0.0,236000000.0,0.0,0.0,0.0,0.0,0.0,0.0,4.65661287308e-10,0.0,0.0,0.0,0.0,0.0,0.0,4.65661287308e-10,0.0,0.0,0.0,0.0,0.0,0.0,3.28797334203e-10
1583762851056358851,236,1583762849041857065,odom,0.357828127839,-0.00299958631513,0.0,0.00469202535027,-0.0199296050953,-0.00522157367101,0.999776740531,1.81153882295e-06,0.0,0.0,0.0,0.0,0.0,0.0,1.81153882295e-06,0.0,0.0,0.0,0.0,0.0,0.0,237000000.0,0.0,0.0,0.0,0.0,0.0,0.0,0.0,0.0,0.0,0.0,0.0,0.0,0.0,0.0,0.0,0.0,0.0,0.0,0.0,0.0,5.23541313525e-11
1583762851056386116,237,1583762849199294006,odom,0.391685299591,-0.00335357913134,0.0,0.00486901825526,-0.0211212250757,-0.0052876828874,0.999751082481,2.47864518315e-05,0.0,0.0,0.0,0.0,0.0,0.0,2.47864518315e-05,0.0,0.0,0.0,0.0,0.0,0.0,238000000.0,0.0,0.0,0.0,0.0,0.0,0.0,6.98491930962e-10,0.0,0.0,0.0,0.0,0.0,0.0,6.98491930962e-10,0.0,0.0,0.0,0.0,0.0,0.0,7.16305981123e-10
1583762851056413548,238,1583762849298294006,odom,0.412924185373,-0.00358281044205,0.0,0.00523484250801,-0.021609469179,-0.00534864811578,0.999738475417,9.80088952929e-06,0.0,0.0,0.0,0.0,0.0,0.0,9.80088952929e-06,0.0,0.0,0.0,0.0,0.0,0.0,239000000.0,0.0,0.0,0.0,0.0,0.0,0.0,2.32830643654e-10,0.0,0.0,0.0,0.0,0.0,0.0,2.32830643654e-10,0.0,0.0,0.0,0.0,0.0,0.0,2.8324071435e-10
1583762851056432144,239,1583762849341868478,odom,0.42227576801,-0.00368501177212,0.0,0.00520621346965,-0.0216560060242,-0.00534508673198,0.999737636979,1.89885031432e-06,0.0,0.0,0.0,0.0,0.0,0.0,1.89885031432e-06,0.0,0.0,0.0,0.0,0.0,0.0,240000000.0,0.0,0.0,0.0,0.0,0.0,0.0,0.0,0.0,0.0,0.0,0.0,0.0,0.0,0.0,0.0,0.0,0.0,0.0,0.0,0.0,5.48718444343e-11
1583762851056448820,240,1583762849499294006,odom,0.456143990938,-0.00405515184159,0.0,0.00492928935965,-0.0225257587525,-0.00516578515639,0.999720764495,2.47829593718e-05,0.0,0.0,0.0,0.0,0.0,0.0,2.47829593718e-05,0.0,0.0,0.0,0.0,0.0,0.0,241000000.0,0.0,0.0,0.0,0.0,0.0,0.0,6.98491930962e-10,0.0,0.0,0.0,0.0,0.0,0.0,6.98491930962e-10,0.0,0.0,0.0,0.0,0.0,0.0,7.1620213113e-10
1583762851056472644,241,1583762849598294006,odom,0.477422327188,-0.00428088623447,0.0,0.004379507268,-0.0231354811132,-0.00534882413441,0.999708437251,9.80100594461e-06,0.0,0.0,0.0,0.0,0.0,0.0,9.80100594461e-06,0.0,0.0,0.0,0.0,0.0,0.0,242000000.0,0.0,0.0,0.0,0.0,0.0,0.0,2.32830643654e-10,0.0,0.0,0.0,0.0,0.0,0.0,2.32830643654e-10,0.0,0.0,0.0,0.0,0.0,0.0,2.8324071435e-10
1583762851056593876,242,1583762849641858362,odom,0.486791342875,-0.00438280295906,0.0,0.00434738587711,-0.0231675435222,-0.00535238676771,0.999707815874,1.89780257642e-06,0.0,0.0,0.0,0.0,0.0,0.0,1.89780257642e-06,0.0,0.0,0.0,0.0,0.0,0.0,243000000.0,0.0,0.0,0.0,0.0,0.0,0.0,0.0,0.0,0.0,0.0,0.0,0.0,0.0,0.0,0.0,0.0,0.0,0.0,0.0,0.0,5.48463698835e-11
1583762851056647837,243,1583762849798294006,odom,0.520413168655,-0.00474647714826,0.0,0.00376829536379,-0.024294141103,-0.00547075055746,0.99968278246,2.44721304625e-05,0.0,0.0,0.0,0.0,0.0,0.0,2.44721304625e-05,0.0,0.0,0.0,0.0,0.0,0.0,244000000.0,0.0,0.0,0.0,0.0,0.0,0.0,6.98491930962e-10,0.0,0.0,0.0,0.0,0.0,0.0,6.98491930962e-10,0.0,0.0,0.0,0.0,0.0,0.0,7.07223560879e-10
1583762851056751102,244,1583762849898294006,odom,0.54186315267,-0.00498586654737,0.0,0.00382904921925,-0.0246601165807,-0.00577585047489,0.999671874459,9.99995972961e-06,0.0,0.0,0.0,0.0,0.0,0.0,9.99995972961e-06,0.0,0.0,0.0,0.0,0.0,0.0,245000000.0,0.0,0.0,0.0,0.0,0.0,0.0,2.32830643654e-10,0.0,0.0,0.0,0.0,0.0,0.0,2.32830643654e-10,0.0,0.0,0.0,0.0,0.0,0.0,2.88991648108e-10
1583762851056809665,245,1583762849999294006,odom,0.5635780781,-0.00524122815048,0.0,0.00358481852104,-0.0250884726509,-0.00583718880509,0.99966176522,1.02010089904e-05,0.0,0.0,0.0,0.0,0.0,0.0,1.02010089904e-05,0.0,0.0,0.0,0.0,0.0,0.0,246000000.0,0.0,0.0,0.0,0.0,0.0,0.0,4.65661287308e-10,0.0,0.0,0.0,0.0,0.0,0.0,4.65661287308e-10,0.0,0.0,0.0,0.0,0.0,0.0,2.94800380276e-10
1583762851056855238,246,1583762850099294006,odom,0.585078908024,-0.00549659708619,0.0,0.00346251715206,-0.0253933639851,-0.0060202445871,0.999653412286,9.99984331429e-06,0.0,0.0,0.0,0.0,0.0,0.0,9.99984331429e-06,0.0,0.0,0.0,0.0,0.0,0.0,247000000.0,0.0,0.0,0.0,0.0,0.0,0.0,2.32830643654e-10,0.0,0.0,0.0,0.0,0.0,0.0,2.32830643654e-10,0.0,0.0,0.0,0.0,0.0,0.0,2.88991648108e-10
1583762851056926587,247,1583762850198294006,odom,0.60633307047,-0.00575775950093,0.0,0.00388976353073,-0.0253935928197,-0.0060812676222,0.999651465946,9.80100594461e-06,0.0,0.0,0.0,0.0,0.0,0.0,9.80100594461e-06,0.0,0.0,0.0,0.0,0.0,0.0,248000000.0,0.0,0.0,0.0,0.0,0.0,0.0,2.32830643654e-10,0.0,0.0,0.0,0.0,0.0,0.0,2.32830643654e-10,0.0,0.0,0.0,0.0,0.0,0.0,2.8324071435e-10
1583762851056939638,248,1583762850299294006,odom,0.628048039036,-0.00602576221523,0.0,0.00395084607064,-0.0253326391912,-0.00602024241086,0.999653142289,1.02010089904e-05,0.0,0.0,0.0,0.0,0.0,0.0,1.02010089904e-05,0.0,0.0,0.0,0.0,0.0,0.0,249000000.0,0.0,0.0,0.0,0.0,0.0,0.0,4.65661287308e-10,0.0,0.0,0.0,0.0,0.0,0.0,4.65661287308e-10,0.0,0.0,0.0,0.0,0.0,0.0,2.94800380276e-10
1583762851057099638,249,1583762850399294006,odom,0.649549123568,-0.00628900438419,0.0,0.00425615664529,-0.0251497852086,-0.00620335864627,0.999655386509,9.99984331429e-06,0.0,0.0,0.0,0.0,0.0,0.0,9.99984331429e-06,0.0,0.0,0.0,0.0,0.0,0.0,250000000.0,0.0,0.0,0.0,0.0,0.0,0.0,2.32830643654e-10,0.0,0.0,0.0,0.0,0.0,0.0,2.32830643654e-10,0.0,0.0,0.0,0.0,0.0,0.0,2.88991648108e-10
1583762851057136958,250,1583762850441856901,odom,0.658691454429,-0.00640386144839,0.0,0.00427066471586,-0.0251353015733,-0.00622148065027,0.999655576294,1.81165523827e-06,0.0,0.0,0.0,0.0,0.0,0.0,1.81165523827e-06,0.0,0.0,0.0,0.0,0.0,0.0,251000000.0,0.0,0.0,0.0,0.0,0.0,0.0,0.0,0.0,0.0,0.0,0.0,0.0,0.0,0.0,0.0,0.0,0.0,0.0,0.0,0.0,5.23537279127e-11
1583762851057151131,251,1583762850541880412,odom,0.680177009019,-0.006675722887,0.0,0.00451871883741,-0.0248802723926,-0.00650852939436,0.999659038008,1.00046163425e-05,0.0,0.0,0.0,0.0,0.0,0.0,1.00046163425e-05,0.0,0.0,0.0,0.0,0.0,0.0,252000000.0,0.0,0.0,0.0,0.0,0.0,0.0,2.32830643654e-10,0.0,0.0,0.0,0.0,0.0,0.0,2.32830643654e-10,0.0,0.0,0.0,0.0,0.0,0.0,2.89127553794e-10
1583762851057206553,252,1583762850698294006,odom,0.713758986162,-0.00712016865085,0.0,0.00486680366393,-0.024355533687,-0.00681336756989,0.999668295098,2.44652619585e-05,0.0,0.0,0.0,0.0,0.0,0.0,2.44652619585e-05,0.0,0.0,0.0,0.0,0.0,0.0,253000000.0,0.0,0.0,0.0,0.0,0.0,0.0,6.98491930962e-10,0.0,0.0,0.0,0.0,0.0,0.0,6.98491930962e-10,0.0,0.0,0.0,0.0,0.0,0.0,7.07024205058e-10
1583762851057379096,253,1583762850741850846,odom,0.723096508861,-0.00725090329936,0.0,0.00488851424095,-0.024351928078,-0.00682060463519,0.999668227653,1.89710408449e-06,0.0,0.0,0.0,0.0,0.0,0.0,1.89710408449e-06,0.0,0.0,0.0,0.0,0.0,0.0,254000000.0,0.0,0.0,0.0,0.0,0.0,0.0,0.0,0.0,0.0,0.0,0.0,0.0,0.0,0.0,0.0,0.0,0.0,0.0,0.0,0.0,5.48274465898e-11
1583762851063603106,254,1583762850841870385,odom,0.744641057916,-0.00754739517609,0.0,0.00524737266448,-0.02426610472,-0.00694615848415,0.999667630827,1.00040342659e-05,0.0,0.0,0.0,0.0,0.0,0.0,1.00040342659e-05,0.0,0.0,0.0,0.0,0.0,0.0,255000000.0,0.0,0.0,0.0,0.0,0.0,0.0,2.32830643654e-10,0.0,0.0,0.0,0.0,0.0,0.0,2.32830643654e-10,0.0,0.0,0.0,0.0,0.0,0.0,2.89104591338e-10
1583762851063643706,255,1583762850998294006,odom,0.778228659157,-0.00802358567292,0.0,0.00572162197213,-0.023867954662,-0.00705753154863,0.999673834323,2.44682887569e-05,0.0,0.0,0.0,0.0,0.0,0.0,2.44682887569e-05,0.0,0.0,0.0,0.0,0.0,0.0,256000000.0,0.0,0.0,0.0,0.0,0.0,0.0,6.98491930962e-10,0.0,0.0,0.0,0.0,0.0,0.0,6.98491930962e-10,0.0,0.0,0.0,0.0,0.0,0.0,7.07114856499e-10
1583762851165836417,256,1583762851041867072,odom,0.78758337709,-0.00815880914756,0.0,0.00573253350244,-0.0238570600857,-0.00707207098683,0.999673929117,1.89861748368e-06,0.0,0.0,0.0,0.0,0.0,0.0,1.89861748368e-06,0.0,0.0,0.0,0.0,0.0,0.0,257000000.0,0.0,0.0,0.0,0.0,0.0,0.0,0.0,0.0,0.0,0.0,0.0,0.0,0.0,0.0,0.0,0.0,0.0,0.0,0.0,0.0,5.48683034411e-11
1583762851492891956,257,1583762851341854831,odom,0.851983474601,-0.0090994547864,0.0,0.00585468369619,-0.0236740775841,-0.00754941711559,0.999674080403,8.99926526472e-05,0.0,0.0,0.0,0.0,0.0,0.0,8.99926526472e-05,0.0,0.0,0.0,0.0,0.0,0.0,258000000.0,0.0,0.0,0.0,0.0,0.0,0.0,2.56113708019e-09,0.0,0.0,0.0,0.0,0.0,0.0,2.56113708019e-09,0.0,0.0,0.0,0.0,0.0,0.0,2.6007125848e-09
1583762851583873374,258,1583762851498294006,odom,0.885608577354,-0.00961526943993,0.0,0.00608812084767,-0.0234410243939,-0.00772891057168,0.999676806324,2.44730617851e-05,0.0,0.0,0.0,0.0,0.0,0.0,2.44730617851e-05,0.0,0.0,0.0,0.0,0.0,0.0,259000000.0,0.0,0.0,0.0,0.0,0.0,0.0,6.98491930962e-10,0.0,0.0,0.0,0.0,0.0,0.0,6.98491930962e-10,0.0,0.0,0.0,0.0,0.0,0.0,7.07255487401e-10
1583762851687668317,259,1583762851605005067,odom,0.908548154163,-0.00997642664959,0.0,0.00578285723853,-0.023562834152,-0.00791198709007,0.999674322902,1.13872811198e-05,0.0,0.0,0.0,0.0,0.0,0.0,1.13872811198e-05,0.0,0.0,0.0,0.0,0.0,0.0,260000000.0,0.0,0.0,0.0,0.0,0.0,0.0,4.65661287308e-10,0.0,0.0,0.0,0.0,0.0,0.0,4.65661287308e-10,0.0,0.0,0.0,0.0,0.0,0.0,3.29082030154e-10
1583762851791538444,260,1583762851705005067,odom,0.930051870031,-0.0103226039216,0.0,0.00578299863453,-0.0233798217278,-0.00797304882887,0.999678133879,9.99984331429e-06,0.0,0.0,0.0,0.0,0.0,0.0,9.99984331429e-06,0.0,0.0,0.0,0.0,0.0,0.0,261000000.0,0.0,0.0,0.0,0.0,0.0,0.0,2.32830643654e-10,0.0,0.0,0.0,0.0,0.0,0.0,2.32830643654e-10,0.0,0.0,0.0,0.0,0.0,0.0,2.88991648108e-10
1583762851854680849,261,1583762851741862008,odom,0.937978462634,-0.0104510256594,0.0,0.00578299864196,-0.0233798217259,-0.00797304851156,0.999678133881,1.3584503904e-06,0.0,0.0,0.0,0.0,0.0,0.0,1.3584503904e-06,0.0,0.0,0.0,0.0,0.0,0.0,262000000.0,0.0,0.0,0.0,0.0,0.0,0.0,0.0,0.0,0.0,0.0,0.0,0.0,0.0,0.0,0.0,0.0,0.0,0.0,0.0,0.0,3.92576109549e-11
1583762851979795900,262,1583762851904005067,odom,0.972842981764,-0.0110135526975,0.0,0.00584412107286,-0.0232578281527,-0.00809512267619,0.999679643019,2.62904213741e-05,0.0,0.0,0.0,0.0,0.0,0.0,2.62904213741e-05,0.0,0.0,0.0,0.0,0.0,0.0,263000000.0,0.0,0.0,0.0,0.0,0.0,0.0,9.31322574615e-10,0.0,0.0,0.0,0.0,0.0,0.0,9.31322574615e-10,0.0,0.0,0.0,0.0,0.0,0.0,7.59769781414e-10
1583762852094070642,263,1583762852005005067,odom,0.994537020725,-0.0113707170693,0.0,0.006027409961,-0.0230139159893,-0.00809516007282,0.999684199327,1.02010089904e-05,0.0,0.0,0.0,0.0,0.0,0.0,1.02010089904e-05,0.0,0.0,0.0,0.0,0.0,0.0,264000000.0,0.0,0.0,0.0,0.0,0.0,0.0,3.49245965481e-10,0.0,0.0,0.0,0.0,0.0,0.0,3.49245965481e-10,0.0,0.0,0.0,0.0,0.0,0.0,2.94800380276e-10
1583762852188141316,264,1583762852041848110,odom,1.00244801183,-0.011501475277,0.0,0.00602740994963,-0.0230139159923,-0.00809516056691,0.999684199323,1.35751906782e-06,0.0,0.0,0.0,0.0,0.0,0.0,1.35751906782e-06,0.0,0.0,0.0,0.0,0.0,0.0,265000000.0,0.0,0.0,0.0,0.0,0.0,0.0,0.0,0.0,0.0,0.0,0.0,0.0,0.0,0.0,0.0,0.0,0.0,0.0,0.0,0.0,3.92280101273e-11
1583762852282999485,265,1583762852141877167,odom,1.02395111137,-0.0118549229019,0.0,0.00572234395946,-0.0228917535933,-0.00809519671309,0.99968879667,1.00056640804e-05,0.0,0.0,0.0,0.0,0.0,0.0,1.00056640804e-05,0.0,0.0,0.0,0.0,0.0,0.0,266000000.0,0.0,0.0,0.0,0.0,0.0,0.0,2.32830643654e-10,0.0,0.0,0.0,0.0,0.0,0.0,2.32830643654e-10,0.0,0.0,0.0,0.0,0.0,0.0,2.89159617218e-10
1583762852381531592,266,1583762852305005067,odom,1.05897465066,-0.012433466463,0.0,0.00553915874102,-0.0230136972584,-0.00791209699025,0.999688494572,2.66106799245e-05,0.0,0.0,0.0,0.0,0.0,0.0,2.66106799245e-05,0.0,0.0,0.0,0.0,0.0,0.0,267000000.0,0.0,0.0,0.0,0.0,0.0,0.0,9.31322574615e-10,0.0,0.0,0.0,0.0,0.0,0.0,9.31322574615e-10,0.0,0.0,0.0,0.0,0.0,0.0,7.69027344806e-10
1583762852458362236,267,1583762852341860451,odom,1.066885177,-0.0125607719761,0.0,0.00553915874104,-0.0230136972584,-0.00791209698917,0.999688494572,1.35833397508e-06,0.0,0.0,0.0,0.0,0.0,0.0,1.35833397508e-06,0.0,0.0,0.0,0.0,0.0,0.0,268000000.0,0.0,0.0,0.0,0.0,0.0,0.0,0.0,0.0,0.0,0.0,0.0,0.0,0.0,0.0,0.0,0.0,0.0,0.0,0.0,0.0,3.92542940967e-11
1583762852589363902,268,1583762852504005067,odom,1.10173867281,-0.0131223538452,0.0,0.00498971567219,-0.0231963892878,-0.00803414298525,0.999686192166,2.62910034508e-05,0.0,0.0,0.0,0.0,0.0,0.0,2.62910034508e-05,0.0,0.0,0.0,0.0,0.0,0.0,269000000.0,0.0,0.0,0.0,0.0,0.0,0.0,9.31322574615e-10,0.0,0.0,0.0,0.0,0.0,0.0,9.31322574615e-10,0.0,0.0,0.0,0.0,0.0,0.0,7.59784373031e-10
1583762852685152494,269,1583762852541855560,odom,1.10987106412,-0.013254074079,0.0,0.00498971570197,-0.0231963892814,-0.00803414170174,0.999686192177,1.4326069504e-06,0.0,0.0,0.0,0.0,0.0,0.0,1.4326069504e-06,0.0,0.0,0.0,0.0,0.0,0.0,270000000.0,0.0,0.0,0.0,0.0,0.0,0.0,0.0,0.0,0.0,0.0,0.0,0.0,0.0,0.0,0.0,0.0,0.0,0.0,0.0,0.0,4.14026722266e-11
1583762852755192882,270,1583762852641864948,odom,1.13138052633,-0.0136052461082,0.0,0.00505094114383,-0.0229524360489,-0.00791212652234,0.999692488682,1.00018223748e-05,0.0,0.0,0.0,0.0,0.0,0.0,1.00018223748e-05,0.0,0.0,0.0,0.0,0.0,0.0,271000000.0,0.0,0.0,0.0,0.0,0.0,0.0,2.32830643654e-10,0.0,0.0,0.0,0.0,0.0,0.0,2.32830643654e-10,0.0,0.0,0.0,0.0,0.0,0.0,2.89045911714e-10
1583762852885181338,271,1583762852741852627,odom,1.15282305338,-0.0139501699013,0.0,0.00474604229094,-0.0225862048598,-0.0081563237153,0.999700361516,9.99751500785e-06,0.0,0.0,0.0,0.0,0.0,0.0,9.99751500785e-06,0.0,0.0,0.0,0.0,0.0,0.0,272000000.0,0.0,0.0,0.0,0.0,0.0,0.0,2.32830643654e-10,0.0,0.0,0.0,0.0,0.0,0.0,2.32830643654e-10,0.0,0.0,0.0,0.0,0.0,0.0,2.88920439189e-10
1583762852965291388,272,1583762852841850868,odom,1.17434475428,-0.0143063600662,0.0,0.00456307594615,-0.022403079437,-0.00821739442388,0.999704833838,9.99961048365e-06,0.0,0.0,0.0,0.0,0.0,0.0,9.99961048365e-06,0.0,0.0,0.0,0.0,0.0,0.0,273000000.0,0.0,0.0,0.0,0.0,0.0,0.0,2.32830643654e-10,0.0,0.0,0.0,0.0,0.0,0.0,2.32830643654e-10,0.0,0.0,0.0,0.0,0.0,0.0,2.88981481472e-10
1583762853085383751,273,1583762853005005067,odom,1.20774090881,-0.0148572981878,0.0,0.00407489984929,-0.022280853636,-0.00791227605353,0.999712135887,2.66194110736e-05,0.0,0.0,0.0,0.0,0.0,0.0,2.66194110736e-05,0.0,0.0,0.0,0.0,0.0,0.0,274000000.0,0.0,0.0,0.0,0.0,0.0,0.0,9.31322574615e-10,0.0,0.0,0.0,0.0,0.0,0.0,9.31322574615e-10,0.0,0.0,0.0,0.0,0.0,0.0,7.69275325566e-10
1583762853190978992,274,1583762853104005067,odom,1.2253480727,-0.0151349079359,0.0,0.00376951683123,-0.0225858145771,-0.00730191826618,0.999711135135,9.80088952929e-06,0.0,0.0,0.0,0.0,0.0,0.0,9.80088952929e-06,0.0,0.0,0.0,0.0,0.0,0.0,275000000.0,0.0,0.0,0.0,0.0,0.0,0.0,2.32830643654e-10,0.0,0.0,0.0,0.0,0.0,0.0,2.32830643654e-10,0.0,0.0,0.0,0.0,0.0,0.0,2.8324071435e-10
1583762853283012027,275,1583762853141884916,odom,1.23172354049,-0.0152274825972,0.0,0.00376951689701,-0.0225858145661,-0.00730191535462,0.999711135156,1.43481884152e-06,0.0,0.0,0.0,0.0,0.0,0.0,1.43481884152e-06,0.0,0.0,0.0,0.0,0.0,0.0,276000000.0,0.0,0.0,0.0,0.0,0.0,0.0,0.0,0.0,0.0,0.0,0.0,0.0,0.0,0.0,0.0,0.0,0.0,0.0,0.0,0.0,4.14669191041e-11
1583762853355089370,276,1583762853241863745,odom,1.24569819933,-0.0154305432058,0.0,0.00346385414653,-0.0232567112068,-0.00711871319002,0.999698179963,9.9956523627e-06,0.0,0.0,0.0,0.0,0.0,0.0,9.9956523627e-06,0.0,0.0,0.0,0.0,0.0,0.0,277000000.0,0.0,0.0,0.0,0.0,0.0,0.0,2.32830643654e-10,0.0,0.0,0.0,0.0,0.0,0.0,2.32830643654e-10,0.0,0.0,0.0,0.0,0.0,0.0,2.88869296156e-10
1583762853489118496,277,1583762853341885242,odom,1.25669923408,-0.0155861761087,0.0,0.00297496449018,-0.0241104785457,-0.00687445558529,0.999681237331,1.00043835118e-05,0.0,0.0,0.0,0.0,0.0,0.0,1.00043835118e-05,0.0,0.0,0.0,0.0,0.0,0.0,278000000.0,0.0,0.0,0.0,0.0,0.0,0.0,2.32830643654e-10,0.0,0.0,0.0,0.0,0.0,0.0,2.32830643654e-10,0.0,0.0,0.0,0.0,0.0,0.0,2.89115910635e-10
1583762853572319473,278,1583762853441880647,odom,1.26467741307,-0.0156950534953,0.0,0.00279134918467,-0.0248424605256,-0.00614198132637,0.999668613387,9.99902840704e-06,0.0,0.0,0.0,0.0,0.0,0.0,9.99902840704e-06,0.0,0.0,0.0,0.0,0.0,0.0,279000000.0,0.0,0.0,0.0,0.0,0.0,0.0,2.32830643654e-10,0.0,0.0,0.0,0.0,0.0,0.0,2.32830643654e-10,0.0,0.0,0.0,0.0,0.0,0.0,2.88965090375e-10
1583762853686858727,279,1583762853541851014,odom,1.26962618965,-0.015755257957,0.0,0.0024857352148,-0.0256978751723,-0.00540984284273,0.999652026423,9.9940225482e-06,0.0,0.0,0.0,0.0,0.0,0.0,9.9940225482e-06,0.0,0.0,0.0,0.0,0.0,0.0,280000000.0,0.0,0.0,0.0,0.0,0.0,0.0,2.32830643654e-10,0.0,0.0,0.0,0.0,0.0,0.0,2.32830643654e-10,0.0,0.0,0.0,0.0,0.0,0.0,2.88820399685e-10
1583762853792297340,280,1583762853704005067,odom,1.27245382688,-0.0157856463948,0.0,0.00266775272538,-0.027222921368,-0.00443312554255,0.999615997794,2.62939138338e-05,0.0,0.0,0.0,0.0,0.0,0.0,2.62939138338e-05,0.0,0.0,0.0,0.0,0.0,0.0,281000000.0,0.0,0.0,0.0,0.0,0.0,0.0,9.31322574615e-10,0.0,0.0,0.0,0.0,0.0,0.0,9.31322574615e-10,0.0,0.0,0.0,0.0,0.0,0.0,7.59872816193e-10
1583762853902793358,281,1583762853741852054,odom,1.27281888432,-0.0157889113468,0.0,0.00266775274867,-0.0272229213657,-0.00443312468737,0.999615997798,1.43225770444e-06,0.0,0.0,0.0,0.0,0.0,0.0,1.43225770444e-06,0.0,0.0,0.0,0.0,0.0,0.0,282000000.0,0.0,0.0,0.0,0.0,0.0,0.0,0.0,0.0,0.0,0.0,0.0,0.0,0.0,0.0,0.0,0.0,0.0,0.0,0.0,0.0,4.13950025493e-11
1583762853983849757,282,1583762853841868765,odom,1.2732474957,-0.0157927659709,0.0,0.00272843617186,-0.0277109102867,-0.00400585084636,0.999604228806,1.00033357739e-05,0.0,0.0,0.0,0.0,0.0,0.0,1.00033357739e-05,0.0,0.0,0.0,0.0,0.0,0.0,283000000.0,0.0,0.0,0.0,0.0,0.0,0.0,2.32830643654e-10,0.0,0.0,0.0,0.0,0.0,0.0,2.32830643654e-10,0.0,0.0,0.0,0.0,0.0,0.0,2.89088242995e-10
1583762854055875172,283,1583762854003005067,odom,1.27349078894,-0.015794747969,0.0,0.00278955685952,-0.027588957794,-0.00412792466427,0.99960693676,2.59649241343e-05,0.0,0.0,0.0,0.0,0.0,0.0,2.59649241343e-05,0.0,0.0,0.0,0.0,0.0,0.0,284000000.0,0.0,0.0,0.0,0.0,0.0,0.0,6.98491930962e-10,0.0,0.0,0.0,0.0,0.0,0.0,6.98491930962e-10,0.0,0.0,0.0,0.0,0.0,0.0,7.50364150647e-10
1583762854193417201,284,1583762854109508073,odom,1.27355260311,-0.0157952680026,0.0,0.00272870110447,-0.0273449704432,-0.00412795297829,0.999613808821,1.13429268822e-05,0.0,0.0,0.0,0.0,0.0,0.0,1.13429268822e-05,0.0,0.0,0.0,0.0,0.0,0.0,285000000.0,0.0,0.0,0.0,0.0,0.0,0.0,4.65661287308e-10,0.0,0.0,0.0,0.0,0.0,0.0,4.65661287308e-10,0.0,0.0,0.0,0.0,0.0,0.0,3.27800056001e-10
1583762854287127976,285,1583762854141861430,odom,1.27356576209,-0.0157953786961,0.0,0.00272870110519,-0.0273449704431,-0.00412795295199,0.999613808821,1.04669015855e-06,0.0,0.0,0.0,0.0,0.0,0.0,1.04669015855e-06,0.0,0.0,0.0,0.0,0.0,0.0,286000000.0,0.0,0.0,0.0,0.0,0.0,0.0,0.0,0.0,0.0,0.0,0.0,0.0,0.0,0.0,0.0,0.0,0.0,0.0,0.0,0.0,3.02499032341e-11
1583762854386893068,286,1583762854241851915,odom,1.27358352132,-0.015795528129,0.0,0.0027289669572,-0.0269790357252,-0.00412799402811,0.999623751236,9.99798066914e-06,0.0,0.0,0.0,0.0,0.0,0.0,9.99798066914e-06,0.0,0.0,0.0,0.0,0.0,0.0,287000000.0,0.0,0.0,0.0,0.0,0.0,0.0,2.32830643654e-10,0.0,0.0,0.0,0.0,0.0,0.0,2.32830643654e-10,0.0,0.0,0.0,0.0,0.0,0.0,2.88936655551e-10
1583762854463001041,287,1583762854341886524,odom,1.2735909232,-0.0157955903922,0.0,0.00260716320415,-0.0266130193145,-0.00412803598681,0.999633887592,1.00068282336e-05,0.0,0.0,0.0,0.0,0.0,0.0,1.00068282336e-05,0.0,0.0,0.0,0.0,0.0,0.0,288000000.0,0.0,0.0,0.0,0.0,0.0,0.0,2.32830643654e-10,0.0,0.0,0.0,0.0,0.0,0.0,2.32830643654e-10,0.0,0.0,0.0,0.0,0.0,0.0,2.89191716916e-10
1583762854555928272,288,1583762854441892364,odom,1.27359388396,-0.0157956152734,0.0,0.00260738318613,-0.0263080563983,-0.00412806933414,0.999641959286,1.00012402982e-05,0.0,0.0,0.0,0.0,0.0,0.0,1.00012402982e-05,0.0,0.0,0.0,0.0,0.0,0.0,289000000.0,0.0,0.0,0.0,0.0,0.0,0.0,2.32830643654e-10,0.0,0.0,0.0,0.0,0.0,0.0,2.32830643654e-10,0.0,0.0,0.0,0.0,0.0,0.0,2.89025403315e-10
1583762854694180944,289,1583762854608508073,odom,1.27359538401,-0.015795627877,0.0,0.00254682882386,-0.0256370629487,-0.0042502095802,0.999659037065,2.77607468888e-05,0.0,0.0,0.0,0.0,0.0,0.0,2.77607468888e-05,0.0,0.0,0.0,0.0,0.0,0.0,290000000.0,0.0,0.0,0.0,0.0,0.0,0.0,9.31322574615e-10,0.0,0.0,0.0,0.0,0.0,0.0,9.31322574615e-10,0.0,0.0,0.0,0.0,0.0,0.0,8.02263775073e-10
1583762854756621680,290,1583762854641856026,odom,1.27359554198,-0.0157956292418,0.0,0.00254682882388,-0.0256370629487,-0.00425020957967,0.999659037065,1.11211556941e-06,0.0,0.0,0.0,0.0,0.0,0.0,1.11211556941e-06,0.0,0.0,0.0,0.0,0.0,0.0,291000000.0,0.0,0.0,0.0,0.0,0.0,0.0,0.0,0.0,0.0,0.0,0.0,0.0,0.0,0.0,0.0,0.0,0.0,0.0,0.0,0.0,3.21383556415e-11
1583762854898571970,291,1583762854741848373,odom,1.27359573146,-0.0157956308789,0.0,0.00254700383495,-0.0253930747101,-0.00425023607321,0.999665263987,9.99844633043e-06,0.0,0.0,0.0,0.0,0.0,0.0,9.99844633043e-06,0.0,0.0,0.0,0.0,0.0,0.0,292000000.0,0.0,0.0,0.0,0.0,0.0,0.0,2.32830643654e-10,0.0,0.0,0.0,0.0,0.0,0.0,2.32830643654e-10,0.0,0.0,0.0,0.0,0.0,0.0,2.88947416754e-10
1583762855001759304,292,1583762854909508073,odom,1.27359582769,-0.0157956377897,0.0,0.00248616373037,-0.0249035224318,-0.00431105196627,0.999677472184,2.8109876439e-05,0.0,0.0,0.0,0.0,0.0,0.0,2.8109876439e-05,0.0,0.0,0.0,0.0,0.0,0.0,293000000.0,0.0,0.0,0.0,0.0,0.0,0.0,9.31322574615e-10,0.0,0.0,0.0,0.0,0.0,0.0,9.31322574615e-10,0.0,0.0,0.0,0.0,0.0,0.0,8.12349020618e-10
1583762855092118628,293,1583762855008508073,odom,1.27359584563,-0.0157956342635,0.0,0.00248633853977,-0.0246595404106,-0.00425004659552,0.999683781148,9.80100594461e-06,0.0,0.0,0.0,0.0,0.0,0.0,9.80100594461e-06,0.0,0.0,0.0,0.0,0.0,0.0,294000000.0,0.0,0.0,0.0,0.0,0.0,0.0,2.32830643654e-10,0.0,0.0,0.0,0.0,0.0,0.0,2.32830643654e-10,0.0,0.0,0.0,0.0,0.0,0.0,2.8324071435e-10
1583762855196601142,294,1583762855041848705,odom,1.27359584971,-0.0157956319024,0.0,0.00248633853977,-0.0246595404106,-0.00425004659548,0.999683781148,1.1115334928e-06,0.0,0.0,0.0,0.0,0.0,0.0,1.1115334928e-06,0.0,0.0,0.0,0.0,0.0,0.0,295000000.0,0.0,0.0,0.0,0.0,0.0,0.0,0.0,0.0,0.0,0.0,0.0,0.0,0.0,0.0,0.0,0.0,0.0,0.0,0.0,0.0,3.21242464983e-11
1583762855289758206,295,1583762855208508073,odom,1.27359585584,-0.0157956323387,0.0,0.00236457282903,-0.024232473878,-0.0043111244932,0.999694258366,2.7775298804e-05,0.0,0.0,0.0,0.0,0.0,0.0,2.7775298804e-05,0.0,0.0,0.0,0.0,0.0,0.0,296000000.0,0.0,0.0,0.0,0.0,0.0,0.0,9.31322574615e-10,0.0,0.0,0.0,0.0,0.0,0.0,9.31322574615e-10,0.0,0.0,0.0,0.0,0.0,0.0,8.02684271217e-10
1583762855396076514,296,1583762855308508073,odom,1.27359585701,-0.0157956321189,0.0,0.00242569445983,-0.0241105111992,-0.004311136545,0.999697060793,9.99984331429e-06,0.0,0.0,0.0,0.0,0.0,0.0,9.99984331429e-06,0.0,0.0,0.0,0.0,0.0,0.0,297000000.0,0.0,0.0,0.0,0.0,0.0,0.0,2.32830643654e-10,0.0,0.0,0.0,0.0,0.0,0.0,2.32830643654e-10,0.0,0.0,0.0,0.0,0.0,0.0,2.88991648012e-10
1583762855487367922,297,1583762855341876815,odom,1.27359585727,-0.0157956319678,0.0,0.00242569445983,-0.0241105111992,-0.004311136545,0.999697060793,1.11339613795e-06,0.0,0.0,0.0,0.0,0.0,0.0,1.11339613795e-06,0.0,0.0,0.0,0.0,0.0,0.0,298000000.0,0.0,0.0,0.0,0.0,0.0,0.0,0.0,0.0,0.0,0.0,0.0,0.0,0.0,0.0,0.0,0.0,0.0,0.0,0.0,0.0,3.2178438022e-11
1583762855590177750,298,1583762855508508073,odom,1.27359585767,-0.0157956319958,0.0,0.00248698914754,-0.0237445377596,-0.00437220642808,0.999705404418,2.77659855783e-05,0.0,0.0,0.0,0.0,0.0,0.0,2.77659855783e-05,0.0,0.0,0.0,0.0,0.0,0.0,299000000.0,0.0,0.0,0.0,0.0,0.0,0.0,9.31322574615e-10,0.0,0.0,0.0,0.0,0.0,0.0,9.31322574615e-10,0.0,0.0,0.0,0.0,0.0,0.0,8.02413520784e-10
1583762855693599301,299,1583762855541874637,odom,1.27359585771,-0.0157956319717,0.0,0.00248698914754,-0.0237445377596,-0.00437220642808,0.999705404418,1.11316330731e-06,0.0,0.0,0.0,0.0,0.0,0.0,1.11316330731e-06,0.0,0.0,0.0,0.0,0.0,0.0,300000000.0,0.0,0.0,0.0,0.0,0.0,0.0,0.0,0.0,0.0,0.0,0.0,0.0,0.0,0.0,0.0,0.0,0.0,0.0,0.0,0.0,3.21742375669e-11
1583762855789614346,300,1583762855641875525,odom,1.27359585776,-0.0157956319721,0.0,0.00254815485332,-0.0235615688225,-0.00437222465974,0.999709579344,1.00000761449e-05,0.0,0.0,0.0,0.0,0.0,0.0,1.00000761449e-05,0.0,0.0,0.0,0.0,0.0,0.0,301000000.0,0.0,0.0,0.0,0.0,0.0,0.0,2.32830643654e-10,0.0,0.0,0.0,0.0,0.0,0.0,2.32830643654e-10,0.0,0.0,0.0,0.0,0.0,0.0,2.88996780572e-10
1583762855857405920,301,1583762855808508073,odom,1.27359585778,-0.0157956319739,0.0,0.00260936447706,-0.0233175944999,-0.00437224896468,0.999715141649,2.77664512396e-05,0.0,0.0,0.0,0.0,0.0,0.0,2.77664512396e-05,0.0,0.0,0.0,0.0,0.0,0.0,302000000.0,0.0,0.0,0.0,0.0,0.0,0.0,9.31322574615e-10,0.0,0.0,0.0,0.0,0.0,0.0,9.31322574615e-10,0.0,0.0,0.0,0.0,0.0,0.0,8.02425944765e-10
1583762855993600294,302,1583762855841848576,odom,1.27359585779,-0.0157956319723,0.0,0.00260936447706,-0.0233175944999,-0.00437224896468,0.999715141649,1.11141707748e-06,0.0,0.0,0.0,0.0,0.0,0.0,1.11141707748e-06,0.0,0.0,0.0,0.0,0.0,0.0,303000000.0,0.0,0.0,0.0,0.0,0.0,0.0,0.0,0.0,0.0,0.0,0.0,0.0,0.0,0.0,0.0,0.0,0.0,0.0,0.0,0.0,3.21239977245e-11
1583762856067009187,303,1583762856007508073,odom,1.27359585779,-0.0157956319726,0.0,0.00267048749912,-0.0231956237726,-0.00437226063702,0.999717817622,2.74429330602e-05,0.0,0.0,0.0,0.0,0.0,0.0,2.74429330602e-05,0.0,0.0,0.0,0.0,0.0,0.0,304000000.0,0.0,0.0,0.0,0.0,0.0,0.0,9.31322574615e-10,0.0,0.0,0.0,0.0,0.0,0.0,9.31322574615e-10,0.0,0.0,0.0,0.0,0.0,0.0,7.93081772468e-10
1583762856152385840,304,1583762856109508073,odom,1.27359585779,-0.0157956319725,0.0,0.00273161008011,-0.0230736455539,-0.004433305872,0.999720206351,1.04040373117e-05,0.0,0.0,0.0,0.0,0.0,0.0,1.04040373117e-05,0.0,0.0,0.0,0.0,0.0,0.0,305000000.0,0.0,0.0,0.0,0.0,0.0,0.0,3.49245965481e-10,0.0,0.0,0.0,0.0,0.0,0.0,3.49245965481e-10,0.0,0.0,0.0,0.0,0.0,0.0,3.00666910758e-10
1583762856257573771,305,1583762856141863865,odom,1.27359585779,-0.0157956319724,0.0,0.00273161008011,-0.0230736455539,-0.004433305872,0.999720206351,1.04680657387e-06,0.0,0.0,0.0,0.0,0.0,0.0,1.04680657387e-06,0.0,0.0,0.0,0.0,0.0,0.0,306000000.0,0.0,0.0,0.0,0.0,0.0,0.0,0.0,0.0,0.0,0.0,0.0,0.0,0.0,0.0,0.0,0.0,0.0,0.0,0.0,0.0,3.02544568454e-11
1583762856561787697,306,1583762856441845569,odom,1.27359585779,-0.0157956319724,0.0,0.00279277829493,-0.0228906743119,-0.00437228986068,0.999724512303,8.99889273569e-05,0.0,0.0,0.0,0.0,0.0,0.0,8.99889273569e-05,0.0,0.0,0.0,0.0,0.0,0.0,307000000.0,0.0,0.0,0.0,0.0,0.0,0.0,2.56113708019e-09,0.0,0.0,0.0,0.0,0.0,0.0,2.56113708019e-09,0.0,0.0,0.0,0.0,0.0,0.0,2.60060759949e-09
1583762856687439653,307,1583762856541854010,odom,1.27359585779,-0.0157956319724,0.0,0.00285377180841,-0.0227063087867,-0.00437203173664,0.999728545589,1.00017059594e-05,0.0,0.0,0.0,0.0,0.0,0.0,1.00017059594e-05,0.0,0.0,0.0,0.0,0.0,0.0,308000000.0,0.0,0.0,0.0,0.0,0.0,0.0,2.32830643654e-10,0.0,0.0,0.0,0.0,0.0,0.0,2.32830643654e-10,0.0,0.0,0.0,0.0,0.0,0.0,2.89040437884e-10
1583762856849487843,308,1583762856641857264,odom,1.27359585779,-0.0157956319724,0.0,0.00291489154244,-0.0225843339396,-0.00443307358656,0.999730863346,1.00005418062e-05,0.0,0.0,0.0,0.0,0.0,0.0,1.00005418062e-05,0.0,0.0,0.0,0.0,0.0,0.0,309000000.0,0.0,0.0,0.0,0.0,0.0,0.0,2.32830643654e-10,0.0,0.0,0.0,0.0,0.0,0.0,2.32830643654e-10,0.0,0.0,0.0,0.0,0.0,0.0,2.89010456128e-10
1583762857002203343,309,1583762856741871858,odom,1.27359585779,-0.0157956319724,0.0,0.00285381478983,-0.0226453004424,-0.00443306828712,0.999729660466,1.00027536973e-05,0.0,0.0,0.0,0.0,0.0,0.0,1.00027536973e-05,0.0,0.0,0.0,0.0,0.0,0.0,310000000.0,0.0,0.0,0.0,0.0,0.0,0.0,2.32830643654e-10,0.0,0.0,0.0,0.0,0.0,0.0,2.32830643654e-10,0.0,0.0,0.0,0.0,0.0,0.0,2.89076005138e-10
1583762857165960433,310,1583762856941849965,odom,1.27359585779,-0.0157956319724,0.0,0.0027317050061,-0.0227062306936,-0.00443306374629,0.999728619587,3.99913406e-05,0.0,0.0,0.0,0.0,0.0,0.0,3.99913406e-05,0.0,0.0,0.0,0.0,0.0,0.0,311000000.0,0.0,0.0,0.0,0.0,0.0,0.0,1.16415321827e-09,0.0,0.0,0.0,0.0,0.0,0.0,1.16415321827e-09,0.0,0.0,0.0,0.0,0.0,0.0,1.15571353063e-09
1583762857320991606,311,1583762857141857638,odom,1.27359585779,-0.0157956319724,0.0,0.00273174784221,-0.0226452222611,-0.0044941003513,0.99972973074,4.00030985475e-05,0.0,0.0,0.0,0.0,0.0,0.0,4.00030985475e-05,0.0,0.0,0.0,0.0,0.0,0.0,312000000.0,0.0,0.0,0.0,0.0,0.0,0.0,1.16415321827e-09,0.0,0.0,0.0,0.0,0.0,0.0,1.16415321827e-09,0.0,0.0,0.0,0.0,0.0,0.0,1.1560552917e-09
1583762857391452214,312,1583762857241859716,odom,1.27359585779,-0.0157956319724,0.0,0.00285381402718,-0.0226452940685,-0.00449409873128,0.999729388124,1.00004253909e-05,0.0,0.0,0.0,0.0,0.0,0.0,1.00004253909e-05,0.0,0.0,0.0,0.0,0.0,0.0,313000000.0,0.0,0.0,0.0,0.0,0.0,0.0,1.16415321827e-10,0.0,0.0,0.0,0.0,0.0,0.0,1.16415321827e-10,0.0,0.0,0.0,0.0,0.0,0.0,2.89003658768e-10
1583762857534701724,313,1583762857341849500,odom,1.27359585779,-0.0157956319724,0.0,0.00291484616493,-0.0226453233872,-0.00455512827823,0.999728935165,9.99809708446e-06,0.0,0.0,0.0,0.0,0.0,0.0,9.99809708446e-06,0.0,0.0,0.0,0.0,0.0,0.0,314000000.0,0.0,0.0,0.0,0.0,0.0,0.0,1.16415321827e-10,0.0,0.0,0.0,0.0,0.0,0.0,1.16415321827e-10,0.0,0.0,0.0,0.0,0.0,0.0,2.88932604404e-10
1583762857554571884,314,1583762857513428007,odom,1.27359585779,-0.0157956319724,0.0,0.0029758351413,-0.0227063610612,-0.00455512110606,0.999727371059,2.94391065836e-05,0.0,0.0,0.0,0.0,0.0,0.0,2.94391065836e-05,0.0,0.0,0.0,0.0,0.0,0.0,315000000.0,0.0,0.0,0.0,0.0,0.0,0.0,8.14907252789e-10,0.0,0.0,0.0,0.0,0.0,0.0,8.14907252789e-10,0.0,0.0,0.0,0.0,0.0,0.0,8.50767832401e-10
1583762857655765334,315,1583762857613428007,odom,1.27359585779,-0.0157956319724,0.0,0.00303700921197,-0.0227687876454,-0.00455540066424,0.999725766002,1.00000761449e-05,0.0,0.0,0.0,0.0,0.0,0.0,1.00000761449e-05,0.0,0.0,0.0,0.0,0.0,0.0,316000000.0,0.0,0.0,0.0,0.0,0.0,0.0,3.49245965481e-10,0.0,0.0,0.0,0.0,0.0,0.0,3.49245965481e-10,0.0,0.0,0.0,0.0,0.0,0.0,2.88991648012e-10
1583762857763896981,316,1583762857641848667,odom,1.27359585779,-0.0157956319724,0.0,0.00303700921197,-0.0227687876454,-0.00455540066424,0.999725766002,8.07689502835e-07,0.0,0.0,0.0,0.0,0.0,0.0,8.07689502835e-07,0.0,0.0,0.0,0.0,0.0,0.0,317000000.0,0.0,0.0,0.0,0.0,0.0,0.0,0.0,0.0,0.0,0.0,0.0,0.0,0.0,0.0,0.0,0.0,0.0,0.0,0.0,0.0,2.33428354938e-11
1583762857854150293,317,1583762857741902350,odom,1.27359585779,-0.0157956319724,0.0,0.00309790000686,-0.0227064256099,-0.00461614954104,0.999726718866,1.00109027699e-05,0.0,0.0,0.0,0.0,0.0,0.0,1.00109027699e-05,0.0,0.0,0.0,0.0,0.0,0.0,318000000.0,0.0,0.0,0.0,0.0,0.0,0.0,2.32830643654e-10,0.0,0.0,0.0,0.0,0.0,0.0,2.32830643654e-10,0.0,0.0,0.0,0.0,0.0,0.0,2.8930201014e-10
1583762857954221203,318,1583762857913428007,odom,1.27359585779,-0.0157956319724,0.0,0.00315908127006,-0.022768851986,-0.00461643269225,0.999725106284,2.94210622087e-05,0.0,0.0,0.0,0.0,0.0,0.0,2.94210622087e-05,0.0,0.0,0.0,0.0,0.0,0.0,319000000.0,0.0,0.0,0.0,0.0,0.0,0.0,9.31322574615e-10,0.0,0.0,0.0,0.0,0.0,0.0,9.31322574615e-10,0.0,0.0,0.0,0.0,0.0,0.0,8.50243802227e-10
1583762858061886932,319,1583762858013428007,odom,1.27359585779,-0.0157956319724,0.0,0.00315912455631,-0.0227078399453,-0.00467747297604,0.999726210111,9.99984331429e-06,0.0,0.0,0.0,0.0,0.0,0.0,9.99984331429e-06,0.0,0.0,0.0,0.0,0.0,0.0,320000000.0,0.0,0.0,0.0,0.0,0.0,0.0,2.32830643654e-10,0.0,0.0,0.0,0.0,0.0,0.0,2.32830643654e-10,0.0,0.0,0.0,0.0,0.0,0.0,2.88991648012e-10
1583762858157102285,320,1583762858112428007,odom,1.27359585779,-0.0157956319724,0.0,0.00322011664671,-0.0227688806542,-0.00467746552393,0.999724627204,9.80100594461e-06,0.0,0.0,0.0,0.0,0.0,0.0,9.80100594461e-06,0.0,0.0,0.0,0.0,0.0,0.0,321000000.0,0.0,0.0,0.0,0.0,0.0,0.0,2.32830643654e-10,0.0,0.0,0.0,0.0,0.0,0.0,2.32830643654e-10,0.0,0.0,0.0,0.0,0.0,0.0,2.8324071435e-10
1583762858253666885,321,1583762858213428007,odom,1.27359585779,-0.0157956319724,0.0,0.00322011664671,-0.0227688806542,-0.00467746552393,0.999724627204,1.02010089904e-05,0.0,0.0,0.0,0.0,0.0,0.0,1.02010089904e-05,0.0,0.0,0.0,0.0,0.0,0.0,322000000.0,0.0,0.0,0.0,0.0,0.0,0.0,4.65661287308e-10,0.0,0.0,0.0,0.0,0.0,0.0,4.65661287308e-10,0.0,0.0,0.0,0.0,0.0,0.0,2.94800380276e-10
1583762858355778161,322,1583762858313428007,odom,1.27359585779,-0.0157956319724,0.0,0.00322016090132,-0.0227078752898,-0.00467747202114,0.999726014576,9.99984331429e-06,0.0,0.0,0.0,0.0,0.0,0.0,9.99984331429e-06,0.0,0.0,0.0,0.0,0.0,0.0,323000000.0,0.0,0.0,0.0,0.0,0.0,0.0,2.32830643654e-10,0.0,0.0,0.0,0.0,0.0,0.0,2.32830643654e-10,0.0,0.0,0.0,0.0,0.0,0.0,2.88991648108e-10
1583762858454494066,323,1583762858413428007,odom,1.27359585779,-0.0157956319724,0.0,0.00322016090132,-0.0227078752898,-0.00467747202114,0.999726014576,9.99984331429e-06,0.0,0.0,0.0,0.0,0.0,0.0,9.99984331429e-06,0.0,0.0,0.0,0.0,0.0,0.0,324000000.0,0.0,0.0,0.0,0.0,0.0,0.0,2.32830643654e-10,0.0,0.0,0.0,0.0,0.0,0.0,2.32830643654e-10,0.0,0.0,0.0,0.0,0.0,0.0,2.88991648012e-10
1583762858554220893,324,1583762858513428007,odom,1.27359585779,-0.0157956319724,0.0,0.00322016090132,-0.0227078752898,-0.00467747202114,0.999726014576,9.99984331429e-06,0.0,0.0,0.0,0.0,0.0,0.0,9.99984331429e-06,0.0,0.0,0.0,0.0,0.0,0.0,325000000.0,0.0,0.0,0.0,0.0,0.0,0.0,2.32830643654e-10,0.0,0.0,0.0,0.0,0.0,0.0,2.32830643654e-10,0.0,0.0,0.0,0.0,0.0,0.0,2.88991648012e-10
1583762858654537836,325,1583762858613428007,odom,1.27359585779,-0.0157956319724,0.0,0.00322016090132,-0.0227078752898,-0.00467747202114,0.999726014576,9.99984331429e-06,0.0,0.0,0.0,0.0,0.0,0.0,9.99984331429e-06,0.0,0.0,0.0,0.0,0.0,0.0,326000000.0,0.0,0.0,0.0,0.0,0.0,0.0,2.32830643654e-10,0.0,0.0,0.0,0.0,0.0,0.0,2.32830643654e-10,0.0,0.0,0.0,0.0,0.0,0.0,2.88991648012e-10
1583762858753790417,326,1583762858713428007,odom,1.27359585779,-0.0157956319724,0.0,0.00315912455631,-0.0227078399453,-0.00467747297604,0.999726210111,9.99984331429e-06,0.0,0.0,0.0,0.0,0.0,0.0,9.99984331429e-06,0.0,0.0,0.0,0.0,0.0,0.0,327000000.0,0.0,0.0,0.0,0.0,0.0,0.0,2.32830643654e-10,0.0,0.0,0.0,0.0,0.0,0.0,2.32830643654e-10,0.0,0.0,0.0,0.0,0.0,0.0,2.88991648012e-10
1583762858852252300,327,1583762858812428007,odom,1.27359585779,-0.0157956319724,0.0,0.00322016090132,-0.0227078752898,-0.00467747202114,0.999726014576,9.80100594461e-06,0.0,0.0,0.0,0.0,0.0,0.0,9.80100594461e-06,0.0,0.0,0.0,0.0,0.0,0.0,328000000.0,0.0,0.0,0.0,0.0,0.0,0.0,2.32830643654e-10,0.0,0.0,0.0,0.0,0.0,0.0,2.32830643654e-10,0.0,0.0,0.0,0.0,0.0,0.0,2.8324071435e-10
1583762858954804322,328,1583762858852428007,odom,1.27359585779,-0.0157956319724,0.0,0.00322016090132,-0.0227078752898,-0.00467747202114,0.999726014576,1.60001218319e-06,0.0,0.0,0.0,0.0,0.0,0.0,1.60001218319e-06,0.0,0.0,0.0,0.0,0.0,0.0,329000000.0,0.0,0.0,0.0,0.0,0.0,0.0,0.0,0.0,0.0,0.0,0.0,0.0,0.0,0.0,0.0,0.0,0.0,0.0,0.0,0.0,4.62386637128e-11
1583762859054118905,329,1583762859013428007,odom,1.27359585779,-0.0157956319724,0.0,0.00322016090132,-0.0227078752898,-0.00467747202114,0.999726014576,2.59209191427e-05,0.0,0.0,0.0,0.0,0.0,0.0,2.59209191427e-05,0.0,0.0,0.0,0.0,0.0,0.0,330000000.0,0.0,0.0,0.0,0.0,0.0,0.0,6.98491930962e-10,0.0,0.0,0.0,0.0,0.0,0.0,6.98491930962e-10,0.0,0.0,0.0,0.0,0.0,0.0,7.4909525108e-10
1583762859153752958,330,1583762859053428007,odom,1.27359585779,-0.0157956319724,0.0,0.00322016090132,-0.0227078752898,-0.00467747202114,0.999726014576,1.60001218319e-06,0.0,0.0,0.0,0.0,0.0,0.0,1.60001218319e-06,0.0,0.0,0.0,0.0,0.0,0.0,331000000.0,0.0,0.0,0.0,0.0,0.0,0.0,0.0,0.0,0.0,0.0,0.0,0.0,0.0,0.0,0.0,0.0,0.0,0.0,0.0,0.0,4.62386637128e-11
1583762859255158950,331,1583762859216889921,odom,1.27359585779,-0.0157956319724,0.0,0.00315912455631,-0.0227078399453,-0.00467747297604,0.999726210111,2.6719761081e-05,0.0,0.0,0.0,0.0,0.0,0.0,2.6719761081e-05,0.0,0.0,0.0,0.0,0.0,0.0,332000000.0,0.0,0.0,0.0,0.0,0.0,0.0,9.31322574615e-10,0.0,0.0,0.0,0.0,0.0,0.0,9.31322574615e-10,0.0,0.0,0.0,0.0,0.0,0.0,7.72179826767e-10
1583762859353527268,332,1583762859256889921,odom,1.27359585779,-0.0157956319724,0.0,0.00315912455631,-0.0227078399453,-0.00467747297604,0.999726210111,1.59989576787e-06,0.0,0.0,0.0,0.0,0.0,0.0,1.59989576787e-06,0.0,0.0,0.0,0.0,0.0,0.0,333000000.0,0.0,0.0,0.0,0.0,0.0,0.0,0.0,0.0,0.0,0.0,0.0,0.0,0.0,0.0,0.0,0.0,0.0,0.0,0.0,0.0,4.62386636156e-11
1583762859453048210,333,1583762859417889921,odom,1.27359585779,-0.0157956319724,0.0,0.00322016090132,-0.0227078752898,-0.00467747202114,0.999726014576,2.5921035558e-05,0.0,0.0,0.0,0.0,0.0,0.0,2.5921035558e-05,0.0,0.0,0.0,0.0,0.0,0.0,334000000.0,0.0,0.0,0.0,0.0,0.0,0.0,6.98491930962e-10,0.0,0.0,0.0,0.0,0.0,0.0,6.98491930962e-10,0.0,0.0,0.0,0.0,0.0,0.0,7.4909525108e-10
1583762859554976543,334,1583762859516889921,odom,1.27359585779,-0.0157956319724,0.0,0.00315912455631,-0.0227078399453,-0.00467747297604,0.999726210111,9.80088952929e-06,0.0,0.0,0.0,0.0,0.0,0.0,9.80088952929e-06,0.0,0.0,0.0,0.0,0.0,0.0,335000000.0,0.0,0.0,0.0,0.0,0.0,0.0,2.32830643654e-10,0.0,0.0,0.0,0.0,0.0,0.0,2.32830643654e-10,0.0,0.0,0.0,0.0,0.0,0.0,2.8324071435e-10
1583762859654653124,335,1583762859541850413,odom,1.27359585779,-0.0157956319724,0.0,0.00315912455631,-0.0227078399453,-0.00467747297604,0.999726210111,6.22938387096e-07,0.0,0.0,0.0,0.0,0.0,0.0,6.22938387096e-07,0.0,0.0,0.0,0.0,0.0,0.0,336000000.0,0.0,0.0,0.0,0.0,0.0,0.0,0.0,0.0,0.0,0.0,0.0,0.0,0.0,0.0,0.0,0.0,0.0,0.0,0.0,0.0,1.80049357308e-11
1583762859753308971,336,1583762859717889921,odom,1.27359585779,-0.0157956319724,0.0,0.00321996620921,-0.0227065029413,-0.00455511748441,0.999726611353,3.09898750857e-05,0.0,0.0,0.0,0.0,0.0,0.0,3.09898750857e-05,0.0,0.0,0.0,0.0,0.0,0.0,337000000.0,0.0,0.0,0.0,0.0,0.0,0.0,9.31322574615e-10,0.0,0.0,0.0,0.0,0.0,0.0,9.31322574615e-10,0.0,0.0,0.0,0.0,0.0,0.0,8.95582469635e-10
1583762859853054512,337,1583762859757889921,odom,1.27359585779,-0.0157956319724,0.0,0.00321996620921,-0.0227065029413,-0.00455511748441,0.999726611353,1.59989576787e-06,0.0,0.0,0.0,0.0,0.0,0.0,1.59989576787e-06,0.0,0.0,0.0,0.0,0.0,0.0,338000000.0,0.0,0.0,0.0,0.0,0.0,0.0,0.0,0.0,0.0,0.0,0.0,0.0,0.0,0.0,0.0,0.0,0.0,0.0,0.0,0.0,4.62386637128e-11
1583762859954865593,338,1583762859841822899,odom,1.27359585779,-0.0157956319724,0.0,0.00321996620921,-0.0227065029413,-0.00455511748441,0.999726611353,7.04475678504e-06,0.0,0.0,0.0,0.0,0.0,0.0,7.04475678504e-06,0.0,0.0,0.0,0.0,0.0,0.0,339000000.0,0.0,0.0,0.0,0.0,0.0,0.0,2.32830643654e-10,0.0,0.0,0.0,0.0,0.0,0.0,2.32830643654e-10,0.0,0.0,0.0,0.0,0.0,0.0,2.03587240942e-10
1583762860055920908,339,1583762859956889921,odom,1.27359585779,-0.0157956319724,0.0,0.00322000955934,-0.0226454944631,-0.00461615406679,0.999727715051,1.32403802127e-05,0.0,0.0,0.0,0.0,0.0,0.0,1.32403802127e-05,0.0,0.0,0.0,0.0,0.0,0.0,340000000.0,0.0,0.0,0.0,0.0,0.0,0.0,4.65661287308e-10,0.0,0.0,0.0,0.0,0.0,0.0,4.65661287308e-10,0.0,0.0,0.0,0.0,0.0,0.0,3.82637066807e-10
1583762860155206920,340,1583762860056889921,odom,1.27359585779,-0.0157956319724,0.0,0.00315897683618,-0.0226454591082,-0.00461615500948,0.999727910564,9.99984331429e-06,0.0,0.0,0.0,0.0,0.0,0.0,9.99984331429e-06,0.0,0.0,0.0,0.0,0.0,0.0,341000000.0,0.0,0.0,0.0,0.0,0.0,0.0,2.32830643654e-10,0.0,0.0,0.0,0.0,0.0,0.0,2.32830643654e-10,0.0,0.0,0.0,0.0,0.0,0.0,2.88991648108e-10
1583762860255055435,341,1583762860141850171,odom,1.27359585779,-0.0157956319724,0.0,0.00309794493199,-0.0226454302119,-0.00455512563865,0.999728382141,7.21821561456e-06,0.0,0.0,0.0,0.0,0.0,0.0,7.21821561456e-06,0.0,0.0,0.0,0.0,0.0,0.0,342000000.0,0.0,0.0,0.0,0.0,0.0,0.0,2.32830643654e-10,0.0,0.0,0.0,0.0,0.0,0.0,2.32830643654e-10,0.0,0.0,0.0,0.0,0.0,0.0,2.08601225316e-10
1583762860352976085,342,1583762860257889921,odom,1.27359585779,-0.0157956319724,0.0,0.00297587904327,-0.0226453590797,-0.00455512741532,0.999728754548,1.34650617838e-05,0.0,0.0,0.0,0.0,0.0,0.0,1.34650617838e-05,0.0,0.0,0.0,0.0,0.0,0.0,343000000.0,0.0,0.0,0.0,0.0,0.0,0.0,4.65661287308e-10,0.0,0.0,0.0,0.0,0.0,0.0,4.65661287308e-10,0.0,0.0,0.0,0.0,0.0,0.0,3.89133715365e-10
1583762860452426008,343,1583762860356889921,odom,1.27359585779,-0.0157956319724,0.0,0.00285376952083,-0.0227062896136,-0.00455512281506,0.999727728568,9.80100594461e-06,0.0,0.0,0.0,0.0,0.0,0.0,9.80100594461e-06,0.0,0.0,0.0,0.0,0.0,0.0,344000000.0,0.0,0.0,0.0,0.0,0.0,0.0,2.32830643654e-10,0.0,0.0,0.0,0.0,0.0,0.0,2.32830643654e-10,0.0,0.0,0.0,0.0,0.0,0.0,2.83240714252e-10
1583762860556068767,344,1583762860456889921,odom,1.27359585779,-0.0157956319724,0.0,0.00279278031088,-0.0226452517489,-0.00455512995308,0.999729285228,9.99984331429e-06,0.0,0.0,0.0,0.0,0.0,0.0,9.99984331429e-06,0.0,0.0,0.0,0.0,0.0,0.0,345000000.0,0.0,0.0,0.0,0.0,0.0,0.0,2.32830643654e-10,0.0,0.0,0.0,0.0,0.0,0.0,2.32830643654e-10,0.0,0.0,0.0,0.0,0.0,0.0,2.88991648012e-10
1583762860654353529,345,1583762860557889921,odom,1.27359585779,-0.0157956319724,0.0,0.00273174710371,-0.0226452158031,-0.00455513076506,0.999729454674,1.02010089904e-05,0.0,0.0,0.0,0.0,0.0,0.0,1.02010089904e-05,0.0,0.0,0.0,0.0,0.0,0.0,346000000.0,0.0,0.0,0.0,0.0,0.0,0.0,4.65661287308e-10,0.0,0.0,0.0,0.0,0.0,0.0,4.65661287308e-10,0.0,0.0,0.0,0.0,0.0,0.0,2.94800380276e-10
1583762860755342963,346,1583762860656889921,odom,1.27359585779,-0.0157956319724,0.0,0.00267075756863,-0.0225841774856,-0.00455513785189,0.99973100017,9.80100594461e-06,0.0,0.0,0.0,0.0,0.0,0.0,9.80100594461e-06,0.0,0.0,0.0,0.0,0.0,0.0,347000000.0,0.0,0.0,0.0,0.0,0.0,0.0,2.32830643654e-10,0.0,0.0,0.0,0.0,0.0,0.0,2.32830643654e-10,0.0,0.0,0.0,0.0,0.0,0.0,2.83240714252e-10
1583762860855472893,347,1583762860741877593,odom,1.27359585779,-0.0157956319724,0.0,0.00260968106379,-0.0226451436586,-0.00455513233813,0.999729782393,7.22287222743e-06,0.0,0.0,0.0,0.0,0.0,0.0,7.22287222743e-06,0.0,0.0,0.0,0.0,0.0,0.0,348000000.0,0.0,0.0,0.0,0.0,0.0,0.0,2.32830643654e-10,0.0,0.0,0.0,0.0,0.0,0.0,2.32830643654e-10,0.0,0.0,0.0,0.0,0.0,0.0,2.08735904433e-10
1583762860953313786,348,1583762860857889921,odom,1.27359585779,-0.0157956319724,0.0,0.00267075756863,-0.0225841774856,-0.00455513785189,0.99973100017,1.34590081871e-05,0.0,0.0,0.0,0.0,0.0,0.0,1.34590081871e-05,0.0,0.0,0.0,0.0,0.0,0.0,349000000.0,0.0,0.0,0.0,0.0,0.0,0.0,4.65661287308e-10,0.0,0.0,0.0,0.0,0.0,0.0,4.65661287308e-10,0.0,0.0,0.0,0.0,0.0,0.0,3.88949820542e-10
1583762861057183092,349,1583762860956889921,odom,1.27359585779,-0.0157956319724,0.0,0.00260968035037,-0.0226451371165,-0.00461616271991,0.999729502603,9.80088952929e-06,0.0,0.0,0.0,0.0,0.0,0.0,9.80088952929e-06,0.0,0.0,0.0,0.0,0.0,0.0,350000000.0,0.0,0.0,0.0,0.0,0.0,0.0,2.32830643654e-10,0.0,0.0,0.0,0.0,0.0,0.0,2.32830643654e-10,0.0,0.0,0.0,0.0,0.0,0.0,2.83240714252e-10
1583762861154323053,350,1583762861056889921,odom,1.27359585779,-0.0157956319724,0.0,0.0024875716804,-0.0227060732403,-0.0045551275349,0.99972871172,9.99995972961e-06,0.0,0.0,0.0,0.0,0.0,0.0,9.99995972961e-06,0.0,0.0,0.0,0.0,0.0,0.0,351000000.0,0.0,0.0,0.0,0.0,0.0,0.0,2.32830643654e-10,0.0,0.0,0.0,0.0,0.0,0.0,2.32830643654e-10,0.0,0.0,0.0,0.0,0.0,0.0,2.88991648012e-10
1583762861253135007,351,1583762861156889921,odom,1.27359585779,-0.0157956319724,0.0,0.00242653864414,-0.022706036882,-0.00455512826216,0.999728862545,9.99995972961e-06,0.0,0.0,0.0,0.0,0.0,0.0,9.99995972961e-06,0.0,0.0,0.0,0.0,0.0,0.0,352000000.0,0.0,0.0,0.0,0.0,0.0,0.0,2.32830643654e-10,0.0,0.0,0.0,0.0,0.0,0.0,2.32830643654e-10,0.0,0.0,0.0,0.0,0.0,0.0,2.88991648012e-10
1583762861362919541,352,1583762861256889921,odom,1.27359585779,-0.0157956319724,0.0,0.00236550534783,-0.0227060004389,-0.00455512897245,0.999729009646,9.99995972961e-06,0.0,0.0,0.0,0.0,0.0,0.0,9.99995972961e-06,0.0,0.0,0.0,0.0,0.0,0.0,353000000.0,0.0,0.0,0.0,0.0,0.0,0.0,2.32830643654e-10,0.0,0.0,0.0,0.0,0.0,0.0,2.32830643654e-10,0.0,0.0,0.0,0.0,0.0,0.0,2.88991648012e-10
1583762861453210647,353,1583762861357889921,odom,1.27359585779,-0.0157956319724,0.0,0.00236554776236,-0.0226449918154,-0.00461616569976,0.999730113352,1.02010089904e-05,0.0,0.0,0.0,0.0,0.0,0.0,1.02010089904e-05,0.0,0.0,0.0,0.0,0.0,0.0,354000000.0,0.0,0.0,0.0,0.0,0.0,0.0,4.65661287308e-10,0.0,0.0,0.0,0.0,0.0,0.0,4.65661287308e-10,0.0,0.0,0.0,0.0,0.0,0.0,2.94800380276e-10
1583762861552984495,354,1583762861457889921,odom,1.27359585779,-0.0157956319724,0.0,0.00236554776236,-0.0226449918154,-0.00461616569976,0.999730113352,9.99984331429e-06,0.0,0.0,0.0,0.0,0.0,0.0,9.99984331429e-06,0.0,0.0,0.0,0.0,0.0,0.0,355000000.0,0.0,0.0,0.0,0.0,0.0,0.0,2.32830643654e-10,0.0,0.0,0.0,0.0,0.0,0.0,2.32830643654e-10,0.0,0.0,0.0,0.0,0.0,0.0,2.88991648108e-10
1583762861661155609,355,1583762861556889921,odom,1.27359585779,-0.0157956319724,0.0,0.002365504705,-0.0227059938797,-0.00461615930707,0.999728729858,9.80100594461e-06,0.0,0.0,0.0,0.0,0.0,0.0,9.80100594461e-06,0.0,0.0,0.0,0.0,0.0,0.0,356000000.0,0.0,0.0,0.0,0.0,0.0,0.0,2.32830643654e-10,0.0,0.0,0.0,0.0,0.0,0.0,2.32830643654e-10,0.0,0.0,0.0,0.0,0.0,0.0,2.8324071435e-10
1583762861757086506,356,1583762861641856378,odom,1.27359585779,-0.0157956319724,0.0,0.00242653798369,-0.0227060303226,-0.0046161585878,0.999728582756,7.21937976778e-06,0.0,0.0,0.0,0.0,0.0,0.0,7.21937976778e-06,0.0,0.0,0.0,0.0,0.0,0.0,357000000.0,0.0,0.0,0.0,0.0,0.0,0.0,2.32830643654e-10,0.0,0.0,0.0,0.0,0.0,0.0,2.32830643654e-10,0.0,0.0,0.0,0.0,0.0,0.0,2.0863170637e-10
