%time,field.transforms0.header.seq,field.transforms0.header.stamp,field.transforms0.header.frame_id,field.transforms0.child_frame_id,field.transforms0.transform.translation.x,field.transforms0.transform.translation.y,field.transforms0.transform.translation.z,field.transforms0.transform.rotation.x,field.transforms0.transform.rotation.y,field.transforms0.transform.rotation.z,field.transforms0.transform.rotation.w
1583762851048673418,0,1583762848493629114,odom,base_link,0.240033072112,-0.00179056594594,0.0,0.0038948669678,-0.017519799706,-0.00486052046212,0.999827116041
1583762851048685027,0,1583762848515060072,vo,base_link,0.255368651652,0.00988471679098,0.0,0.0,0.0,-0.00634862682128,0.999979847266
1583762851048691603,0,1583762848641850672,odom,base_link,0.271892453232,-0.000940235920271,0.0,0.0,0.0,-0.00196290651106,0.999998073497
1583762851048709211,0,1583762848641850672,chassis,left_wheel,0.0,0.195,-0.09,0.413599268244,0.573181892555,0.573638514488,-0.413928759633,0,1583762848641850672,chassis,right_wheel,0.0,-0.225,-0.09,0.405679903178,0.578814005361,0.579275114084,-0.406003085652
1583762851048719258,0,1583762848541867130,odom,base_link,0.250397506622,-0.00189279014865,0.0,0.0039780353021,-0.0175475664801,-0.00489748793213,0.999826121262
1583762851048728861,0,1583762848615257029,vo,base_link,0.276809724233,0.0143857201603,0.0,0.0,0.0,-0.00649746171381,0.999978891273
1583762851048735393,0,1583762848741878663,odom,base_link,0.29338275799,-0.00102460252522,0.0,0.0,0.0,-0.00196286924264,0.99999807357
1583762851048784754,0,1583762848741878663,chassis,left_wheel,0.0,0.195,-0.09,-0.506100399579,-0.493420938136,-0.493814018981,0.506503581441,0,1583762848741878663,chassis,right_wheel,0.0,-0.225,-0.09,0.499268999907,0.500332192024,0.500730778679,-0.499666739576
1583762851048793205,0,1583762848693629114,odom,base_link,0.283009043142,-0.0022165529832,0.0,0.00432134838684,-0.0185572874973,-0.00504351368428,0.999805739131
1583762851048801661,0,1583762848715822791,vo,base_link,0.298311785015,0.0163086019399,0.0,0.0,0.0,-0.00637944823107,0.999979651113
1583762851048822200,0,1583762848841863017,odom,base_link,0.314870439953,-0.00110898717303,0.0,0.0,0.0,-0.00196422535404,0.999998070908
1583762851048832610,0,1583762848841863017,chassis,left_wheel,0.0,0.195,-0.09,-0.583482735868,-0.398935751204,-0.399253560989,0.583947563907,0,1583762848841863017,chassis,right_wheel,0.0,-0.225,-0.09,-0.577939143447,-0.406925279525,-0.407249454121,0.578399555216
1583762851048860045,0,1583762848793629114,odom,base_link,0.304495865401,-0.00243685789419,0.0,0.00438211005957,-0.0189233864968,-0.00516553873555,0.999797989478
1583762851048868488,0,1583762848815995555,vo,base_link,0.319399050261,0.0221184197365,0.0,0.0,0.0,-0.0063907832771,0.999979578736
1583762851048966210,0,1583762848941894571,odom,base_link,0.336334404852,-0.00119458483705,0.0,0.0,0.0,-0.00202372160215,0.999997952273
1583762851048983746,0,1583762848941894571,chassis,left_wheel,0.0,0.195,-0.09,-0.643449072971,-0.292532266832,-0.292765310917,0.643961672834,0,1583762848941894571,chassis,right_wheel,0.0,-0.225,-0.09,-0.639238015402,-0.301623268847,-0.301863555223,0.639747260552
1583762851049062953,0,1583762848892629114,odom,base_link,0.325753808139,-0.00266016643913,0.0,0.00450404466221,-0.0194737435513,-0.00516580623639,0.999786877959
1583762851049120477,0,1583762848916148983,vo,base_link,0.339950207781,0.0257636148617,0.0,0.0,0.0,-0.00665616170216,0.99997784751
1583762851049150986,0,1583762849041857065,chassis,left_wheel,0.0,0.195,-0.09,-0.684203499445,-0.177390552149,-0.177531869274,0.684748566079,0,1583762849041857065,chassis,right_wheel,0.0,-0.225,-0.09,-0.681663742755,-0.186912756273,-0.187061659205,0.682206786107
1583762851049157150,0,1583762849041857065,odom,base_link,0.357839277657,-0.00128091332508,0.0,0.0,0.0,-0.00199062282671,0.999998018708
1583762851049171862,0,1583762848999294006,odom,base_link,0.348672003615,-0.00290240584828,0.0,0.00468683211158,-0.0199009327491,-0.0052267914922,0.99977730877
1583762851049179205,0,1583762849016507170,vo,base_link,0.361248706552,0.0249901597299,0.0,0.0,0.0,-0.00610431274715,0.999981368509
1583762851049195606,0,1583762849141880505,odom,base_link,0.379386173304,-0.00136382714486,0.0,0.0,0.0,-0.00185741916281,0.999998274996
1583762851049206878,0,1583762849141880505,chassis,left_wheel,0.0,0.195,-0.09,-0.704526320212,-0.0569605194191,-0.0570058966769,0.705087576901,0,1583762849141880505,chassis,right_wheel,0.0,-0.225,-0.09,-0.703725670286,-0.0661212342958,-0.0661739093825,0.704286289141
1583762851049214012,0,1583762849041857065,odom,base_link,0.357828127839,-0.00299958631513,0.0,0.00469202535027,-0.0199296050953,-0.00522157367101,0.999776740531
1583762851049232215,0,1583762849116756163,vo,base_link,0.382597119325,0.0241407259226,0.0,0.0,0.0,-0.00627454237701,0.999980314865
1583762851049240011,0,1583762849241853644,odom,base_link,0.400824641073,-0.00144357491044,0.0,0.0,0.0,-0.00186240600005,0.99999826572
1583762851049253308,0,1583762849241853644,chassis,left_wheel,0.0,0.195,-0.09,-0.703839686157,0.0648963237368,0.0649480230057,0.704400395842,0,1583762849241853644,chassis,right_wheel,0.0,-0.225,-0.09,-0.704626337283,0.0557096172311,0.0557539979651,0.705187673649
1583762851049272358,0,1583762849199294006,odom,base_link,0.391685299591,-0.00335357913134,0.0,0.00486901825526,-0.0211212250757,-0.0052876828874,0.999751082481
1583762851049281665,0,1583762849216985244,vo,base_link,0.403275477206,0.0235736756433,0.0,0.0,0.0,-0.00601604856822,0.999981903416
1583762851049608463,0,1583762849341868478,odom,base_link,0.422290107353,-0.00152346996627,0.0,0.0,0.0,-0.0018596021683,0.999998270938
1583762851049617357,0,1583762849341868478,chassis,left_wheel,0.0,0.195,-0.09,-0.682197827352,0.184953942917,0.185101285371,0.68274129618,0,1583762849341868478,chassis,right_wheel,0.0,-0.225,-0.09,-0.684548945255,0.176052771053,0.176193022442,0.685094287086
1583762851049631709,0,1583762849298294006,odom,base_link,0.412924185373,-0.00358281044205,0.0,0.00523484250801,-0.021609469179,-0.00534864811578,0.999738475417
1583762851049658364,0,1583762849317097641,vo,base_link,0.424101940052,0.0228022462657,0.0,0.0,0.0,-0.0062110687518,0.999980711126
1583762851049668236,0,1583762849441872040,odom,base_link,0.443827503194,-0.00160360725995,0.0,0.0,0.0,-0.00186122267368,0.999998267924
1583762851049673656,0,1583762849441872040,chassis,left_wheel,0.0,0.195,-0.09,-0.640056378951,0.299882757771,0.30012165758,0.640566276045,0,1583762849441872040,chassis,right_wheel,0.0,-0.225,-0.09,-0.643911304,0.291513411742,0.291745644162,0.644424272097
1583762851049961501,0,1583762849341868478,odom,base_link,0.42227576801,-0.00368501177212,0.0,0.00520621346965,-0.0216560060242,-0.00534508673198,0.999737636979
1583762851049997957,0,1583762849417517263,vo,base_link,0.444450122506,0.0254131381559,0.0,0.0,0.0,-0.00598814424344,0.999982070904
1583762851050085327,0,1583762849541868485,odom,base_link,0.465303909658,-0.0016846999795,0.0,0.0,0.0,-0.00191465510616,0.999998167046
1583762851052869945,0,1583762849541868485,chassis,left_wheel,0.0,0.195,-0.09,-0.578843336184,0.405638051469,0.405961200602,0.579304468273,0,1583762849541868485,chassis,right_wheel,0.0,-0.225,-0.09,-0.584231037888,0.39783907678,0.398156012906,0.584696462057
1583762851052967006,0,1583762849499294006,odom,base_link,0.456143990938,-0.00405515184159,0.0,0.00492928935965,-0.0225257587525,-0.00516578515639,0.999720764495
1583762851055533397,0,1583762849517718917,vo,base_link,0.464510738305,0.0251567135999,0.0,0.0,0.0,-0.00634429104511,0.999979874783
1583762851055568939,0,1583762849641858362,odom,base_link,0.486808999081,-0.00176637457796,0.0,0.0,0.0,-0.00188324384945,0.999998226695
1583762851055589496,0,1583762849641858362,chassis,left_wheel,0.0,0.195,-0.09,-0.500363892716,0.499237229692,0.499634944051,0.500762504625,0,1583762849641858362,chassis,right_wheel,0.0,-0.225,-0.09,-0.506905485476,0.492593813846,0.492986235768,0.507309308705
1583762851055600947,0,1583762849598294006,odom,base_link,0.477422327188,-0.00428088623447,0.0,0.004379507268,-0.0231354811132,-0.00534882413441,0.999708437251
1583762851055615965,0,1583762849617999277,vo,base_link,0.484912402961,0.0297248500202,0.0,0.0,0.0,-0.00636021026416,0.999979773658
1583762851055633371,0,1583762849741866275,chassis,left_wheel,0.0,0.195,-0.09,-0.406921090652,0.577942092797,0.578402506916,0.40724526191,0,1583762849741866275,chassis,right_wheel,0.0,-0.225,-0.09,-0.414213859684,0.572737911344,0.573194179582,0.414543840683
1583762851055665205,0,1583762849741866275,odom,base_link,0.508336902262,-0.0018458756548,0.0,0.0,0.0,-0.00180966899663,0.999998362548
1583762851055673842,0,1583762849641858362,odom,base_link,0.486791342875,-0.00438280295906,0.0,0.00434738587711,-0.0231675435222,-0.00535238676771,0.999707815874
1583762851055682402,0,1583762849718251314,vo,base_link,0.506401836586,0.0289732155352,0.0,0.0,0.0,-0.00635476488622,0.999979808278
1583762851055692387,0,1583762849841856408,odom,base_link,0.529770457558,-0.00192402535555,0.0,0.0,0.0,-0.00183645083879,0.999998313723
1583762851056399470,0,1583762849841856408,chassis,left_wheel,0.0,0.195,-0.09,-0.301582130318,0.639257424922,0.639766685534,0.301822383922,0,1583762849841856408,chassis,right_wheel,0.0,-0.225,-0.09,-0.309779722244,0.635325397203,0.635831525389,0.310026506411
1583762851056732981,0,1583762849798294006,odom,base_link,0.520413168655,-0.00474647714826,0.0,0.00376829536379,-0.024294141103,-0.00547075055746,0.99968278246
1583762851056741223,0,1583762849818549724,vo,base_link,0.527082697957,0.0300206056744,0.0,0.0,0.0,-0.00659903155844,0.999978226154
1583762851056792759,0,1583762849941876141,odom,base_link,0.551237836326,-0.00200304443843,0.0,0.0,0.0,-0.00184442153713,0.999998299053
1583762851056801915,0,1583762849941876141,chassis,left_wheel,0.0,0.195,-0.09,-0.187134785869,0.681602823177,0.682145817997,0.18728386568,0,1583762849941876141,chassis,right_wheel,0.0,-0.225,-0.09,-0.195924434873,0.679128450637,0.679669474264,0.196080516904
1583762851056813906,0,1583762849898294006,odom,base_link,0.54186315267,-0.00498586654737,0.0,0.00382904921925,-0.0246601165807,-0.00577585047489,0.999671874459
1583762851056843742,0,1583762849918674869,vo,base_link,0.546630304338,0.0308589360024,0.0,0.0,0.0,-0.00657496562721,0.99997838468
1583762851056852380,0,1583762850041860475,odom,base_link,0.572764666522,-0.00208258160502,0.0,0.0,0.0,-0.00185035185457,0.999998288098
1583762851056864831,0,1583762850041860475,chassis,left_wheel,0.0,0.195,-0.09,-0.0667778569558,0.703663665727,0.704224235187,0.066831055137,0,1583762850041860475,chassis,right_wheel,0.0,-0.225,-0.09,-0.075891731839,0.702739127759,0.703298960691,0.0759521905343
1583762851056875850,0,1583762849999294006,odom,base_link,0.5635780781,-0.00524122815048,0.0,0.00358481852104,-0.0250884726509,-0.00583718880509,0.99966176522
1583762851056887693,0,1583762850019166947,vo,base_link,0.567912481576,0.0295846207326,0.0,0.0,0.0,-0.00673961955444,0.999977288506
1583762851056896155,0,1583762850141882605,chassis,left_wheel,0.0,0.195,-0.09,0.0555000708866,0.704642873218,0.705204222757,-0.0555442846868,0,1583762850141882605,chassis,right_wheel,0.0,-0.225,-0.09,0.0460331801864,0.705324594046,0.705886486674,-0.0460698522446
1583762851056907699,0,1583762850141882605,odom,base_link,0.594250861735,-0.00216353157139,0.0,0.0,0.0,-0.00191716187349,0.999998162243
1583762851056919475,0,1583762850099294006,odom,base_link,0.585078908024,-0.00549659708619,0.0,0.00346251715206,-0.0253933639851,-0.0060202445871,0.999653412286
1583762851056950612,0,1583762850119260960,vo,base_link,0.589472618256,0.0317958210173,0.0,0.0,0.0,-0.00657236777208,0.999978401758
1583762851056962175,0,1583762850241876915,odom,base_link,0.615711558511,-0.00224511288712,0.0,0.0,0.0,-0.00188424655644,0.999998224806
1583762851056986587,0,1583762850241876915,chassis,left_wheel,0.0,0.195,-0.09,0.175737295944,0.684630001869,0.685175408274,-0.175877296012,0,1583762850241876915,chassis,right_wheel,0.0,-0.225,-0.09,0.166686661551,0.686889651622,0.687436858163,-0.166819451485
1583762851056997909,0,1583762850198294006,odom,base_link,0.60633307047,-0.00575775950093,0.0,0.00388976353073,-0.0253935928197,-0.0060812676222,0.999651465946
1583762851057029697,0,1583762850219568757,vo,base_link,0.610005479649,0.0288374324338,0.0,0.0,0.0,-0.00699746706043,0.999975517428
1583762851057048988,0,1583762850341855450,odom,base_link,0.637238397962,-0.00232614547805,0.0,0.0,0.0,-0.00187999205256,0.999998232813
1583762851057057851,0,1583762850341855450,chassis,left_wheel,0.0,0.195,-0.09,0.291155990238,0.64407299741,0.644586094319,-0.29138793792,0,1583762850341855450,chassis,right_wheel,0.0,-0.225,-0.09,0.282649856648,0.647850982234,0.648367088852,-0.282875027969
1583762851057072166,0,1583762850299294006,odom,base_link,0.628048039036,-0.00602576221523,0.0,0.00395084607064,-0.0253326391912,-0.00602024241086,0.999653142289
1583762851057188427,0,1583762850319732772,vo,base_link,0.631023962228,0.0319796168339,0.0,0.0,0.0,-0.00682803942033,0.999976688667
1583762851057283210,0,1583762850441856901,odom,base_link,0.658719834216,-0.00240540661152,0.0,0.0,0.0,-0.00180973929688,0.99999836242
1583762851057301611,0,1583762850441856901,chassis,left_wheel,0.0,0.195,-0.09,0.397503968193,0.58445909345,0.584924699298,-0.397820637356,0,1583762850441856901,chassis,right_wheel,0.0,-0.225,-0.09,0.390063684422,0.589450726304,0.589920308707,-0.390374426328
1583762851063576822,0,1583762850399294006,odom,base_link,0.649549123568,-0.00628900438419,0.0,0.00425615664529,-0.0251497852086,-0.00620335864627,0.999655386509
1583762851063590255,0,1583762850419917084,vo,base_link,0.651724385627,0.0257720028333,0.0,0.0,0.0,-0.00692318203118,0.999976034488
1583762851063598398,0,1583762850541880412,odom,base_link,0.680206969279,-0.00248281107559,0.0,0.0,0.0,-0.00179260634587,0.99999839328
1583762851063607942,0,1583762850541880412,chassis,left_wheel,0.0,0.195,-0.09,0.492143406209,0.507342787836,0.50774695944,-0.492535469316,0,1583762850541880412,chassis,right_wheel,0.0,-0.225,-0.09,0.485734635355,0.513481938009,0.51389100033,-0.486121592953
1583762851063615562,0,1583762850441856901,odom,base_link,0.658691454429,-0.00640386144839,0.0,0.00427066471586,-0.0251353015733,-0.00622148065027,0.999655576294
1583762851063626778,0,1583762850520199385,vo,base_link,0.672650240445,0.0350367608758,0.0,0.0,0.0,-0.00735608071907,0.999972943672
1583762851063663666,0,1583762850641850276,odom,base_link,0.701690420015,-0.00255942186317,0.0,0.0,0.0,-0.00177341399214,0.9999984275
1583762851063704723,0,1583762850641850276,chassis,left_wheel,0.0,0.195,-0.09,-0.572086471646,-0.415113123864,-0.415443821257,0.572542220919,0,1583762850641850276,chassis,right_wheel,0.0,-0.225,-0.09,-0.566886154493,-0.422187072859,-0.42252340567,0.567337760964
1583762851063715105,0,1583762850541880412,odom,base_link,0.680177009019,-0.006675722887,0.0,0.00451871883741,-0.0248802723926,-0.00650852939436,0.999659038008
1583762851063724019,0,1583762850620274603,vo,base_link,0.693681754279,0.0380446325623,0.0,0.0,0.0,-0.00670196393391,0.999977541588
1583762851063730936,0,1583762850741850846,odom,base_link,0.723130043993,-0.00263812216544,0.0,0.0,0.0,-0.00189735488533,0.999998200021
1583762851063783123,0,1583762850741850846,chassis,left_wheel,0.0,0.195,-0.09,-0.635017075066,-0.310411261103,-0.310658548381,0.635522957629,0,1583762850741850846,chassis,right_wheel,0.0,-0.225,-0.09,-0.630835883326,-0.318822717121,-0.319076705336,0.631338434968
1583762851063790958,0,1583762850698294006,odom,base_link,0.713758986162,-0.00712016865085,0.0,0.00486680366393,-0.024355533687,-0.00681336756989,0.999668295098
1583762851063801546,0,1583762850720417406,vo,base_link,0.71420569501,0.0513535844287,0.0,0.0,0.0,-0.00717084612165,0.999974289152
1583762851063848724,0,1583762850841870385,odom,base_link,0.744676488453,-0.00271706867338,0.0,0.0,0.0,-0.00176664222967,0.999998439486
1583762851063876406,0,1583762850841870385,chassis,left_wheel,0.0,0.195,-0.09,-0.678973930315,-0.196459254294,-0.196615762386,0.679514830844,0,1583762850841870385,chassis,right_wheel,0.0,-0.225,-0.09,-0.676491017113,-0.20484565021,-0.205008839274,0.677029939644
1583762851063887036,0,1583762850741850846,odom,base_link,0.723096508861,-0.00725090329936,0.0,0.00488851424095,-0.024351928078,-0.00682060463519,0.999668227653
1583762851063930225,0,1583762850820692689,vo,base_link,0.734520963868,0.0521319108774,0.0,0.0,0.0,-0.00767490988345,0.999970547445
1583762851063960229,0,1583762850941879628,chassis,left_wheel,0.0,0.195,-0.09,-0.702653484672,-0.0766806176521,-0.0767417048085,0.703213249376,0,1583762850941879628,chassis,right_wheel,0.0,-0.225,-0.09,-0.701644417487,-0.0854221754211,-0.0854902264873,0.702203378325
1583762851063968895,0,1583762850941879628,odom,base_link,0.766154443447,-0.00279318832792,0.0,0.0,0.0,-0.00177742404774,0.999998420381
1583762851063976955,0,1583762850841870385,odom,base_link,0.744641057916,-0.00754739517609,0.0,0.00524737266448,-0.02426610472,-0.00694615848415,0.999667630827
1583762851064017850,0,1583762850920850233,vo,base_link,0.75522083983,0.0599600047412,0.0,0.0,0.0,-0.00763974748016,0.999970816703
1583762851064051490,0,1583762851041867072,odom,base_link,0.787622885663,-0.00287065795595,0.0,0.0,0.0,-0.00183109346527,0.999998323547
1583762851064070451,0,1583762851041867072,chassis,left_wheel,0.0,0.195,-0.09,-0.705363183436,0.0454380468123,0.0454742447611,0.705925106806,0,1583762851041867072,chassis,right_wheel,0.0,-0.225,-0.09,-0.705887919189,0.0363879401419,0.0364169283773,0.706450260587
1583762851064082324,0,1583762850998294006,odom,base_link,0.778228659157,-0.00802358567292,0.0,0.00572162197213,-0.023867954662,-0.00705753154863,0.999673834323
1583762851099898169,0,1583762851021091035,vo,base_link,0.777329929098,0.0603891152946,0.0,0.0,0.0,-0.00754409566934,0.999971542905
1583762851142891408,0,1583762851141883676,odom,base_link,0.809087514935,-0.00295078608007,0.0,0.0,0.0,-0.00190191791474,0.999998191352
1583762851143467872,0,1583762851141883676,chassis,left_wheel,0.0,0.195,-0.09,-0.687002735058,0.166219970722,0.16635238887,0.687550031687,0,1583762851141883676,chassis,right_wheel,0.0,-0.225,-0.09,-0.689156018917,0.157053552126,0.157178667901,0.689705030946
1583762851165806730,0,1583762851041867072,odom,base_link,0.78758337709,-0.00815880914756,0.0,0.00573253350244,-0.0238570600857,-0.00707207098683,0.999673929117
1583762851200284465,0,1583762851121323169,vo,base_link,0.797774029721,0.0610840576255,0.0,0.0,0.0,-0.00769658585257,0.999970380844
1583762851243224043,0,1583762851241835845,odom,base_link,0.830572680897,-0.00303323907576,0.0,0.0,0.0,-0.00193573176729,0.99999812647
1583762851244168022,0,1583762851241835845,chassis,left_wheel,0.0,0.195,-0.09,-0.648108295297,0.282059345194,0.282284046088,0.648624606903,0,1583762851241835845,chassis,right_wheel,0.0,-0.225,-0.09,-0.651872878941,0.273246383957,0.273464064058,0.652392189579
1583762851322689800,0,1583762851221687557,vo,base_link,0.819723384207,0.0624314800017,0.0,0.0,0.0,-0.00757721601656,0.999971292487
1583762851343118735,0,1583762851341854831,odom,base_link,0.852029378236,-0.00311781943108,0.0,0.0,0.0,-0.00200615458508,0.99999798767
1583762851343547486,0,1583762851341854831,chassis,left_wheel,0.0,0.195,-0.09,-0.589883225225,0.389409318382,0.389719538991,0.590353152176,0,1583762851341854831,chassis,right_wheel,0.0,-0.225,-0.09,-0.595296654332,0.381082313924,0.381385900875,0.595770893859
1583762851418960093,0,1583762851321749335,vo,base_link,0.841237684917,0.0668476036594,0.0,0.0,0.0,-0.00806190583898,0.999967502309
1583762851443636263,0,1583762851441895059,odom,base_link,0.873534625885,-0.00320332567183,0.0,0.0,0.0,-0.00196988583214,0.999998059773
1583762851443917523,0,1583762851441895059,chassis,left_wheel,0.0,0.195,-0.09,-0.514040519715,0.485143464076,0.485529950721,0.514450027027,0,1583762851441895059,chassis,right_wheel,0.0,-0.225,-0.09,-0.52068520091,0.478004977169,0.478385776981,0.521100001668
1583762851465774365,0,1583762851341854831,odom,base_link,0.851983474601,-0.0090994547864,0.0,0.00585468369619,-0.0236740775841,-0.00754941711559,0.999674080403
1583762851524143000,0,1583762851422055819,vo,base_link,0.863304802349,0.0707359863021,0.0,0.0,0.0,-0.00769434488026,0.99997039809
1583762851543621150,0,1583762851541908898,chassis,left_wheel,0.0,0.195,-0.09,-0.422832054448,0.566405235124,0.566856458474,0.423168901081,0,1583762851541908898,chassis,right_wheel,0.0,-0.225,-0.09,-0.43055502451,0.560557051078,0.561003615507,0.430898023601
1583762851543639076,0,1583762851541908898,odom,base_link,0.89503365426,-0.00328774500113,0.0,0.0,0.0,-0.00195674934903,0.999998085564
1583762851583633852,0,1583762851498294006,odom,base_link,0.885608577354,-0.00961526943993,0.0,0.00608812084767,-0.0234410243939,-0.00772891057168,0.999676806324
1583762851618151899,0,1583762851522274782,vo,base_link,0.884184001401,0.0673128312016,0.0,0.0,0.0,-0.00795346931187,0.999968370663
1583762851643541253,0,1583762851641873703,odom,base_link,0.916527809581,-0.00337166147989,0.0,0.0,0.0,-0.00194738169926,0.99999810385
1583762851644133308,0,1583762851641873703,chassis,left_wheel,0.0,0.195,-0.09,-0.319010573791,0.630740905962,0.63124338194,0.319264711661,0,1583762851641873703,chassis,right_wheel,0.0,-0.225,-0.09,-0.327583931236,0.626331066323,0.626830029228,0.327844899019
1583762851653547999,0,1583762851605005067,odom,base_link,0.908548154163,-0.00997642664959,0.0,0.00578285723853,-0.023562834152,-0.00791198709007,0.999674322902
1583762851691579636,0,1583762851622598881,vo,base_link,0.905143191481,0.0695492132193,0.0,0.0,0.0,-0.00817329604006,0.999966598058
1583762851743436314,0,1583762851741862008,odom,base_link,0.938034331546,-0.00345478394278,0.0,0.0,0.0,-0.00191758528099,0.999998161432
1583762851743474628,0,1583762851741862008,chassis,left_wheel,0.0,0.195,-0.09,-0.205644592225,0.676248577324,0.676787306717,0.205808417762,0,1583762851741862008,chassis,right_wheel,0.0,-0.225,-0.09,-0.21470865937,0.673425592205,0.673962072683,0.214879705742
1583762851754878661,0,1583762851705005067,odom,base_link,0.930051870031,-0.0103226039216,0.0,0.00578299863453,-0.0233798217278,-0.00797304882887,0.999678133879
1583762851793342422,0,1583762851722839999,vo,base_link,0.926546235729,0.0716449675641,0.0,0.0,0.0,-0.00820335106616,0.99996635195
1583762851843272988,0,1583762851841871143,odom,base_link,0.959548192447,-0.00353582795331,0.0,0.0,0.0,-0.00184945493433,0.999998289757
1583762851843394469,0,1583762851841871143,chassis,left_wheel,0.0,0.195,-0.09,-0.0861889134183,0.701550645248,0.702109531383,0.0862575753017,0,1583762851841871143,chassis,right_wheel,0.0,-0.225,-0.09,-0.095269373373,0.700375315914,0.700933265729,0.0953452691507
1583762851854668819,0,1583762851741862008,odom,base_link,0.937978462634,-0.0104510256594,0.0,0.00578299864196,-0.0233798217259,-0.00797304851156,0.999678133881
1583762851921374299,0,1583762851823074093,vo,base_link,0.947588757278,0.0710718208958,0.0,0.0,0.0,-0.00811507152078,0.999967072265
1583762851943234007,0,1583762851941880948,odom,base_link,0.981044119484,-0.00361481298251,0.0,0.0,0.0,-0.00182494483151,0.999998334787
1583762851943753074,0,1583762851941880948,chassis,left_wheel,0.0,0.195,-0.09,0.0358448150952,0.705915707344,0.706478070879,-0.0358733706532,0,1583762851941880948,chassis,right_wheel,0.0,-0.225,-0.09,0.0268188300001,0.706316208933,0.706878891526,-0.0268401950609
1583762851979789766,0,1583762851904005067,odom,base_link,0.972842981764,-0.0110135526975,0.0,0.00584412107286,-0.0232578281527,-0.00809512267619,0.999679643019
1583762852018649794,0,1583762851923258025,vo,base_link,0.968654072656,0.0690794499255,0.0,0.0,0.0,-0.00820234062445,0.999966360238
1583762852042634333,0,1583762852041848110,odom,base_link,1.00251199461,-0.00369416504017,0.0,0.0,0.0,-0.00187135257254,0.999998249018
1583762852043188469,0,1583762852041848110,chassis,left_wheel,0.0,0.195,-0.09,0.156824237841,0.689208237814,0.689757291443,-0.156949170934,0,1583762852041848110,chassis,right_wheel,0.0,-0.225,-0.09,0.147777255209,0.691204542438,0.691755186412,-0.147894981077
1583762852053159013,0,1583762852005005067,odom,base_link,0.994537020725,-0.0113707170693,0.0,0.006027409961,-0.0230139159893,-0.00809516007282,0.999684199327
1583762852097665639,0,1583762852023638539,vo,base_link,0.990067632192,0.0707480712132,0.0,0.0,0.0,-0.00878621556274,0.999961400463
1583762852142915632,0,1583762852141877167,odom,base_link,1.02401785175,-0.00377368369564,0.0,0.0,0.0,-0.00182616328215,0.999998332562
1583762852143395586,0,1583762852141877167,chassis,left_wheel,0.0,0.195,-0.09,0.273112040094,0.651929175755,0.652448531241,-0.273329613171,0,1583762852141877167,chassis,right_wheel,0.0,-0.225,-0.09,0.264751137647,0.655369111081,0.655891206972,-0.264962050061
1583762852154912150,0,1583762852041848110,odom,base_link,1.00244801183,-0.011501475277,0.0,0.00602740994963,-0.0230139159923,-0.00809516056691,0.999684199323
1583762852190664667,0,1583762852123818410,vo,base_link,1.01105613861,0.0785680256072,0.0,0.0,0.0,-0.00860714853562,0.999962957811
1583762852242772728,0,1583762852241863646,odom,base_link,1.04549178754,-0.00385291813712,0.0,0.0,0.0,-0.00186361383862,0.99999826347
1583762852244340354,0,1583762852241863646,chassis,left_wheel,0.0,0.195,-0.09,0.381267032114,0.595178365591,0.595652510884,-0.381570766219,0,1583762852241863646,chassis,right_wheel,0.0,-0.225,-0.09,0.373465755815,0.600104295834,0.600582365339,-0.373763275081
1583762852253205832,0,1583762852141877167,odom,base_link,1.02395111137,-0.0118549229019,0.0,0.00572234395946,-0.0228917535933,-0.00809519671309,0.99968879667
1583762852322436512,0,1583762852224026287,vo,base_link,1.0327600178,0.0834386562235,0.0,0.0,0.0,-0.00870773217646,0.999962086981
1583762852342266379,0,1583762852341860451,odom,base_link,1.06695742449,-0.0039329237023,0.0,0.0,0.0,-0.00186351285133,0.999998263658
1583762852342871179,0,1583762852341860451,chassis,left_wheel,0.0,0.195,-0.09,0.477934100022,0.520750259415,0.521165112001,-0.478314843371,0,1583762852341860451,chassis,right_wheel,0.0,-0.225,-0.09,0.471096462706,0.52694398134,0.527363768118,-0.471471758891
1583762852381298817,0,1583762852305005067,odom,base_link,1.05897465066,-0.012433466463,0.0,0.00553915874102,-0.0230136972584,-0.00791209699025,0.999688494572
1583762852418474962,0,1583762852324307890,vo,base_link,1.05451233656,0.0861753805971,0.0,0.0,0.0,-0.00859513517493,0.999963061143
1583762852443012888,0,1583762852441852349,chassis,left_wheel,0.0,0.195,-0.09,-0.560522855789,-0.430599541085,-0.43094257564,0.560969392976,0,1583762852441852349,chassis,right_wheel,0.0,-0.225,-0.09,-0.5547876847,-0.437963995723,-0.438312897127,0.555229652998
1583762852443732914,0,1583762852441852349,odom,base_link,1.08845969949,-0.00401353447058,0.0,0.0,0.0,-0.00188540876049,0.999998222615
1583762852456607131,0,1583762852341860451,odom,base_link,1.066885177,-0.0125607719761,0.0,0.00553915874104,-0.0230136972584,-0.00791209698917,0.999688494572
1583762852493457569,0,1583762852424408591,vo,base_link,1.07479239661,0.0845894741639,0.0,0.0,0.0,-0.00865763758295,0.999962521953
1583762852543315920,0,1583762852541855560,chassis,left_wheel,0.0,0.195,-0.09,-0.626145652704,-0.32793819272,-0.328199442724,0.626644467901,0,1583762852541855560,chassis,right_wheel,0.0,-0.225,-0.09,-0.622036629068,-0.33566690147,-0.335934308504,0.622532170836
1583762852544100694,0,1583762852541855560,odom,base_link,1.10994860761,-0.00409204334586,0.0,0.0,0.0,-0.00176803336538,0.999998437028
1583762852552912004,0,1583762852504005067,odom,base_link,1.10173867281,-0.0131223538452,0.0,0.00498971567219,-0.0231963892878,-0.00803414298525,0.999686192166
1583762852591419880,0,1583762852524707244,vo,base_link,1.09564041853,0.0828910423154,0.0,0.0,0.0,-0.00839141484196,0.999964791459
1583762852643330650,0,1583762852641864948,odom,base_link,1.13146080092,-0.0041683704824,0.0,0.0,0.0,-0.00178003703088,0.999998415733
1583762852643702523,0,1583762852641864948,chassis,left_wheel,0.0,0.195,-0.09,-0.673300398537,-0.21510092974,-0.215272288612,0.673836779281,0,1583762852641864948,chassis,right_wheel,0.0,-0.225,-0.09,-0.670566288715,-0.223478609901,-0.223656642802,0.671100491347
1583762852653087351,0,1583762852541855560,odom,base_link,1.10987106412,-0.013254074079,0.0,0.00498971570197,-0.0231963892814,-0.00803414170174,0.999686192177
1583762852718296767,0,1583762852625049690,vo,base_link,1.11573375784,0.0904618430525,0.0,0.0,0.0,-0.00867604732614,0.999962362393
1583762852743300087,0,1583762852741852627,odom,base_link,1.15290596489,-0.0042450554042,0.0,0.0,0.0,-0.00179580665074,0.999998387538
1583762852743488192,0,1583762852741852627,chassis,left_wheel,0.0,0.195,-0.09,-0.700249034408,-0.0961931726004,-0.0962698043172,0.700806883622,0,1583762852741852627,chassis,right_wheel,0.0,-0.225,-0.09,-0.698983724313,-0.104993284499,-0.105076926772,0.699540565525
1583762852754908789,0,1583762852641864948,odom,base_link,1.13138052633,-0.0136052461082,0.0,0.00505094114383,-0.0229524360489,-0.00791212652234,0.999692488682
1583762852791147755,0,1583762852725231522,vo,base_link,1.13668902764,0.0908022188152,0.0,0.0,0.0,-0.00893976381148,0.999960039513
1583762852842742539,0,1583762852841850868,odom,base_link,1.17443047359,-0.00432255828711,0.0,0.0,0.0,-0.00180485653693,0.999998371245
1583762852842924422,0,1583762852841850868,chassis,left_wheel,0.0,0.195,-0.09,-0.706346406824,0.0260113477512,0.0260320695361,0.706909113473,0,1583762852841850868,chassis,right_wheel,0.0,-0.225,-0.09,-0.706618785018,0.0170800850288,0.0170936917766,0.707181708655
1583762852853871955,0,1583762852741852627,odom,base_link,1.15282305338,-0.0139501699013,0.0,0.00474604229094,-0.0225862048598,-0.0081563237153,0.999700361516
1583762852916405477,0,1583762852825475486,vo,base_link,1.15775678153,0.0909373969154,0.0,0.0,0.0,-0.0090329420653,0.999959202147
1583762852942921378,0,1583762852941876099,odom,base_link,1.19558654948,-0.00439688518567,0.0,0.0,0.0,-0.00170839208293,0.999998540697
1583762852943232098,0,1583762852941876099,chassis,left_wheel,0.0,0.195,-0.09,-0.691765298623,0.145129625735,0.145245242385,0.692316389319,0,1583762852941876099,chassis,right_wheel,0.0,-0.225,-0.09,-0.693452359092,0.136841741854,0.136950756011,0.694004793775
1583762852964973813,0,1583762852841850868,odom,base_link,1.17434475428,-0.0143063600662,0.0,0.00456307594615,-0.022403079437,-0.00821739442388,0.999704833838
1583762852993998688,0,1583762852925789036,vo,base_link,1.17719781201,0.0948106021844,0.0,0.0,0.0,-0.0083667348447,0.999964998261
1583762853043620295,0,1583762853041876750,odom,base_link,1.21498263183,-0.00445823422163,0.0,0.0,0.0,-0.00145455619793,0.999998942133
1583762853044080700,0,1583762853041876750,chassis,left_wheel,0.0,0.195,-0.09,-0.66100004852,0.25036128395,0.250560732773,0.661526630263,0,1583762853041876750,chassis,right_wheel,0.0,-0.225,-0.09,-0.663516406309,0.243614070209,0.243808143904,0.664044992693
1583762853053784714,0,1583762853005005067,odom,base_link,1.20774090881,-0.0148572981878,0.0,0.00407489984929,-0.022280853636,-0.00791227605353,0.999712135887
1583762853096229265,0,1583762853026116309,vo,base_link,1.19467441331,0.0923668992872,0.0,0.0,0.0,-0.00809002202464,0.999967275236
1583762853143502123,0,1583762853141884916,odom,base_link,1.23181637695,-0.00450272686253,0.0,0.0,0.0,-0.00118849938014,0.999999293734
1583762853143714971,0,1583762853141884916,chassis,left_wheel,0.0,0.195,-0.09,-0.62142601219,0.336796003565,0.337064310092,0.621921067514,0,1583762853141884916,chassis,right_wheel,0.0,-0.225,-0.09,-0.624208129544,0.33161129,0.331875466155,0.624705401225
1583762853154474766,0,1583762853104005067,odom,base_link,1.2253480727,-0.0151349079359,0.0,0.00376951683123,-0.0225858145771,-0.00730191826618,0.999711135135
1583762853192488418,0,1583762853126566446,vo,base_link,1.20749426202,0.0913709876104,0.0,0.0,0.0,-0.00734811626534,0.999973002229
1583762853242934257,0,1583762853241863745,odom,base_link,1.24579247957,-0.00453237210973,0.0,0.0,0.0,-0.000932635370273,0.999999565096
1583762853243264289,0,1583762853241863745,chassis,left_wheel,0.0,0.195,-0.09,-0.580042024128,0.403922129736,0.40424391189,0.580504111144,0,1583762853241863745,chassis,right_wheel,0.0,-0.225,-0.09,-0.582668221706,0.400124455711,0.400443212471,0.583132400867
1583762853253789538,0,1583762853141884916,odom,base_link,1.23172354049,-0.0152274825972,0.0,0.00376951689701,-0.0225858145661,-0.00730191535462,0.999711135156
1583762853323639612,0,1583762853226699648,vo,base_link,1.21782704842,0.0922011902957,0.0,0.0,0.0,-0.00695631975962,0.999975804515
1583762853343492913,0,1583762853341885242,odom,base_link,1.25679460104,-0.0045499881146,0.0,0.0,0.0,-0.00066850926707,0.999999776548
1583762853343634957,0,1583762853341885242,chassis,left_wheel,0.0,0.195,-0.09,-0.54245604209,0.453148186629,0.453509184427,0.542888186458,0,1583762853341885242,chassis,right_wheel,0.0,-0.225,-0.09,-0.544571916764,0.450603222488,0.450962192856,0.545005746731
1583762853355047888,0,1583762853241863745,odom,base_link,1.24569819933,-0.0154305432058,0.0,0.00346385414653,-0.0232567112068,-0.00711871319002,0.999698179963
1583762853394599833,0,1583762853327184668,vo,base_link,1.22475589117,0.0952143412938,0.0,0.0,0.0,-0.00599781777252,0.999982012929
1583762853442631675,0,1583762853441880647,odom,base_link,1.26477351828,-0.00455859337436,0.0,0.0,0.0,-0.000409989942293,0.999999915954
1583762853443231997,0,1583762853441880647,chassis,left_wheel,0.0,0.195,-0.09,-0.512688932339,0.486571572641,0.48695919698,0.513097362917,0,1583762853441880647,chassis,right_wheel,0.0,-0.225,-0.09,-0.514084093876,0.485097290313,0.485483740174,0.514493635901
1583762853454850819,0,1583762853341885242,odom,base_link,1.25669923408,-0.0155861761087,0.0,0.00297496449018,-0.0241104785457,-0.00687445558529,0.999681237331
1583762853517895864,0,1583762853427325278,vo,base_link,1.22899850121,0.0908164999996,0.0,0.0,0.0,-0.00537589882851,0.999985549751
1583762853543209326,0,1583762853541851014,odom,base_link,1.2697226603,-0.0045613187611,0.0,0.0,0.0,-0.000140688617013,0.999999990103
1583762853543532098,0,1583762853541851014,chassis,left_wheel,0.0,0.195,-0.09,-0.493377289213,0.506142951283,0.506546167044,0.493770335286,0,1583762853541851014,chassis,right_wheel,0.0,-0.225,-0.09,-0.493875813293,0.505656521454,0.506059349704,0.494269256512
1583762853572303372,0,1583762853441880647,odom,base_link,1.26467741307,-0.0156950534953,0.0,0.00279134918467,-0.0248424605256,-0.00614198132637,0.999668613387
1583762853601169396,0,1583762853527653983,vo,base_link,1.23064738103,0.0875381050324,0.0,0.0,0.0,-0.00473563400699,0.999988786822
1583762853643881052,0,1583762853641890364,odom,base_link,1.27195131204,-0.0045615636993,0.0,0.0,0.0,3.07844127801e-05,0.999999999526
1583762853643986845,0,1583762853641890364,chassis,left_wheel,0.0,0.195,-0.09,-0.484525963314,0.514622606887,0.515032577915,0.484911958031,0,1583762853641890364,chassis,right_wheel,0.0,-0.225,-0.09,-0.484414987969,0.514727069499,0.515137123747,0.484800894278
1583762853657505068,0,1583762853541851014,odom,base_link,1.26962618965,-0.015755257957,0.0,0.0024857352148,-0.0256978751723,-0.00540984284273,0.999652026423
1583762853716074280,0,1583762853627807558,vo,base_link,1.23001007965,0.0875998119762,0.0,0.0,0.0,-0.00438546050618,0.999990383822
1583762853743068330,0,1583762853741852054,odom,base_link,1.27291553284,-0.00456142894444,0.0,0.0,0.0,0.000108970774571,0.999999994063
1583762853743140485,0,1583762853741852054,chassis,left_wheel,0.0,0.195,-0.09,-0.480658398957,0.518236760715,0.518649610938,0.481041312602,0,1583762853741852054,chassis,right_wheel,0.0,-0.225,-0.09,-0.480262709391,0.518603477247,0.519016619612,0.480645307812
1583762853760812363,0,1583762853704005067,odom,base_link,1.27245382688,-0.0157856463948,0.0,0.00266775272538,-0.027222921368,-0.00443312554255,0.999615997794
1583762853794686902,0,1583762853728073765,vo,base_link,1.23046788489,0.090510878892,0.0,0.0,0.0,-0.00369025096999,0.999993191001
1583762853842549341,0,1583762853841868765,odom,base_link,1.27334416154,-0.00456132329858,0.0,0.0,0.0,0.000137503276326,0.999999990546
1583762853843541557,0,1583762853841868765,chassis,left_wheel,0.0,0.195,-0.09,-0.478919136623,0.519844493307,0.520258624319,0.479300664694,0,1583762853841868765,chassis,right_wheel,0.0,-0.225,-0.09,-0.478418247329,0.520305503783,0.520720002057,0.478799376371
1583762853902750180,0,1583762853741852054,odom,base_link,1.27281888432,-0.0157889113468,0.0,0.00266775274867,-0.0272229213657,-0.00443312468737,0.999615997798
1583762853922336115,0,1583762853828411570,vo,base_link,1.23045949685,0.0896125773088,0.0,0.0,0.0,-0.00355193863366,0.999993691846
1583762853943916774,0,1583762853941878343,odom,base_link,1.27353350485,-0.0045612672498,0.0,0.0,0.0,0.000158513426781,0.999999987437
1583762853943987391,0,1583762853941878343,chassis,left_wheel,0.0,0.195,-0.09,-0.478164442343,0.520538761979,0.520953446077,0.478545369193,0,1583762853941878343,chassis,right_wheel,0.0,-0.225,-0.09,-0.477586208985,0.521069332845,0.521484439619,0.477966675188
1583762853983825629,0,1583762853841868765,odom,base_link,1.2732474957,-0.0157927659709,0.0,0.00272843617186,-0.0277109102867,-0.00400585084636,0.999604228806
1583762853995895143,0,1583762853928554316,vo,base_link,1.22879997193,0.095216452094,0.0,0.0,0.0,-0.00388908455276,0.999992437482
1583762854043712951,0,1583762854041866125,odom,base_link,1.27362176645,-0.00456123864775,0.0,0.0,0.0,0.000165546465549,0.999999986297
1583762854043729587,0,1583762854041866125,chassis,left_wheel,0.0,0.195,-0.09,-0.477807264697,0.520866637871,0.52128158317,0.478187907002,0,1583762854041866125,chassis,right_wheel,0.0,-0.225,-0.09,-0.477202982273,0.521420320235,0.521835706621,0.477583143181
1583762854055854717,0,1583762854003005067,odom,base_link,1.27349078894,-0.015794747969,0.0,0.00278955685952,-0.027588957794,-0.00412792466427,0.99960693676
1583762854100880335,0,1583762854028720756,vo,base_link,1.2291126699,0.0960612903666,0.0,0.0,0.0,-0.00387533453674,0.999992490863
1583762854142765603,0,1583762854141861430,odom,base_link,1.27366243864,-0.00456122506706,0.0,0.0,0.0,0.000168359681054,0.999999985828
1583762854144160278,0,1583762854141861430,chassis,left_wheel,0.0,0.195,-0.09,-0.477641816097,0.521018360674,0.521433426842,0.478022326599,0,1583762854141861430,chassis,right_wheel,0.0,-0.225,-0.09,-0.477027080446,0.521581250781,0.521996765371,0.477407101222
1583762854168708431,0,1583762854109508073,odom,base_link,1.27355260311,-0.0157952680026,0.0,0.00272870110447,-0.0273449704432,-0.00412795297829,0.999613808821
1583762854225869392,0,1583762854128944207,vo,base_link,1.22828882043,0.0993176251716,0.0,0.0,0.0,-0.0039526522482,0.99999218824
1583762854242469081,0,1583762854241851915,odom,base_link,1.2736801985,-0.00456121907916,0.0,0.0,0.0,0.000168799456559,0.999999985753
1583762854243193071,0,1583762854241851915,chassis,left_wheel,0.0,0.195,-0.09,-0.477568117234,0.521085914266,0.521501034249,0.477948569024,0,1583762854241851915,chassis,right_wheel,0.0,-0.225,-0.09,-0.476951695133,0.521650186576,0.522065756083,0.477331655854
1583762854255051310,0,1583762854141861430,odom,base_link,1.27356576209,-0.0157953786961,0.0,0.00272870110519,-0.0273449704431,-0.00412795295199,0.999613808821
1583762854316792976,0,1583762854229181457,vo,base_link,1.22883011559,0.0946628681421,0.0,0.0,0.0,-0.00372553365367,0.999993060175
1583762854342695972,0,1583762854341886524,odom,base_link,1.27368760064,-0.00456121657383,0.0,0.0,0.0,0.000169660877458,0.999999985608
1583762854342919659,0,1583762854341886524,chassis,left_wheel,0.0,0.195,-0.09,-0.477538635014,0.521112932783,0.521528074291,0.477919063317,0,1583762854341886524,chassis,right_wheel,0.0,-0.225,-0.09,-0.476919033377,0.521680047776,0.522095641072,0.477298968079
1583762854354999325,0,1583762854241851915,odom,base_link,1.27358352132,-0.015795528129,0.0,0.0027289669572,-0.0269790357252,-0.00412799402811,0.999623751236
1583762854418907399,0,1583762854329495761,vo,base_link,1.22840494023,0.0988349163318,0.0,0.0,0.0,-0.00415529425471,0.999991366728
1583762854443365266,0,1583762854441892364,chassis,left_wheel,0.0,0.195,-0.09,-0.477526841697,0.521123739723,0.52153888984,0.477907260606,0,1583762854441892364,chassis,right_wheel,0.0,-0.225,-0.09,-0.476905968151,0.521691991683,0.522107594495,0.477285892444
1583762854443679563,0,1583762854441892364,odom,base_link,1.2736905615,-0.00456121556812,0.0,0.0,0.0,0.000170005445817,0.999999985549
1583762854462978315,0,1583762854341886524,odom,base_link,1.2735909232,-0.0157955903922,0.0,0.00260716320415,-0.0266130193145,-0.00412803598681,0.999633887592
1583762854500455326,0,1583762854429665727,vo,base_link,1.22873666532,0.0944678917435,0.0,0.0,0.0,-0.00366393793218,0.999993287757
1583762854542489189,0,1583762854541850369,odom,base_link,1.27369174584,-0.00456121516527,0.0,0.0,0.0,0.000170143273161,0.999999985526
1583762854543744558,0,1583762854541850369,chassis,left_wheel,0.0,0.195,-0.09,-0.477522124303,0.521128062424,0.521543215985,0.477902539453,0,1583762854541850369,chassis,right_wheel,0.0,-0.225,-0.09,-0.476900741977,0.521696769155,0.522112375772,0.477280662107
1583762854554024862,0,1583762854441892364,odom,base_link,1.27359388396,-0.0157956152734,0.0,0.00260738318613,-0.0263080563983,-0.00412806933414,0.999641959286
1583762854596911447,0,1583762854529690207,vo,base_link,1.22867165404,0.0946094451058,0.0,0.0,0.0,-0.00378853447523,0.999992823478
1583762854642691089,0,1583762854641856026,odom,base_link,1.27369221958,-0.00456121500404,0.0,0.0,0.0,0.000170198404099,0.999999985516
1583762854644308098,0,1583762854641856026,chassis,left_wheel,0.0,0.195,-0.09,-0.477520237334,0.521129791493,0.521544946431,0.477900650981,0,1583762854641856026,chassis,right_wheel,0.0,-0.225,-0.09,-0.476898651494,0.521698680128,0.522114288268,0.477278569958
1583762854654910553,0,1583762854608508073,odom,base_link,1.27359538401,-0.015795627877,0.0,0.00254682882386,-0.0256370629487,-0.0042502095802,0.999659037065
1583762854718597508,0,1583762854629728742,vo,base_link,1.22832358367,0.0965205524107,0.0,0.0,0.0,-0.00382794693175,0.999992673384
1583762854743223146,0,1583762854741848373,odom,base_link,1.27369240907,-0.00456121493953,0.0,0.0,0.0,0.000170220456474,0.999999985512
1583762854743501897,0,1583762854741848373,chassis,left_wheel,0.0,0.195,-0.09,-0.477519482544,0.521130483118,0.521545638607,0.47789989559,0,1583762854741848373,chassis,right_wheel,0.0,-0.225,-0.09,-0.476897815299,0.521699444516,0.522115053264,0.477277733097
1583762854756585133,0,1583762854641856026,odom,base_link,1.27359554198,-0.0157956292418,0.0,0.00254682882388,-0.0256370629487,-0.00425020957967,0.999659037065
1583762854797003744,0,1583762854729936117,vo,base_link,1.22774374272,0.0978238842033,0.0,0.0,0.0,-0.00389245763431,0.999992424358
1583762854843255862,0,1583762854841848637,odom,base_link,1.27369248487,-0.00456121491372,0.0,0.0,0.0,0.000170229277424,0.999999985511
1583762854843337630,0,1583762854841848637,chassis,left_wheel,0.0,0.195,-0.09,-0.477519180628,0.521130759768,0.521545915478,0.477899593433,0,1583762854841848637,chassis,right_wheel,0.0,-0.225,-0.09,-0.47689748082,0.52169975027,0.522115359262,0.477277398352
1583762854898609396,0,1583762854741848373,odom,base_link,1.27359573146,-0.0157956308789,0.0,0.00254700383495,-0.0253930747101,-0.00425023607321,0.999665263987
1583762854901468064,0,1583762854830308438,vo,base_link,1.22763992977,0.0971509674058,0.0,0.0,0.0,-0.00389825826253,0.999992401762
1583762854942523099,0,1583762854941880955,odom,base_link,1.27369251519,-0.0045612149034,0.0,0.0,0.0,0.000170232805804,0.99999998551
1583762854943241285,0,1583762854941880955,chassis,left_wheel,0.0,0.195,-0.09,-0.477519059862,0.521130870428,0.521546026226,0.477899472571,0,1583762854941880955,chassis,right_wheel,0.0,-0.225,-0.09,-0.476897347029,0.521699872572,0.522115481662,0.477277264454
1583762854954091476,0,1583762854909508073,odom,base_link,1.27359582769,-0.0157956377897,0.0,0.00248616373037,-0.0249035224318,-0.00431105196627,0.999677472184
1583762855005676768,0,1583762854930618386,vo,base_link,1.22729015768,0.0932088169242,0.0,0.0,0.0,-0.003973358178,0.999992106181
1583762855042814991,0,1583762855041848705,odom,base_link,1.27369252732,-0.00456121489927,0.0,0.0,0.0,0.000170234217156,0.99999998551
1583762855043089664,0,1583762855041848705,chassis,left_wheel,0.0,0.195,-0.09,-0.477519011555,0.521130914692,0.521546070525,0.477899424226,0,1583762855041848705,chassis,right_wheel,0.0,-0.225,-0.09,-0.476897293512,0.521699921493,0.522115530621,0.477277210895
1583762855053266630,0,1583762855008508073,odom,base_link,1.27359584563,-0.0157956342635,0.0,0.00248633853977,-0.0246595404106,-0.00425004659552,0.999683781148
1583762855103132782,0,1583762855030867053,vo,base_link,1.22732903992,0.092271492078,0.0,0.0,0.0,-0.003684217563,0.999993213247
1583762855142897906,0,1583762855141876415,odom,base_link,1.27369253217,-0.00456121489762,0.0,0.0,0.0,0.000170234781696,0.99999998551
1583762855143494800,0,1583762855141876415,chassis,left_wheel,0.0,0.195,-0.09,-0.477518992233,0.521130932398,0.521546088245,0.477899404888,0,1583762855141876415,chassis,right_wheel,0.0,-0.225,-0.09,-0.476897272106,0.521699941061,0.522115550205,0.477277189471
1583762855154699781,0,1583762855041848705,odom,base_link,1.27359584971,-0.0157956319024,0.0,0.00248633853977,-0.0246595404106,-0.00425004659548,0.999683781148
1583762855198953038,0,1583762855131149839,vo,base_link,1.2271139005,0.0943901112382,0.0,0.0,0.0,-0.0039705454327,0.999992117353
1583762855242571810,0,1583762855241867243,odom,base_link,1.27369253411,-0.00456121489696,0.0,0.0,0.0,0.000170235007513,0.99999998551
1583762855243714619,0,1583762855241867243,chassis,left_wheel,0.0,0.195,-0.09,-0.477518984504,0.52113093948,0.521546095333,0.477899397152,0,1583762855241867243,chassis,right_wheel,0.0,-0.225,-0.09,-0.476897263543,0.521699948888,0.522115558039,0.477277180902
1583762855252979961,0,1583762855208508073,odom,base_link,1.27359585584,-0.0157956323387,0.0,0.00236457282903,-0.024232473878,-0.0043111244932,0.999694258366
1583762855316900113,0,1583762855231318541,vo,base_link,1.22693997951,0.093128215737,0.0,0.0,0.0,-0.00364853071937,0.99999334409
1583762855342905620,0,1583762855341876815,odom,base_link,1.27369253489,-0.0045612148967,0.0,0.0,0.0,0.000170235097839,0.99999998551
1583762855343186117,0,1583762855341876815,chassis,left_wheel,0.0,0.195,-0.09,-0.477518981412,0.521130942313,0.521546098168,0.477899394058,0,1583762855341876815,chassis,right_wheel,0.0,-0.225,-0.09,-0.476897260118,0.521699952019,0.522115561172,0.477277177474
1583762855353098123,0,1583762855308508073,odom,base_link,1.27359585701,-0.0157956321189,0.0,0.00242569445983,-0.0241105111992,-0.004311136545,0.999697060793
1583762855424942766,0,1583762855331768373,vo,base_link,1.22627162123,0.0949221694118,0.0,0.0,0.0,-0.00372845498875,0.999993049288
1583762855443216472,0,1583762855441854193,odom,base_link,1.2736925352,-0.00456121489659,0.0,0.0,0.0,0.00017023513397,0.99999998551
1583762855443343826,0,1583762855441854193,chassis,left_wheel,0.0,0.195,-0.09,-0.477518980175,0.521130943446,0.521546099302,0.477899392821,0,1583762855441854193,chassis,right_wheel,0.0,-0.225,-0.09,-0.476897258748,0.521699953271,0.522115562425,0.477277176103
1583762855456945446,0,1583762855341876815,odom,base_link,1.27359585727,-0.0157956319678,0.0,0.00242569445983,-0.0241105111992,-0.004311136545,0.999697060793
1583762855516705860,0,1583762855431999519,vo,base_link,1.22658570653,0.0918224383003,0.0,0.0,0.0,-0.00397229884182,0.99999211039
1583762855542494654,0,1583762855541874637,odom,base_link,1.27369253532,-0.00456121489655,0.0,0.0,0.0,0.000170235148422,0.99999998551
1583762855542742785,0,1583762855541874637,chassis,left_wheel,0.0,0.195,-0.09,-0.477518979681,0.521130943899,0.521546099755,0.477899392326,0,1583762855541874637,chassis,right_wheel,0.0,-0.225,-0.09,-0.4768972582,0.521699953772,0.522115562927,0.477277175554
1583762855553588760,0,1583762855508508073,odom,base_link,1.27359585767,-0.0157956319958,0.0,0.00248698914754,-0.0237445377596,-0.00437220642808,0.999705404418
1583762855621280126,0,1583762855532467052,vo,base_link,1.22685040085,0.090653719323,0.0,0.0,0.0,-0.00384421862036,0.999992610964
1583762855643964555,0,1583762855641875525,odom,base_link,1.27369253537,-0.00456121489653,0.0,0.0,0.0,0.000170235154203,0.99999998551
1583762855643985454,0,1583762855641875525,chassis,left_wheel,0.0,0.195,-0.09,-0.477518979483,0.521130944081,0.521546099937,0.477899392128,0,1583762855641875525,chassis,right_wheel,0.0,-0.225,-0.09,-0.476897257981,0.521699953973,0.522115563127,0.477277175335
1583762855653751588,0,1583762855541874637,odom,base_link,1.27359585771,-0.0157956319717,0.0,0.00248698914754,-0.0237445377596,-0.00437220642808,0.999705404418
1583762855702319974,0,1583762855632672083,vo,base_link,1.22640670064,0.092288367144,0.0,0.0,0.0,-0.00391033583796,0.999992354608
1583762855742826952,0,1583762855741879386,odom,base_link,1.27369253539,-0.00456121489653,0.0,0.0,0.0,0.000170235156515,0.99999998551
1583762855743483707,0,1583762855741879386,chassis,left_wheel,0.0,0.195,-0.09,-0.477518979404,0.521130944153,0.521546100009,0.477899392048,0,1583762855741879386,chassis,right_wheel,0.0,-0.225,-0.09,-0.476897257893,0.521699954053,0.522115563208,0.477277175247
1583762855754082546,0,1583762855641875525,odom,base_link,1.27359585776,-0.0157956319721,0.0,0.00254815485332,-0.0235615688225,-0.00437222465974,0.999709579344
1583762855817703439,0,1583762855732955797,vo,base_link,1.22646942868,0.0915630631924,0.0,0.0,0.0,-0.00384554307423,0.999992605872
1583762855842705377,0,1583762855841848576,odom,base_link,1.2736925354,-0.00456121489652,0.0,0.0,0.0,0.00017023515744,0.99999998551
1583762855842996977,0,1583762855841848576,chassis,left_wheel,0.0,0.195,-0.09,-0.477518979372,0.521130944182,0.521546100039,0.477899392017,0,1583762855841848576,chassis,right_wheel,0.0,-0.225,-0.09,-0.476897257858,0.521699954085,0.52211556324,0.477277175212
1583762855857380204,0,1583762855808508073,odom,base_link,1.27359585778,-0.0157956319739,0.0,0.00260936447706,-0.0233175944999,-0.00437224896468,0.999715141649
1583762855910280789,0,1583762855833322351,vo,base_link,1.22628886998,0.0940564346515,0.0,0.0,0.0,-0.0036657263796,0.999993281202
1583762855942513228,0,1583762855941877962,odom,base_link,1.2736925354,-0.00456121489652,0.0,0.0,0.0,0.00017023515781,0.99999998551
1583762855943075382,0,1583762855941877962,chassis,left_wheel,0.0,0.195,-0.09,-0.477518979359,0.521130944194,0.52154610005,0.477899392004,0,1583762855941877962,chassis,right_wheel,0.0,-0.225,-0.09,-0.476897257844,0.521699954098,0.522115563252,0.477277175198
1583762855961607292,0,1583762855841848576,odom,base_link,1.27359585779,-0.0157956319723,0.0,0.00260936447706,-0.0233175944999,-0.00437224896468,0.999715141649
1583762856028621914,0,1583762855933491783,vo,base_link,1.22534487151,0.0858462002642,0.0,0.0,0.0,-0.0037293639618,0.999993045898
1583762856043555857,0,1583762856041890497,odom,base_link,1.2736925354,-0.00456121489652,0.0,0.0,0.0,0.000170235157958,0.99999998551
1583762856044191927,0,1583762856041890497,chassis,left_wheel,0.0,0.195,-0.09,-0.477518979354,0.521130944198,0.521546100055,0.477899391999,0,1583762856041890497,chassis,right_wheel,0.0,-0.225,-0.09,-0.476897257838,0.521699954103,0.522115563258,0.477277175192
1583762856053301781,0,1583762856007508073,odom,base_link,1.27359585779,-0.0157956319726,0.0,0.00267048749912,-0.0231956237726,-0.00437226063702,0.999717817622
1583762856118240619,0,1583762856033633673,vo,base_link,1.22452260591,0.092267596253,0.0,0.0,0.0,-0.00412737484778,0.999991482352
1583762856142206346,0,1583762856141863865,odom,base_link,1.2736925354,-0.00456121489652,0.0,0.0,0.0,0.000170235158017,0.99999998551
1583762856142890563,0,1583762856141863865,chassis,left_wheel,0.0,0.195,-0.09,-0.477518979352,0.5211309442,0.521546100057,0.477899391997,0,1583762856141863865,chassis,right_wheel,0.0,-0.225,-0.09,-0.476897257836,0.521699954105,0.52211556326,0.47727717519
1583762856152374332,0,1583762856109508073,odom,base_link,1.27359585779,-0.0157956319725,0.0,0.00273161008011,-0.0230736455539,-0.004433305872,0.999720206351
1583762856206365549,0,1583762856133989107,vo,base_link,1.22545623997,0.0930648077606,0.0,0.0,0.0,-0.0038712565724,0.999992506658
1583762856242811013,0,1583762856241850121,chassis,left_wheel,0.0,0.195,-0.09,-0.477518979351,0.521130944201,0.521546100057,0.477899391996,0,1583762856241850121,chassis,right_wheel,0.0,-0.225,-0.09,-0.476897257835,0.521699954106,0.52211556326,0.477277175189
1583762856242830132,0,1583762856241850121,odom,base_link,1.2736925354,-0.00456121489652,0.0,0.0,0.0,0.000170235158041,0.99999998551
1583762856257421942,0,1583762856141863865,odom,base_link,1.27359585779,-0.0157956319724,0.0,0.00273161008011,-0.0230736455539,-0.004433305872,0.999720206351
1583762856317773066,0,1583762856234389732,vo,base_link,1.22503815496,0.0918039388226,0.0,0.0,0.0,-0.00403103930009,0.999991875328
1583762856343008129,0,1583762856341874667,chassis,left_wheel,0.0,0.195,-0.09,-0.477518979351,0.521130944201,0.521546100058,0.477899391996,0,1583762856341874667,chassis,right_wheel,0.0,-0.225,-0.09,-0.476897257835,0.521699954106,0.522115563261,0.477277175189
1583762856343041242,0,1583762856341874667,odom,base_link,1.2736925354,-0.00456121489652,0.0,0.0,0.0,0.00017023515805,0.99999998551
1583762856400158462,0,1583762856334516182,vo,base_link,1.22550387586,0.0899387741534,0.0,0.0,0.0,-0.00397685661993,0.999992092274
1583762856442779961,0,1583762856441845569,odom,base_link,1.2736925354,-0.00456121489652,0.0,0.0,0.0,0.000170235158054,0.99999998551
1583762856442979146,0,1583762856441845569,chassis,left_wheel,0.0,0.195,-0.09,-0.477518979351,0.521130944201,0.521546100058,0.477899391996,0,1583762856441845569,chassis,right_wheel,0.0,-0.225,-0.09,-0.476897257835,0.521699954106,0.522115563261,0.477277175189
1583762856542630915,0,1583762856541854010,odom,base_link,1.2736925354,-0.00456121489652,0.0,0.0,0.0,0.000170235158056,0.99999998551
1583762856543174475,0,1583762856541854010,chassis,left_wheel,0.0,0.195,-0.09,-0.477518979351,0.521130944202,0.521546100058,0.477899391996,0,1583762856541854010,chassis,right_wheel,0.0,-0.225,-0.09,-0.476897257835,0.521699954106,0.522115563261,0.477277175189
1583762856547902619,0,1583762856434665406,vo,base_link,1.22514249717,0.0934692419652,0.0,0.0,0.0,-0.00429496231911,0.999990776607
1583762856561769709,0,1583762856441845569,odom,base_link,1.27359585779,-0.0157956319724,0.0,0.00279277829493,-0.0228906743119,-0.00437228986068,0.999724512303
1583762856643073023,0,1583762856641857264,odom,base_link,1.2736925354,-0.00456121489652,0.0,0.0,0.0,0.000170235158057,0.99999998551
1583762856643561216,0,1583762856641857264,chassis,left_wheel,0.0,0.195,-0.09,-0.477518979351,0.521130944202,0.521546100058,0.477899391996,0,1583762856641857264,chassis,right_wheel,0.0,-0.225,-0.09,-0.476897257835,0.521699954106,0.522115563261,0.477277175189
1583762856687340681,0,1583762856541854010,odom,base_link,1.27359585779,-0.0157956319724,0.0,0.00285377180841,-0.0227063087867,-0.00437203173664,0.999728545589
1583762856689020259,0,1583762856534824020,vo,base_link,1.22484645233,0.0923356902388,0.0,0.0,0.0,-0.00411550662818,0.999991531267
1583762856703646770,0,1583762856635212114,vo,base_link,1.22574275387,0.0973793380165,0.0,0.0,0.0,-0.0039082626528,0.999992362712
1583762856743182323,0,1583762856741871858,odom,base_link,1.2736925354,-0.00456121489652,0.0,0.0,0.0,0.000170235158057,0.99999998551
1583762856743426467,0,1583762856741871858,chassis,left_wheel,0.0,0.195,-0.09,-0.477518979351,0.521130944202,0.521546100058,0.477899391996,0,1583762856741871858,chassis,right_wheel,0.0,-0.225,-0.09,-0.476897257835,0.521699954106,0.522115563261,0.477277175189
1583762856842550327,0,1583762856841857593,odom,base_link,1.2736925354,-0.00456121489652,0.0,0.0,0.0,0.000170235158057,0.99999998551
1583762856843125312,0,1583762856841857593,chassis,left_wheel,0.0,0.195,-0.09,-0.477518979351,0.521130944202,0.521546100058,0.477899391996,0,1583762856841857593,chassis,right_wheel,0.0,-0.225,-0.09,-0.476897257835,0.521699954106,0.522115563261,0.477277175189
1583762856849479893,0,1583762856641857264,odom,base_link,1.27359585779,-0.0157956319724,0.0,0.00291489154244,-0.0225843339396,-0.00443307358656,0.999730863346
1583762856853170035,0,1583762856735226401,vo,base_link,1.224842662,0.0957676505504,0.0,0.0,0.0,-0.00408999135041,0.99999163595
1583762856942553880,0,1583762856941849965,odom,base_link,1.2736925354,-0.00456121489652,0.0,0.0,0.0,0.000170235158057,0.99999998551
1583762856943095457,0,1583762856941849965,chassis,left_wheel,0.0,0.195,-0.09,-0.477518979351,0.521130944202,0.521546100058,0.477899391996,0,1583762856941849965,chassis,right_wheel,0.0,-0.225,-0.09,-0.476897257835,0.521699954106,0.522115563261,0.477277175189
1583762857002182469,0,1583762856741871858,odom,base_link,1.27359585779,-0.0157956319724,0.0,0.00285381478983,-0.0226453004424,-0.00443306828712,0.999729660466
1583762857003381901,0,1583762856835622038,vo,base_link,1.22472936878,0.097056730329,0.0,0.0,0.0,-0.00403904377931,0.999991843029
1583762857024076735,0,1583762856935899829,vo,base_link,1.22501923229,0.0896719408073,0.0,0.0,0.0,-0.00392989345115,0.999992277939
1583762857043609638,0,1583762857041867448,odom,base_link,1.2736925354,-0.00456121489652,0.0,0.0,0.0,0.000170235158057,0.99999998551
1583762857043744723,0,1583762857041867448,chassis,left_wheel,0.0,0.195,-0.09,-0.477518979351,0.521130944202,0.521546100058,0.477899391996,0,1583762857041867448,chassis,right_wheel,0.0,-0.225,-0.09,-0.476897257835,0.521699954106,0.522115563261,0.477277175189
1583762857142485297,0,1583762857141857638,odom,base_link,1.2736925354,-0.00456121489652,0.0,0.0,0.0,0.000170235158057,0.99999998551
1583762857143125464,0,1583762857141857638,chassis,left_wheel,0.0,0.195,-0.09,-0.477518979351,0.521130944202,0.521546100058,0.477899391996,0,1583762857141857638,chassis,right_wheel,0.0,-0.225,-0.09,-0.476897257835,0.521699954106,0.522115563261,0.477277175189
1583762857165943897,0,1583762856941849965,odom,base_link,1.27359585779,-0.0157956319724,0.0,0.0027317050061,-0.0227062306936,-0.00443306374629,0.999728619587
1583762857169815127,0,1583762857036027497,vo,base_link,1.22483460572,0.0909459153357,0.0,0.0,0.0,-0.00402227714205,0.999991910611
1583762857242953876,0,1583762857241859716,odom,base_link,1.2736925354,-0.00456121489652,0.0,0.0,0.0,0.000170235158057,0.99999998551
1583762857243159676,0,1583762857241859716,chassis,left_wheel,0.0,0.195,-0.09,-0.477518979351,0.521130944202,0.521546100058,0.477899391996,0,1583762857241859716,chassis,right_wheel,0.0,-0.225,-0.09,-0.476897257835,0.521699954106,0.522115563261,0.477277175189
1583762857320980954,0,1583762857141857638,odom,base_link,1.27359585779,-0.0157956319724,0.0,0.00273174784221,-0.0226452222611,-0.0044941003513,0.99972973074
1583762857321646647,0,1583762857136232124,vo,base_link,1.22517647728,0.0889620721818,0.0,0.0,0.0,-0.00407904685728,0.999991680654
1583762857324075352,0,1583762857236504661,vo,base_link,1.22516634798,0.0912972445331,0.0,0.0,0.0,-0.00398104012037,0.999992075628
1583762857342661828,0,1583762857341849500,odom,base_link,1.2736925354,-0.00456121489652,0.0,0.0,0.0,0.000170235158057,0.99999998551
1583762857343301208,0,1583762857341849500,chassis,left_wheel,0.0,0.195,-0.09,-0.477518979351,0.521130944202,0.521546100058,0.477899391996,0,1583762857341849500,chassis,right_wheel,0.0,-0.225,-0.09,-0.476897257835,0.521699954106,0.522115563261,0.477277175189
1583762857390565564,0,1583762857241859716,odom,base_link,1.27359585779,-0.0157956319724,0.0,0.00285381402718,-0.0226452940685,-0.00449409873128,0.999729388124
1583762857406258798,0,1583762857336764551,vo,base_link,1.2253199576,0.0899173560024,0.0,0.0,0.0,-0.0039294759484,0.99999227958
1583762857443079917,0,1583762857441851694,odom,base_link,1.2736925354,-0.00456121489652,0.0,0.0,0.0,0.000170235158057,0.99999998551
