%time,field.point,field.count,field.encx,field.enc_x_avg,field.ency,field.enc_y_avg,field.enc_yaw,field.enc_yaw_avg,field.hokuyo_x,field.hokuyo_x_avg,field.hokuyo_y,field.hokuyo_y_avg,field.hokuyo_theta,field.hokuyo_theta_avg,field.imu_yaw,field.imu_yaw_avg,field.ekfx,field.ekf_x_avg,field.ekfy,field.ekf_y_avg,field.ekf_yaw,field.ekf_yaw_avg
1583762854486218752,1,1,1.27369058132,0.0,-0.00456121563911,0.0,0.000340010883519,0.0,1.230514884,0.0,0.0970888212323,0.0,-0.00671196589246,0.0,-0.00881094764918,0.0,1.27359092236,0.0,-0.015795590356,0.0,-0.0087795490399,0.0
1583762854686739424,1,2,1.27369225025,0.0,-0.00456121517345,0.0,0.000340396800311,0.0,1.23078167439,0.0,0.0928633511066,0.0,-0.00597844086587,0.0,-0.00906369648874,0.0,1.2735953331,0.0,-0.0157956276089,0.0,-0.00876917503774,0.0
1583762854886263958,1,3,1.27369248867,0.0,-0.00456121470779,0.0,0.00034045855864,0.0,1.22985374928,0.0,0.0960777848959,0.0,-0.0061862883158,0.0,-0.00919098965824,0.0,1.27359569073,0.0,-0.0157956313342,0.0,-0.00900664459914,0.0
1583762855086068266,1,4,1.27369248867,0.0,-0.00456121470779,0.0,0.000340468424838,0.0,1.22940015793,0.0,0.0914627164602,0.0,-0.00634809071198,0.0,-0.00907161552459,0.0,1.27359580994,0.0,-0.0157956369221,0.0,-0.00912119448185,0.0
1583762855286347271,1,5,1.27369248867,0.0,-0.00456121470779,0.0,0.000340470025549,0.0,1.22922384739,0.0,0.0926440134645,0.0,-0.00634246552363,0.0,-0.00920092966408,0.0,1.27359580994,0.0,-0.0157956313342,0.0,-0.00899770576507,0.0
1583762855486033108,1,6,1.27369248867,0.0,-0.00456121470779,0.0,0.000340470258379,0.0,1.22838163376,0.0,0.093176074326,0.0,-0.00585828069597,0.0,-0.00919957179576,0.0,1.27359580994,0.0,-0.0157956313342,0.0,-0.0091139851138,0.0
1583762855686701922,1,7,1.27369248867,0.0,-0.00456121470779,0.0,0.000340470316587,0.0,1.22896039486,0.0,0.0889076218009,0.0,-0.00608980981633,0.0,-0.00932065583766,0.0,1.27359580994,0.0,-0.0157956313342,0.0,-0.00923713296652,0.0
1583762855886077054,1,8,1.27369248867,0.0,-0.00456121470779,0.0,0.000340470316587,0.0,1.22857940197,0.0,0.0898169651628,0.0,-0.00609245849773,0.0,-0.00919455569237,0.0,1.27359580994,0.0,-0.0157956313342,0.0,-0.00923902634531,0.0
1583762856086433106,1,9,1.27369248867,0.0,-0.00456121470779,0.0,0.000340470316587,0.0,1.22745490074,0.0,0.0841001048684,0.0,-0.00586009863764,0.0,-0.00931797828525,0.0,1.27359580994,0.0,-0.0157956313342,0.0,-0.00924053322524,0.0
1583762856286150610,1,10,1.27369248867,0.0,-0.00456121470779,0.0,0.000340470316587,0.0,1.22756624222,0.0,0.0913187116385,0.0,-0.0061438861303,0.0,-0.00943508278579,0.0,1.27359580994,0.0,-0.0157956313342,0.0,-0.00936696399003,0.0
1583762856486329863,1,11,1.27369248867,0.0,-0.00456121470779,0.0,0.000340470316587,0.0,1.22761380672,0.0,0.088192678988,0.0,-0.00635508773848,0.0,-0.00930779054761,0.0,1.27359580994,0.0,-0.0157956313342,0.0,-0.00936696399003,0.0
1583762856686040584,1,12,1.27369248867,0.0,-0.00456121470779,0.0,0.000340470316587,0.0,1.22725248337,0.0,0.0917231440544,0.0,-0.00699130445719,0.0,-0.00930913072079,0.0,1.27359580994,0.0,-0.0157956313342,0.0,-0.00924652256072,0.0
1583762856886158962,1,13,1.27369248867,0.0,-0.00456121470779,0.0,0.000340470316587,0.0,1.226952672,0.0,0.094021551311,0.0,-0.00658135907724,0.0,-0.0094291632995,0.0,1.27359580994,0.0,-0.0157956313342,0.0,-0.00924763362855,0.0
1583762857086223062,1,14,1.27369248867,0.0,-0.00456121470779,0.0,0.000340470316587,0.0,1.22712922096,0.0,0.0879258438945,0.0,-0.00626116059721,0.0,-0.00943670328707,0.0,1.27359580994,0.0,-0.0157956313342,0.0,-0.00936941709369,0.0
1583762857286010291,1,15,1.27369248867,0.0,-0.00456121470779,0.0,0.000340470316587,0.0,1.22694456577,0.0,0.0891998186707,0.0,-0.00644592940807,0.0,-0.00955909956247,0.0,1.27359580994,0.0,-0.0157956313342,0.0,-0.00936424639076,0.0
1583762857486200961,1,16,1.27369248867,0.0,-0.00456121470779,0.0,0.000340470316587,0.0,1.227429986,0.0,0.0881712585688,0.0,-0.00626032566652,0.0,-0.00967285316437,0.0,1.27359580994,0.0,-0.0157956313342,0.0,-0.00949157215655,0.0
1583762857685999011,1,17,1.27369248867,0.0,-0.00456121470779,0.0,0.000340470316587,0.0,1.22627460957,0.0,0.0888169705868,0.0,-0.00625601736829,0.0,-0.00966970156878,0.0,1.27359580994,0.0,-0.0157956313342,0.0,-0.0096196429804,0.0
1583762857886125912,1,18,1.27369248867,0.0,-0.00456121470779,0.0,0.000340470316587,0.0,1.22694146633,0.0,0.0943948850036,0.0,-0.00651885941625,0.0,-0.00978620164096,0.0,1.27359580994,0.0,-0.0157956313342,0.0,-0.00962340086699,0.0
1583762858086223782,1,19,1.27369248867,0.0,-0.00456121470779,0.0,0.000340470316587,0.0,1.22556328773,0.0,0.0923432856798,0.0,-0.00695077795535,0.0,-0.00978358369321,0.0,1.27359580994,0.0,-0.0157956313342,0.0,-0.00975112151355,0.0
1583762858286090059,1,20,1.27369248867,0.0,-0.00456121470779,0.0,0.000340470316587,0.0,1.22571146488,0.0,0.0939756855369,0.0,-0.00633400911465,0.0,-0.00990285072476,0.0,1.27359580994,0.0,-0.0157956313342,0.0,-0.00987606402487,0.0
1583762858486627468,1,21,1.27369248867,0.0,-0.00456121470779,0.0,0.000340470316587,0.0,1.22536051273,0.0,0.0884974524379,0.0,-0.00669690035284,0.0,-0.00990327261388,0.0,1.27359580994,0.0,-0.0157956313342,0.0,-0.00987564586103,0.0
1583762858686423906,1,22,1.27369248867,0.0,-0.00456121470779,0.0,0.000340470316587,0.0,1.22584962845,0.0,0.0880239829421,0.0,-0.00619407463819,0.0,-0.00990327261388,0.0,1.27359580994,0.0,-0.0157956313342,0.0,-0.00987564586103,0.0
1583762858886196597,1,23,1.27369248867,0.0,-0.00456121470779,0.0,0.000340470316587,0.0,1.2261967659,0.0,0.0878608599305,0.0,-0.00616497732699,0.0,-0.00990604050457,0.0,1.27359580994,0.0,-0.0157956313342,0.0,-0.00987287424505,0.0
1583762859086029178,1,24,1.27369248867,0.0,-0.00456121470779,0.0,0.000340470316587,0.0,1.22547149658,0.0,0.0879838913679,0.0,-0.00667448854074,0.0,-0.00990327261388,0.0,1.27359580994,0.0,-0.0157956313342,0.0,-0.00987564586103,0.0
1583762859286081348,1,25,1.27369248867,0.0,-0.00456121470779,0.0,0.000340470316587,0.0,1.22576999664,0.0,0.0886926725507,0.0,-0.00643473956734,0.0,-0.00990604050457,0.0,1.27359580994,0.0,-0.0157956313342,0.0,-0.00987564586103,0.0
1583762859486656275,1,26,1.27369248867,0.0,-0.00456121470779,0.0,0.000340470316587,0.0,1.22573328018,0.0,0.0877769142389,0.0,-0.00669614132494,0.0,-0.00990327261388,0.0,1.27359580994,0.0,-0.0157956313342,0.0,-0.00987287424505,0.0
1583762859686175503,1,27,1.27369248867,0.0,-0.00456121470779,0.0,0.000340470316587,0.0,1.22574973106,0.0,0.0887787714601,0.0,-0.00647997157648,0.0,-0.00990604050457,0.0,1.27359580994,0.0,-0.0157956313342,0.0,-0.00987287424505,0.0
1583762859886289529,1,28,1.27369248867,0.0,-0.00456121470779,0.0,0.000340470316587,0.0,1.22565853596,0.0,0.0862607434392,0.0,-0.00669113965705,0.0,-0.00965863000602,0.0,1.27359580994,0.0,-0.0157956313342,0.0,-0.00963072758168,0.0
1583762860086336492,1,29,1.27369248867,0.0,-0.00456121470779,0.0,0.000340470316587,0.0,1.22541952133,0.0,0.0917772948742,0.0,-0.00670849019662,0.0,-0.00978108681738,0.0,1.27359580994,0.0,-0.0157956313342,0.0,-0.00963072758168,0.0
1583762860286097461,1,30,1.27369248867,0.0,-0.00456121470779,0.0,0.000340470316587,0.0,1.22521698475,0.0,0.0887609943748,0.0,-0.00700123142451,0.0,-0.00966457184404,0.0,1.27359580994,0.0,-0.0157956313342,0.0,-0.00974970124662,0.0
1583762860486214112,1,31,1.27369248867,0.0,-0.00456121470779,0.0,0.000340470316587,0.0,1.22499263287,0.0,0.0948445945978,0.0,-0.00665792590007,0.0,-0.00967523828149,0.0,1.27359580994,0.0,-0.0157956313342,0.0,-0.00961925555021,0.0
1583762860686296684,1,32,1.27369248867,0.0,-0.00456121470779,0.0,0.000340470316587,0.0,1.22453999519,0.0,0.0957570150495,0.0,-0.00646684318781,0.0,-0.00968113541603,0.0,1.27359580994,0.0,-0.0157956313342,0.0,-0.00961096398532,0.0
1583762860886087152,1,33,1.27369248867,0.0,-0.00456121470779,0.0,0.000340470316587,0.0,1.2246209383,0.0,0.0916951447725,0.0,-0.00703948037699,0.0,-0.00968665722758,0.0,1.27359580994,0.0,-0.0157956313342,0.0,-0.00960508547723,0.0
1583762861086184691,1,34,1.27369248867,0.0,-0.00456121470779,0.0,0.000340470316587,0.0,1.22420859337,0.0,0.0926457494497,0.0,-0.00768863735721,0.0,-0.00980869308114,0.0,1.27359580994,0.0,-0.0157956313342,0.0,-0.00960508547723,0.0
1583762861286196471,1,35,1.27369248867,0.0,-0.00456121470779,0.0,0.000340470316587,0.0,1.22550213337,0.0,0.0868841633201,0.0,-0.0063881855458,0.0,-0.0096946163103,0.0,1.27359580994,0.0,-0.0157956313342,0.0,-0.00959747098386,0.0
1583762861486141757,1,36,1.27369248867,0.0,-0.00456121470779,0.0,0.000340470316587,0.0,1.22535741329,0.0,0.0860369876027,0.0,-0.00637034885585,0.0,-0.00981973763555,0.0,1.27359580994,0.0,-0.0157956313342,0.0,-0.0095919277519,0.0
1583762861686188869,1,37,1.27369248867,0.0,-0.00456121470779,0.0,0.000340470316587,0.0,1.22451496124,0.0,0.087570361793,0.0,-0.00696508446708,0.0,-0.00981942098588,0.0,1.27359580994,0.0,-0.0157956313342,0.0,-0.00971376989037,0.0
1583762866286127219,2,1,1.27370774746,0.0,-0.00444809347391,0.0,0.663644373417,0.0,1.23880517483,0.0,-0.273383826017,0.0,0.648620486259,0.0,0.637897253036,0.0,1.27361285686,0.0,-0.015684356913,0.0,0.638045072556,0.0
1583762866486249156,2,2,1.27370774746,0.0,-0.00444807717577,0.0,0.663658499718,0.0,1.2389895916,0.0,-0.271077543497,0.0,0.648097515106,0.0,0.63779604435,0.0,1.27361297607,0.0,-0.0156843159348,0.0,0.637917280197,0.0
1583762866886220612,2,3,1.27370774746,0.0,-0.0044480743818,0.0,0.663665413857,0.0,1.2389934063,0.0,-0.272914379835,0.0,0.648748338223,0.0,0.637817263603,0.0,1.27361297607,0.0,-0.0156843103468,0.0,0.637895345688,0.0
1583762867086313962,2,4,1.27370774746,0.0,-0.0044480743818,0.0,0.66366571188,0.0,1.23872351646,0.0,-0.271229207516,0.0,0.648566007614,0.0,0.637713551521,0.0,1.27361297607,0.0,-0.0156843103468,0.0,0.637881159782,0.0
1583762867286135088,2,5,1.27370774746,0.0,-0.0044480743818,0.0,0.663665771484,0.0,1.23816752434,0.0,-0.272249698639,0.0,0.648364126682,0.0,0.637726485729,0.0,1.27361297607,0.0,-0.0156843159348,0.0,0.637755036354,0.0
1583762867486080971,2,6,1.27370810509,0.0,-0.00444781687111,0.0,0.663667678833,0.0,1.23838889599,0.0,-0.270692944527,0.0,0.648633182049,0.0,0.637623250484,0.0,1.27361321449,0.0,-0.0156841315329,0.0,0.637742161751,0.0
1583762867686149057,2,7,1.27370810509,0.0,-0.00444777589291,0.0,0.663667976856,0.0,1.23888206482,0.0,-0.272946387529,0.0,0.648606479168,0.0,0.637749791145,0.0,1.2736133337,0.0,-0.0156840290874,0.0,0.637729465961,0.0
1583762867886074869,2,8,1.2737082243,0.0,-0.00444776937366,0.0,0.663668036461,0.0,1.23914682865,0.0,-0.271620184183,0.0,0.648875296116,0.0,0.637749791145,0.0,1.2736133337,0.0,-0.0156840160489,0.0,0.637724280357,0.0
1583762868086019075,2,9,1.2737082243,0.0,-0.00444776844233,0.0,0.663668036461,0.0,1.23927259445,0.0,-0.272906899452,0.0,0.648822903633,0.0,0.637638628483,0.0,1.2736133337,0.0,-0.0156840160489,0.0,0.637724280357,0.0
1583762868286095422,2,10,1.27370846272,0.0,-0.00444751093164,0.0,0.66366994381,0.0,1.23808908463,0.0,-0.271962374449,0.0,0.648038029671,0.0,0.637605130672,0.0,1.27361357212,0.0,-0.0156838130206,0.0,0.637565016747,0.0
1583762868486250531,2,11,1.27370858192,0.0,-0.00444746948779,0.0,0.663670301437,0.0,1.23882758617,0.0,-0.272417366505,0.0,0.648543596268,0.0,0.637496769428,0.0,1.27361369133,0.0,-0.0156837329268,0.0,0.637555241585,0.0
1583762868686220259,2,12,1.27370858192,0.0,-0.00444746296853,0.0,0.663670301437,0.0,1.23832798004,0.0,-0.27176591754,0.0,0.648370146751,0.0,0.637501776218,0.0,1.27361369133,0.0,-0.015683721751,0.0,0.637431502342,0.0
1583762868886235014,2,13,1.27370858192,0.0,-0.00444746203721,0.0,0.663670361042,0.0,1.23885369301,0.0,-0.2731988132,0.0,0.648634433746,0.0,0.637502014637,0.0,1.27361381054,0.0,-0.0156837198883,0.0,0.637431681156,0.0
1583762869086289808,2,14,1.27370858192,0.0,-0.00444746203721,0.0,0.663670361042,0.0,1.23938512802,0.0,-0.27126044035,0.0,0.648885667324,0.0,0.637505054474,0.0,1.27361381054,0.0,-0.0156837180257,0.0,0.637428820133,0.0
1583762869286281410,2,15,1.27370858192,0.0,-0.00444746203721,0.0,0.663670361042,0.0,1.23849248886,0.0,-0.270686388016,0.0,0.648398220539,0.0,0.637505352497,0.0,1.27361381054,0.0,-0.0156837180257,0.0,0.637428283691,0.0
1583762869486155024,2,16,1.27370858192,0.0,-0.00444746203721,0.0,0.663670361042,0.0,1.23864686489,0.0,-0.271442353725,0.0,0.648610889912,0.0,0.637507736683,0.0,1.27361381054,0.0,-0.0156837180257,0.0,0.637428104877,0.0
1583762869686301356,2,17,1.27370858192,0.0,-0.00444746203721,0.0,0.663670361042,0.0,1.23832786083,0.0,-0.274462968111,0.0,0.648599326611,0.0,0.637507855892,0.0,1.27361381054,0.0,-0.0156837180257,0.0,0.637425601482,0.0
1583762869886008390,2,18,1.27370858192,0.0,-0.00444746203721,0.0,0.663670361042,0.0,1.23820066452,0.0,-0.270335644484,0.0,0.648396849632,0.0,0.637512862682,0.0,1.27361381054,0.0,-0.0156837180257,0.0,0.637423098087,0.0
1583762870086076663,2,19,1.27370858192,0.0,-0.00444746203721,0.0,0.663670361042,0.0,1.2386341095,0.0,-0.271491527557,0.0,0.648539662361,0.0,0.637517631054,0.0,1.27361381054,0.0,-0.0156837180257,0.0,0.637418210506,0.0
1583762870286146303,2,20,1.27370858192,0.0,-0.00444746203721,0.0,0.663670361042,0.0,1.2386585474,0.0,-0.271232664585,0.0,0.648496448994,0.0,0.637399196625,0.0,1.27361381054,0.0,-0.0156837180257,0.0,0.637299835682,0.0
1583762870486098224,2,21,1.27370858192,0.0,-0.00444746203721,0.0,0.663670361042,0.0,1.2373623848,0.0,-0.271490633488,0.0,0.648155510426,0.0,0.63750988245,0.0,1.27361381054,0.0,-0.0156837180257,0.0,0.637421071529,0.0
1583762870686096995,2,22,1.27370858192,0.0,-0.00444746203721,0.0,0.663670361042,0.0,1.23782551289,0.0,-0.271668046713,0.0,0.648103833199,0.0,0.637623429298,0.0,1.27361381054,0.0,-0.0156837180257,0.0,0.637423574924,0.0
1583762870887772406,2,23,1.27370858192,0.0,-0.00444746203721,0.0,0.663670361042,0.0,1.23761737347,0.0,-0.271774739027,0.0,0.648153603077,0.0,0.637507557869,0.0,1.27361381054,0.0,-0.0156837180257,0.0,0.637542068958,0.0
1583762871086152632,2,24,1.27370858192,0.0,-0.00444746203721,0.0,0.663670361042,0.0,1.23744773865,0.0,-0.273676812649,0.0,0.64842325449,0.0,0.637507736683,0.0,1.27361381054,0.0,-0.0156837180257,0.0,0.637541770935,0.0
1583762871286192920,2,25,1.27370858192,0.0,-0.00444746203721,0.0,0.663670361042,0.0,1.2377204895,0.0,-0.273000121117,0.0,0.648406386375,0.0,0.637623429298,0.0,1.27361381054,0.0,-0.0156837180257,0.0,0.637425899506,0.0
1583762871486185508,2,26,1.27370858192,0.0,-0.00444746203721,0.0,0.663670361042,0.0,1.23718297482,0.0,-0.27279189229,0.0,0.648274421692,0.0,0.637502729893,0.0,1.27361381054,0.0,-0.0156837180257,0.0,0.637544453144,0.0
1583762871686170315,2,27,1.27370858192,0.0,-0.00444746203721,0.0,0.663670361042,0.0,1.23645794392,0.0,-0.27022382617,0.0,0.647569537163,0.0,0.637502729893,0.0,1.27361381054,0.0,-0.0156837180257,0.0,0.637312471867,0.0
1583762871887686364,2,28,1.27370858192,0.0,-0.00444746203721,0.0,0.663670361042,0.0,1.23750650883,0.0,-0.273347407579,0.0,0.648637592793,0.0,0.637497544289,0.0,1.27361381054,0.0,-0.0156837180257,0.0,0.637433469296,0.0
1583762872086160246,2,29,1.27370858192,0.0,-0.00444746203721,0.0,0.663670361042,0.0,1.23688769341,0.0,-0.2740021348,0.0,0.648495852947,0.0,0.637497901917,0.0,1.27361381054,0.0,-0.0156837180257,0.0,0.637438237667,0.0
1583762872486215596,2,30,1.27370858192,0.0,-0.00444744993001,0.0,0.663674712181,0.0,1.2377730608,0.0,-0.273354619741,0.0,0.64863973856,0.0,0.637497544289,0.0,1.27361381054,0.0,-0.0156836956739,0.0,0.637435734272,0.0
1583762872686076218,2,31,1.27370858192,0.0,-0.00444746017456,0.0,0.663674890995,0.0,1.23677051067,0.0,-0.272568672895,0.0,0.648277878761,0.0,0.637495040894,0.0,1.27361381054,0.0,-0.0156837143004,0.0,0.637438416481,0.0
1583762872886107141,2,32,1.27370858192,0.0,-0.00444746157154,0.0,0.663674890995,0.0,1.23690986633,0.0,-0.27358815074,0.0,0.648078799248,0.0,0.637378752232,0.0,1.27361381054,0.0,-0.015683721751,0.0,0.6374386549,0.0
1583762873086140560,2,33,1.27370858192,0.0,-0.00444746203721,0.0,0.663674890995,0.0,1.23666131496,0.0,-0.27374663949,0.0,0.648573696613,0.0,0.637386441231,0.0,1.27361381054,0.0,-0.0156837180257,0.0,0.63732033968,0.0
1583762873286094876,2,34,1.27370858192,0.0,-0.00444746203721,0.0,0.663674890995,0.0,1.23684942722,0.0,-0.274658203125,0.0,0.648408532143,0.0,0.637270927429,0.0,1.27361381054,0.0,-0.0156837180257,0.0,0.637314975262,0.0
1583762873486231758,2,35,1.27370858192,0.0,-0.00444746203721,0.0,0.663674890995,0.0,1.23688220978,0.0,-0.272675305605,0.0,0.648157536983,0.0,0.637381672859,0.0,1.27361381054,0.0,-0.0156837180257,0.0,0.637317299843,0.0
1583762873688006709,2,36,1.27370858192,0.0,-0.00444746203721,0.0,0.663674890995,0.0,1.23628950119,0.0,-0.27209764719,0.0,0.647968947887,0.0,0.637383937836,0.0,1.27361381054,0.0,-0.0156837180257,0.0,0.637320160866,0.0
1583762873885989881,2,37,1.27370893955,0.0,-0.00444720452651,0.0,0.663676798344,0.0,1.23688340187,0.0,-0.270963191986,0.0,0.647849798203,0.0,0.637388825417,0.0,1.27361404896,0.0,-0.0156835112721,0.0,0.637315154076,0.0
1583762881586155409,3,1,1.27367806435,0.0,-0.0042557711713,0.0,-0.642956197262,0.0,1.22821676731,0.0,0.542354345322,0.0,-0.628012597561,0.0,-0.627987325191,0.0,1.2735837698,0.0,-0.0154890865088,0.0,-0.628043711185,0.0
1583762881786028440,3,2,1.27367806435,0.0,-0.0042556966655,0.0,-0.642969846725,0.0,1.22761631012,0.0,0.539345741272,0.0,-0.628251671791,0.0,-0.628004252911,0.0,1.27358365059,0.0,-0.0154889728874,0.0,-0.628140151501,0.0
1583762882186064924,3,3,1.27367758751,0.0,-0.00425540376455,0.0,-0.642974555492,0.0,1.2269231081,0.0,0.541459143162,0.0,-0.627425134182,0.0,-0.628035962582,0.0,1.27358317375,0.0,-0.0154886767268,0.0,-0.628105700016,0.0
1583762882386225885,3,4,1.27367758751,0.0,-0.0042553874664,0.0,-0.642974734306,0.0,1.22739255428,0.0,0.541439116001,0.0,-0.628283500671,0.0,-0.628043413162,0.0,1.27358317375,0.0,-0.0154886506498,0.0,-0.628096044064,0.0
1583762882585997766,3,5,1.27367758751,0.0,-0.00425538513809,0.0,-0.642974734306,0.0,1.22677111626,0.0,0.547143042088,0.0,-0.628843307495,0.0,-0.628054559231,0.0,1.27358317375,0.0,-0.0154886404052,0.0,-0.627972304821,0.0
1583762882785906654,3,6,1.27367794514,0.0,-0.00425563473254,0.0,-0.64297670126,0.0,1.22702181339,0.0,0.542377769947,0.0,-0.628932893276,0.0,-0.628178656101,0.0,1.27358341217,0.0,-0.0154888210818,0.0,-0.628076910973,0.0
1583762882988279435,3,7,1.27367794514,0.0,-0.00425567477942,0.0,-0.642976999283,0.0,1.22773766518,0.0,0.540893018246,0.0,-0.629620492458,0.0,-0.628181874752,0.0,1.27358353138,0.0,-0.0154889253899,0.0,-0.628188610077,0.0
1583762883185879066,3,8,1.27367794514,0.0,-0.00425568129867,0.0,-0.642977058887,0.0,1.22612631321,0.0,0.542178273201,0.0,-0.628129065037,0.0,-0.628185153008,0.0,1.27358353138,0.0,-0.0154889347032,0.0,-0.628183066845,0.0
1583762883386059638,3,9,1.27367806435,0.0,-0.00425568223,0.0,-0.642977058887,0.0,1.22568929195,0.0,0.543419480324,0.0,-0.627570807934,0.0,-0.628224074841,0.0,1.27358353138,0.0,-0.0154889356345,0.0,-0.628185868263,0.0
1583762883586806596,3,10,1.27367806435,0.0,-0.00425568269566,0.0,-0.642977058887,0.0,1.22544634342,0.0,0.541944801807,0.0,-0.627420604229,0.0,-0.628342270851,0.0,1.27358353138,0.0,-0.0154889374971,0.0,-0.628220796585,0.0
1583762883787870041,3,11,1.27367806435,0.0,-0.00425568269566,0.0,-0.642977058887,0.0,1.22555935383,0.0,0.543647646904,0.0,-0.62776440382,0.0,-0.628344535828,0.0,1.27358353138,0.0,-0.0154889374971,0.0,-0.628333628178,0.0
1583762883985947213,3,12,1.27367806435,0.0,-0.00425568269566,0.0,-0.642977058887,0.0,1.22557401657,0.0,0.544414997101,0.0,-0.628417551517,0.0,-0.628189742565,0.0,1.27358353138,0.0,-0.0154889374971,0.0,-0.62825101614,0.0
1583762884185835672,3,13,1.27367806435,0.0,-0.00425568269566,0.0,-0.642977058887,0.0,1.2247518301,0.0,0.542132794857,0.0,-0.627135396004,0.0,-0.628192007542,0.0,1.27358353138,0.0,-0.0154889374971,0.0,-0.628061294556,0.0
1583762884387923145,3,14,1.27367806435,0.0,-0.00425568269566,0.0,-0.642977058887,0.0,1.22622203827,0.0,0.543234348297,0.0,-0.628559470177,0.0,-0.628190934658,0.0,1.27358353138,0.0,-0.0154889374971,0.0,-0.628180801868,0.0
1583762884585837655,3,15,1.27367806435,0.0,-0.00425568269566,0.0,-0.642977058887,0.0,1.22479403019,0.0,0.544523358345,0.0,-0.627512872219,0.0,-0.628226339817,0.0,1.27358353138,0.0,-0.0154889374971,0.0,-0.628180801868,0.0
1583762884785994305,3,16,1.27367806435,0.0,-0.00425568269566,0.0,-0.642977058887,0.0,1.22406375408,0.0,0.543246328831,0.0,-0.626972436905,0.0,-0.62846082449,0.0,1.27358353138,0.0,-0.0154889374971,0.0,-0.628334701061,0.0
1583762884986083998,3,17,1.27367806435,0.0,-0.00425568269566,0.0,-0.642977058887,0.0,1.22472321987,0.0,0.545486986637,0.0,-0.628340125084,0.0,-0.628344714642,0.0,1.27358353138,0.0,-0.0154889374971,0.0,-0.628330171108,0.0
1583762885186204455,3,18,1.27367806435,0.0,-0.00425568269566,0.0,-0.642977058887,0.0,1.22433793545,0.0,0.545535385609,0.0,-0.627870678902,0.0,-0.628463089466,0.0,1.27358353138,0.0,-0.0154889374971,0.0,-0.628448605537,0.0
1583762885385800120,3,19,1.27367806435,0.0,-0.00425568269566,0.0,-0.642977058887,0.0,1.22434055805,0.0,0.544380843639,0.0,-0.627116322517,0.0,-0.628577947617,0.0,1.27358353138,0.0,-0.0154889374971,0.0,-0.628447532654,0.0
1583762885585843180,3,20,1.27367806435,0.0,-0.00425568269566,0.0,-0.642977058887,0.0,1.22432088852,0.0,0.543352127075,0.0,-0.627812981606,0.0,-0.628614544868,0.0,1.27358353138,0.0,-0.0154889374971,0.0,-0.628603756428,0.0
1583762885786149056,3,21,1.27367806435,0.0,-0.00425568269566,0.0,-0.642977058887,0.0,1.22432088852,0.0,0.543352127075,0.0,-0.627812981606,0.0,-0.628580391407,0.0,1.27358353138,0.0,-0.0154889374971,0.0,-0.62860250473,0.0
1583762885986006515,3,22,1.27367806435,0.0,-0.00425568269566,0.0,-0.642977058887,0.0,1.22411799431,0.0,0.547881901264,0.0,-0.627985656261,0.0,-0.628580391407,0.0,1.27358353138,0.0,-0.0154889374971,0.0,-0.62860250473,0.0
1583762886185794311,3,23,1.27367806435,0.0,-0.00425568269566,0.0,-0.642977058887,0.0,1.22397017479,0.0,0.54303175211,0.0,-0.627806723118,0.0,-0.628736555576,0.0,1.27358353138,0.0,-0.0154889374971,0.0,-0.628711700439,0.0
1583762886385865150,3,24,1.27367806435,0.0,-0.00425568269566,0.0,-0.642977058887,0.0,1.22417116165,0.0,0.546439886093,0.0,-0.627685904503,0.0,-0.628851413727,0.0,1.27358353138,0.0,-0.0154889374971,0.0,-0.628713965416,0.0
1583762886585820576,3,25,1.27367806435,0.0,-0.00425568269566,0.0,-0.642977058887,0.0,1.22434163094,0.0,0.545125484467,0.0,-0.628267168999,0.0,-0.62885248661,0.0,1.27358353138,0.0,-0.0154889374971,0.0,-0.628827869892,0.0
1583762886785856730,3,26,1.27367806435,0.0,-0.00425568269566,0.0,-0.642977058887,0.0,1.22354257107,0.0,0.544159173965,0.0,-0.627270281315,0.0,-0.62873762846,0.0,1.27358353138,0.0,-0.0154889374971,0.0,-0.628829061985,0.0
1583762886985886995,3,27,1.27367806435,0.0,-0.00425568269566,0.0,-0.642977058887,0.0,1.22373342514,0.0,0.543985724449,0.0,-0.627832770348,0.0,-0.628736436367,0.0,1.27358353138,0.0,-0.0154889374971,0.0,-0.628712892532,0.0
1583762887185783360,3,28,1.27367806435,0.0,-0.00425568269566,0.0,-0.642977058887,0.0,1.22335362434,0.0,0.545055091381,0.0,-0.628090918064,0.0,-0.62884670496,0.0,1.27358353138,0.0,-0.0154889374971,0.0,-0.628832578659,0.0
1583762887385959448,3,29,1.27367806435,0.0,-0.00425568269566,0.0,-0.642977058887,0.0,1.22264814377,0.0,0.542461752892,0.0,-0.627433538437,0.0,-0.62884670496,0.0,1.27358353138,0.0,-0.0154889374971,0.0,-0.628837108612,0.0
1583762887585794250,3,30,1.27367806435,0.0,-0.00425568269566,0.0,-0.642977058887,0.0,1.22310900688,0.0,0.543300926685,0.0,-0.627543210983,0.0,-0.629001736641,0.0,1.27358353138,0.0,-0.0154889374971,0.0,-0.628949761391,0.0
1583762887786002939,3,31,1.27367806435,0.0,-0.00425568269566,0.0,-0.642977058887,0.0,1.22268307209,0.0,0.544667184353,0.0,-0.627271473408,0.0,-0.629116594791,0.0,1.27358353138,0.0,-0.0154889374971,0.0,-0.629053473473,0.0
1583762887986075209,3,32,1.27367806435,0.0,-0.00425568269566,0.0,-0.642977058887,0.0,1.22276473045,0.0,0.54593527317,0.0,-0.627642929554,0.0,-0.629117846489,0.0,1.27358353138,0.0,-0.0154889374971,0.0,-0.62910425663,0.0
1583762888186168765,3,33,1.27367806435,0.0,-0.00425568269566,0.0,-0.642977058887,0.0,1.22269046307,0.0,0.546829164028,0.0,-0.627696096897,0.0,-0.629121303558,0.0,1.27358353138,0.0,-0.0154889374971,0.0,-0.629103720188,0.0
1583762888386124914,3,34,1.27367806435,0.0,-0.00425568269566,0.0,-0.642977058887,0.0,1.22264814377,0.0,0.544369399548,0.0,-0.62763851881,0.0,-0.629233896732,0.0,1.27358353138,0.0,-0.0154889374971,0.0,-0.629101455212,0.0
1583762888586185209,3,35,1.27367806435,0.0,-0.00425568269566,0.0,-0.642977058887,0.0,1.22238111496,0.0,0.543486714363,0.0,-0.627383112907,0.0,-0.629115760326,0.0,1.27358353138,0.0,-0.0154889374971,0.0,-0.62922090292,0.0
1583762888786027377,3,36,1.27367806435,0.0,-0.00425568269566,0.0,-0.642977058887,0.0,1.22227919102,0.0,0.546791434288,0.0,-0.627792835236,0.0,-0.629114747047,0.0,1.27358353138,0.0,-0.0154889374971,0.0,-0.62910336256,0.0
1583762888986074971,3,37,1.27367806435,0.0,-0.00425568269566,0.0,-0.642977058887,0.0,1.22280466557,0.0,0.545844495296,0.0,-0.627852380276,0.0,-0.628999710083,0.0,1.27358353138,0.0,-0.0154889374971,0.0,-0.62910681963,0.0
1583762889185811800,3,38,1.27367806435,0.0,-0.00425568269566,0.0,-0.642977058887,0.0,1.22182643414,0.0,0.548170268536,0.0,-0.627554059029,0.0,-0.629118025303,0.0,1.27358353138,0.0,-0.0154889374971,0.0,-0.629104554653,0.0
1583762900285954605,4,1,0.638648867607,0.0,-0.00507494620979,0.0,-0.00263917562552,0.0,0.621630370617,0.0,0.219655290246,0.0,-0.00675417715684,0.0,-0.0119800716639,0.0,0.638625442982,0.0,-0.0105119412765,0.0,-0.0119450483471,0.0
1583762900486144503,4,2,0.638642251492,0.0,-0.00507492898032,0.0,-0.00263920961879,0.0,0.620893061161,0.0,0.225794747472,0.0,-0.00684180529788,0.0,-0.0119736026973,0.0,0.638588547707,0.0,-0.0105115137994,0.0,-0.0119486302137,0.0
1583762900686145391,4,3,0.638641238213,0.0,-0.00507492618635,0.0,-0.00263921520673,0.0,0.621392905712,0.0,0.217210203409,0.0,-0.00555305415764,0.0,-0.0119704762474,0.0,0.638581931591,0.0,-0.010511437431,0.0,-0.0119399828836,0.0
1583762900886117742,4,4,0.638641059399,0.0,-0.00507492572069,0.0,-0.00263921613805,0.0,0.620298445225,0.0,0.219258472323,0.0,-0.00635035522282,0.0,-0.0119684590027,0.0,0.638581931591,0.0,-0.010511437431,0.0,-0.0119572486728,0.0
1583762901086305719,4,5,0.638640999794,0.0,-0.00507492572069,0.0,-0.00263921613805,0.0,0.620335102081,0.0,0.218142718077,0.0,-0.00648190593347,0.0,-0.0120821855962,0.0,0.638580679893,0.0,-0.0105114234611,0.0,-0.0120911998674,0.0
1583762901286038922,4,6,0.638640999794,0.0,-0.00507492572069,0.0,-0.00263921613805,0.0,0.61996370554,0.0,0.22010679543,0.0,-0.00685943290591,0.0,-0.0120810866356,0.0,0.638580679893,0.0,-0.0105114234611,0.0,-0.0120911365375,0.0
1583762901486306340,4,7,0.638640999794,0.0,-0.00507492572069,0.0,-0.00263921613805,0.0,0.62021201849,0.0,0.218689024448,0.0,-0.00656935060397,0.0,-0.0120780002326,0.0,0.638580679893,0.0,-0.0105114225298,0.0,-0.0120925819501,0.0
1583762901686088622,4,8,0.638640999794,0.0,-0.00507492572069,0.0,-0.00263921613805,0.0,0.62034112215,0.0,0.221411973238,0.0,-0.00681758485734,0.0,-0.0120806898922,0.0,0.638580679893,0.0,-0.0105114225298,0.0,-0.0120952045545,0.0
1583762901886159127,4,9,0.638640999794,0.0,-0.00507492572069,0.0,-0.00263921613805,0.0,0.620034396648,0.0,0.217402219772,0.0,-0.00654574856162,0.0,-0.0120806898922,0.0,0.638580679893,0.0,-0.0105114225298,0.0,-0.0120927039534,0.0
1583762902085871432,4,10,0.638640999794,0.0,-0.00507492572069,0.0,-0.00263921613805,0.0,0.619119286537,0.0,0.219103738666,0.0,-0.00675024231896,0.0,-0.0120791895315,0.0,0.638580679893,0.0,-0.0105114225298,0.0,-0.012093283236,0.0
1583762902286139471,4,11,0.638640999794,0.0,-0.00507492572069,0.0,-0.00263921613805,0.0,0.61977648735,0.0,0.211836948991,0.0,-0.00679166335613,0.0,-0.0119556486607,0.0,0.638580679893,0.0,-0.0105114225298,0.0,-0.0120763462037,0.0
1583762902486076840,4,12,0.638640999794,0.0,-0.00507492572069,0.0,-0.00263921613805,0.0,0.619886577129,0.0,0.217259079218,0.0,-0.00617726333439,0.0,-0.0119514483958,0.0,0.638580679893,0.0,-0.0105114225298,0.0,-0.011977666989,0.0
1583762902686172887,4,13,0.638640999794,0.0,-0.00507492572069,0.0,-0.00263921613805,0.0,0.619886577129,0.0,0.217259079218,0.0,-0.00617726333439,0.0,-0.0119514483958,0.0,0.638580679893,0.0,-0.0105114225298,0.0,-0.011977666989,0.0
1583762902886006852,4,14,0.638640999794,0.0,-0.00507492572069,0.0,-0.00263921613805,0.0,0.619210064411,0.0,0.218644484878,0.0,-0.00718191917986,0.0,-0.0117078796029,0.0,0.638580679893,0.0,-0.0105114225298,0.0,-0.01197740715,0.0
1583762903086068719,4,15,0.638640999794,0.0,-0.00507492572069,0.0,-0.00263921613805,0.0,0.618746995926,0.0,0.219332650304,0.0,-0.00647661043331,0.0,-0.0115843191743,0.0,0.638580679893,0.0,-0.0105114225298,0.0,-0.0117326816544,0.0
1583762903286226431,4,16,0.638640999794,0.0,-0.00507492572069,0.0,-0.00263921613805,0.0,0.618746995926,0.0,0.219332650304,0.0,-0.00647661043331,0.0,-0.0115843191743,0.0,0.638580679893,0.0,-0.0105114225298,0.0,-0.0116122253239,0.0
1583762903486110880,4,17,0.638640999794,0.0,-0.00507492572069,0.0,-0.00263921613805,0.0,0.618746995926,0.0,0.219332650304,0.0,-0.00647661043331,0.0,-0.0115843191743,0.0,0.638580679893,0.0,-0.0105114225298,0.0,-0.0116122253239,0.0
1583762903686165824,4,18,0.638640999794,0.0,-0.00507492572069,0.0,-0.00263921613805,0.0,0.619216918945,0.0,0.222234979272,0.0,-0.00706826057285,0.0,-0.0115843191743,0.0,0.638580679893,0.0,-0.0105114225298,0.0,-0.0116120399907,0.0
1583762903886062174,4,19,0.638640999794,0.0,-0.00507492572069,0.0,-0.00263921613805,0.0,0.618766605854,0.0,0.21804395318,0.0,-0.00638392148539,0.0,-0.0114668970928,0.0,0.638580679893,0.0,-0.0105114225298,0.0,-0.0114868143573,0.0
1583762904086114629,4,20,0.638640999794,0.0,-0.00507492572069,0.0,-0.00263921613805,0.0,0.619007229805,0.0,0.217480972409,0.0,-0.00629197759554,0.0,-0.0115907080472,0.0,0.638580679893,0.0,-0.0105114225298,0.0,-0.0114951347932,0.0
1583762904286108517,4,21,0.638640999794,0.0,-0.00507492572069,0.0,-0.00263921613805,0.0,0.618724107742,0.0,0.214939877391,0.0,-0.00708217686042,0.0,-0.0117099992931,0.0,0.638580679893,0.0,-0.0105114225298,0.0,-0.011607198976,0.0
1583762904486251045,4,22,0.638640999794,0.0,-0.00507492572069,0.0,-0.00263921613805,0.0,0.618862330914,0.0,0.213334739208,0.0,-0.00691353157163,0.0,-0.0117090130225,0.0,0.638580679893,0.0,-0.0105114225298,0.0,-0.0117321144789,0.0
1583762904691218961,4,23,0.638640999794,0.0,-0.00507492572069,0.0,-0.00263921613805,0.0,0.618746399879,0.0,0.219233185053,0.0,-0.00668512098491,0.0,-0.0117122652009,0.0,0.638580679893,0.0,-0.0105114225298,0.0,-0.0117298420519,0.0
1583762904886053865,4,24,0.638640999794,0.0,-0.00507492572069,0.0,-0.00263921613805,0.0,0.619214773178,0.0,0.224029615521,0.0,-0.00726017309353,0.0,-0.0117127513513,0.0,0.638580679893,0.0,-0.0105114225298,0.0,-0.0117298420519,0.0
1583762905086100417,4,25,0.638640999794,0.0,-0.00507492572069,0.0,-0.00263921613805,0.0,0.619757175446,0.0,0.216867893934,0.0,-0.00647487444803,0.0,-0.0117127513513,0.0,0.638580679893,0.0,-0.0105114225298,0.0,-0.0117266038433,0.0
1583762905286093233,4,26,0.638640999794,0.0,-0.00507492572069,0.0,-0.00263921613805,0.0,0.619182229042,0.0,0.225511595607,0.0,-0.00685209780931,0.0,-0.0117077482864,0.0,0.638580679893,0.0,-0.0105114225298,0.0,-0.0117293596268,0.0
1583762905486257250,4,27,0.638640999794,0.0,-0.00507492572069,0.0,-0.00263921613805,0.0,0.619474112988,0.0,0.219553247094,0.0,-0.00656015006825,0.0,-0.0117039885372,0.0,0.638580679893,0.0,-0.0105114225298,0.0,-0.0117371184751,0.0
1583762905686200797,4,28,0.638640999794,0.0,-0.00507492572069,0.0,-0.00263921613805,0.0,0.620046317577,0.0,0.222000434995,0.0,-0.00611825613305,0.0,-0.0116996830329,0.0,0.638580679893,0.0,-0.0105114225298,0.0,-0.0117391394451,0.0
1583762905886127455,4,29,0.638640999794,0.0,-0.00507492572069,0.0,-0.00263921613805,0.0,0.618701815605,0.0,0.2180557549,0.0,-0.00715103559196,0.0,-0.011576609686,0.0,0.638580679893,0.0,-0.0105114225298,0.0,-0.0117429420352,0.0
1583762906086038586,4,30,0.638640999794,0.0,-0.00507492572069,0.0,-0.00263921613805,0.0,0.619303762913,0.0,0.223788157105,0.0,-0.00701214186847,0.0,-0.0115743363276,0.0,0.638580679893,0.0,-0.0105114225298,0.0,-0.0116235716268,0.0
1583762906286249974,4,31,0.638640999794,0.0,-0.00507492572069,0.0,-0.00263921613805,0.0,0.619536876678,0.0,0.2214730829,0.0,-0.00547975301743,0.0,-0.0115748597309,0.0,0.638580679893,0.0,-0.0105114225298,0.0,-0.0116235716268,0.0
1583762906486104066,4,32,0.638640999794,0.0,-0.00507492572069,0.0,-0.00263921613805,0.0,0.619001924992,0.0,0.215977028012,0.0,-0.00706345774233,0.0,-0.011453862302,0.0,0.638580679893,0.0,-0.0105114225298,0.0,-0.0115003706887,0.0
1583762906686082456,4,33,0.638640999794,0.0,-0.00507492572069,0.0,-0.00263921613805,0.0,0.61973720789,0.0,0.218683570623,0.0,-0.00643372675404,0.0,-0.011454384774,0.0,0.638580679893,0.0,-0.0105114225298,0.0,-0.0114993322641,0.0
1583762906886038347,4,34,0.638640999794,0.0,-0.00507492572069,0.0,-0.00263921613805,0.0,0.619338333607,0.0,0.216159418225,0.0,-0.00755870342255,0.0,-0.0113328630105,0.0,0.638580679893,0.0,-0.0105114225298,0.0,-0.0113794067875,0.0
1583762907086650011,4,35,0.638640999794,0.0,-0.00507492572069,0.0,-0.00263921613805,0.0,0.619552254677,0.0,0.219992846251,0.0,-0.00643939292058,0.0,-0.0112163210288,0.0,0.638580679893,0.0,-0.0105114225298,0.0,-0.0112512251362,0.0
1583762907286112803,4,36,0.638640999794,0.0,-0.00507492572069,0.0,-0.00263921613805,0.0,0.619925737381,0.0,0.218473508954,0.0,-0.00634552724659,0.0,-0.0113416174427,0.0,0.638580679893,0.0,-0.0105114225298,0.0,-0.0113706393167,0.0
1583762907486271075,4,37,0.638640999794,0.0,-0.00507492572069,0.0,-0.00263921613805,0.0,0.620240986347,0.0,0.219402819872,0.0,-0.00662849284708,0.0,-0.011344361119,0.0,0.638580679893,0.0,-0.0105114225298,0.0,-0.0113678919151,0.0
